     4.01           OBSERVATION DATA    M                   RINEX VERSION / TYPE
GnssLogger          samsung 10          20251117 000638 UTC PGM / RUN BY / DATE
Google GnssLogger                                           MARKER NAME
Unknown                                                     MARKER NUMBER
Unknown             Unknown                                 OBSERVER / AGENCY
Unknown             GnssLogger          v3.1.1.1            REC # / TYPE / VERS
Unknown             Unknown                                 ANT # / TYPE
        0.0000        0.0000        0.0000                  ANTENNA: DELTA H/E/N
G    3 C1C D1C S1C                                          SYS / # / OBS TYPES
R    3 C1C D1C S1C                                          SYS / # / OBS TYPES
  2025    11    17    00    06   38.0000000     GLONASS     TIME OF FIRST OBS
 9 R01  1 R03  5 R11  0 R12 -1 R13 -2 R20  2 R21  4 R22 -3  GLONASS SLOT / FRQ #
   R23  3                                                   GLONASS SLOT / FRQ #
samsung SM-G9600 (Android 10) HW Year: 2017 HW Model:       COMMENT

                                                            END OF HEADER
> 2025 11 17 00 06 38.4414696  0 13                      
R22  21346686.378 6      3450.750 6        39.700 6
R12  20310301.753 6      1069.100 6        40.800 6
R11  21138246.978 7     -1634.250 7        42.000 7
R21  21140520.604 7      -676.250 7        43.500 7
G01  23710784.647 7       639.600 7        41.700 7
G02  24877144.293 5     -1672.800 5        32.600 5
G07  23301203.994 5     -2708.350 5        35.100 5
G13  20852059.102 6      -667.650 6        36.800 6
G14  20553833.959 7      -811.550 7        47.000 7
G17  20438181.823 7       733.750 7        45.800 7
G19  21327109.331 6      2527.850 6        39.300 6
G22  20755905.168 6      -379.800 6        38.900 6
G30  21287573.601 7     -1889.900 7        45.800 7
> 2025 11 17 00 06 39.4414696  0 18                      
R22  21346038.827 7      3450.480 7        41.800 7
R13  23093005.627 3      2640.650 3        22.800 3
R12  20310106.887 6      1070.925 6        39.800 6
R11  21138550.968 7     -1634.910 7        45.200 7
R20  24089939.064 4     -3407.900 4        24.300 4
R23  24105137.343 3      4495.100 3        22.500 3
R21  21140657.909 7      -676.887 7        43.500 7
R03  22956931.929 4      2161.750 4        24.000 4
G01  23710673.724 7       639.185 7        41.900 7
G02  24877477.063 5     -1670.520 5        32.300 5
G07  23301722.935 6     -2709.958 6        38.200 6
G13  20852189.511 6      -667.113 6        36.700 6
G14  20553979.958 7      -810.113 7        41.700 7
G15  22346721.469 5       284.595 5        31.500 5
G17  20438040.921 7       734.500 7        44.000 7
G19  21326637.158 6      2526.762 6        41.400 6
G22  20755967.824 6      -378.190 6        40.400 6
G30  21287930.354 7     -1890.276 7        42.300 7
> 2025 11 17 00 06 40.4414696  0 19                      
R22  21345391.875 7      3454.338 7        43.100 7
R13  23092545.745 3      2635.800 3        21.500 3
R12  20309923.714 6      1075.272 6        37.500 6
R11  21138852.559 7     -1630.441 7        41.900 7
R01  22873130.043 3     -4023.350 3        23.100 3
R20  24090573.425 4     -3410.500 4        25.000 4
R23  24104295.226 3      4494.550 3        21.600 3
R21  21140776.027 6      -673.246 6        39.100 6
R03  22956523.911 3      2161.450 3        22.300 3
G01  23710545.113 6       643.061 6        39.800 6
G02  24877814.929 5     -1667.085 5        30.000 5
G07  23302241.876 6     -2705.473 6        36.000 6
G13  20852308.529 7      -663.067 7        42.700 7
G14  20554143.944 6      -806.224 6        40.500 6
G15  22346663.309 6       286.858 6        39.800 6
G17  20437905.115 6       738.292 6        40.800 6
G19  21326172.180 6      2530.640 6        39.500 6
G22  20756035.877 5      -374.440 5        34.300 5
G30  21288285.908 7     -1886.625 7        43.900 7
> 2025 11 17 00 06 41.4414696  0 19                      
R22  21344741.625 7      3439.511 7        42.500 7
R13  23092034.299 3      2634.050 3        20.100 3
R12  20309703.667 6      1060.408 6        39.500 6
R11  21139153.850 6     -1644.582 6        40.800 6
R01  22873896.313 4     -4027.500 4        23.900 4
R20  24091202.689 4     -3409.050 4        25.300 4
R23  24103479.190 3      4494.300 3        20.600 3
R21  21140906.737 6      -687.815 6        39.100 6
R03  22956127.885 4      2157.200 4        24.000 4
G01  23710422.498 6       628.382 6        40.100 6
G02  24878163.288 4     -1687.650 4        27.200 4
G07  23302751.523 5     -2719.840 5        34.800 5
G13  20852436.241 7      -678.315 7        42.400 7
G14  20554294.140 6      -820.334 6        39.300 6
G15  22346612.644 6       271.228 6        41.200 6
G17  20437763.313 7       723.446 7        41.500 7
G19  21325694.311 7      2515.976 7        41.900 7
G22  20756098.534 6      -388.990 6        35.600 6
G30  21288649.257 7     -1900.826 7        44.600 7
> 2025 11 17 00 06 42.4414696  0 19                      
R22  21344102.767 7      3426.681 7        43.000 7
R13  23091550.134 3      2631.850 3        19.400 3
R12  20309512.999 6      1048.648 6        41.000 6
R11  21139468.332 7     -1657.573 7        44.600 7
R01  22874638.299 4     -4031.450 4        24.200 4
R20  24091950.672 3     -3443.500 3        22.500 3
R23  24102625.382 3      4492.950 3        19.100 3
R21  21141039.245 6      -701.851 6        41.400 6
R03  22955732.159 4      2151.600 4        24.300 4
G01  23710320.269 6       615.457 6        39.400 6
G02  24878452.288 5     -1693.988 5        32.500 5
G07  23303259.071 5     -2732.408 5        33.400 5
G13  20852572.047 6      -690.410 6        37.200 6
G14  20554454.529 7      -832.734 7        43.600 7
G15  22346586.862 5       257.250 5        32.900 5
G17  20437616.714 6       711.290 6        37.700 6
G19  21325198.154 6      2504.541 6        35.600 6
G22  20756181.876 6      -400.288 6        38.500 6
G30  21289011.106 7     -1913.247 7        42.400 7
> 2025 11 17 00 06 43.4414696  0 18                      
R22  21343472.603 7      3418.219 7        43.100 7
R13  23091094.750 3      2602.150 3        23.000 3
R12  20309320.532 7      1039.369 7        41.900 7
R11  21139782.515 7     -1666.275 7        42.600 7
R01  22875363.197 4     -4054.350 4        23.600 4
R20  24092539.764 3     -3436.250 3        23.300 3
R21  21141166.957 6      -711.372 6        39.000 6
R03  22955308.552 4      2125.450 4        23.600 4
G01  23710201.851 6       607.120 6        38.600 6
G02  24878778.162 5     -1702.381 5        30.300 5
G07  23303796.599 5     -2740.547 5        30.900 5
G13  20852703.056 6      -699.169 6        37.600 6
G14  20554619.115 7      -841.066 7        43.300 7
G15  22346524.205 6       250.592 6        38.100 6
G17  20437481.808 6       702.280 6        38.000 6
G19  21324741.271 6      2495.366 6        39.700 6
G22  20756262.520 6      -409.447 6        40.700 6
G30  21289378.352 7     -1921.922 7        43.100 7
> 2025 11 17 00 06 44.4414696  0 16                      
R22  21342820.255 7      3407.960 7        43.000 7
R12  20309126.266 7      1029.859 7        43.000 7
R11  21140093.100 7     -1675.963 7        42.600 7
R01  22876166.941 4     -4064.500 4        24.500 4
R20  24093138.449 4     -3452.900 4        26.000 4
R21  21141298.865 6      -721.485 6        38.000 6
G01  23710085.231 6       596.765 6        39.600 6
G02  24879098.940 4     -1714.100 4        27.100 4
G07  23304305.647 5     -2749.784 5        30.500 5
G13  20852825.671 6      -709.316 6        37.800 6
G14  20554780.104 7      -851.066 7        44.100 7
G15  22346486.431 6       240.212 6        38.800 6
G17  20437345.702 6       691.972 6        35.600 6
G19  21324266.699 6      2485.484 6        39.900 6
G22  20756339.567 6      -419.348 6        38.200 6
G30  21289738.103 6     -1931.925 6        39.300 6
> 2025 11 17 00 06 45.4414696  0 18                      
R22  21342192.190 7      3409.216 7        43.600 7
R12  20308931.401 7      1030.333 7        42.100 7
R11  21140410.880 7     -1675.220 7        46.300 7
R01  22876886.743 3     -4062.550 3        22.500 3
R20  24093827.672 4     -3451.850 4        24.400 4
R23  24100152.094 3      4459.600 3        19.400 3
R21  21141432.872 7      -721.480 7        42.900 7
R03  22954514.702 3      2114.050 3        22.900 3
G01  23709975.507 6       596.964 6        38.300 6
G02  24879433.808 5     -1712.244 5        32.900 5
G07  23304839.877 5     -2749.819 5        34.000 5
G13  20852965.374 6      -709.352 6        39.000 6
G14  20554931.199 7      -850.491 7        43.100 7
G15  22346441.762 6       239.986 6        35.900 6
G17  20437208.697 5       691.794 5        34.000 5
G19  21323801.122 6      2485.795 6        35.600 6
G22  20756406.121 6      -418.758 6        35.600 6
G30  21290115.841 6     -1931.355 6        40.700 6
> 2025 11 17 00 06 46.4414696  0 18                      
R22  21341545.238 7      3407.746 7        44.100 7
R12  20308733.238 6      1030.244 6        41.000 6
R11  21140720.266 7     -1675.550 7        45.900 7
R01  22877677.295 3     -4065.000 3        22.900 3
R20  24094386.785 4     -3453.000 4        24.600 4
R23  24099293.488 3      4452.250 3        22.600 3
R21  21141567.479 7      -722.470 7        42.800 7
R03  22954155.850 3      2120.100 3        21.300 3
G01  23709861.586 6       596.541 6        39.100 6
G02  24879751.588 5     -1712.821 5        32.900 5
G07  23305360.616 5     -2750.347 5        34.200 5
G13  20853100.281 6      -710.053 6        39.100 6
G14  20555102.980 7      -850.684 7        42.800 7
G15  22346401.890 6       239.950 6        36.300 6
G17  20437077.987 5       691.428 5        34.100 5
G19  21323315.758 6      2485.432 6        35.600 6
G22  20756497.258 6      -418.874 6        37.000 6
G30  21290481.888 7     -1931.931 7        41.600 7
> 2025 11 17 00 06 47.4414696  0 18                      
R22  21340908.778 7      3405.681 7        44.600 7
R12  20308541.971 6      1028.246 6        41.000 6
R11  21141036.547 7     -1677.321 7        46.100 7
R01  22878496.628 3     -4070.400 3        23.300 3
R20  24095088.899 3     -3461.050 3        23.100 3
R23  24098413.597 4      4455.500 4        23.800 4
R21  21141705.084 7      -725.184 7        43.300 7
R03  22953740.038 4      2113.800 4        27.900 4
G01  23709745.567 6       594.404 6        40.400 6
G02  24880084.957 5     -1715.241 5        34.400 5
G07  23305890.050 5     -2752.009 5        34.900 5
G13  20853230.391 6      -712.235 6        39.400 6
G14  20555263.069 6      -852.580 6        40.800 6
G15  22346356.022 5       237.564 5        34.100 5
G17  20436937.984 5       689.228 5        32.400 5
G19  21322849.580 6      2482.930 6        36.100 6
G22  20756556.617 5      -420.569 5        34.800 5
G30  21290850.033 7     -1934.114 7        41.500 7
> 2025 11 17 00 06 48.4414696  0 19                      
R22  21340272.319 7      3406.866 7        44.000 7
R13  23088655.039 3      2595.850 3        20.700 3
R12  20308358.198 7      1029.776 7        42.400 7
R11  21141354.027 7     -1676.118 7        44.000 7
R01  22879156.471 3     -4064.700 3        21.900 3
R20  24095683.987 4     -3452.650 4        25.600 4
R23  24097591.267 4      4459.550 4        24.700 4
R21  21141842.389 6      -724.726 6        41.200 6
R03  22953353.306 5      2113.106 5        31.300 5
G01  23709629.247 7       595.270 7        42.500 7
G02  24880404.236 5     -1714.391 5        31.900 5
G07  23306429.077 6     -2750.806 6        35.900 6
G13  20853366.796 6      -711.181 6        37.700 6
G14  20555418.062 6      -851.141 6        39.300 6
G15  22346287.069 7       238.319 7        41.800 7
G17  20436816.868 5       690.191 5        32.000 5
G19  21322380.105 6      2484.458 6        37.400 6
G22  20756631.265 5      -418.990 5        31.900 5
G30  21291224.174 7     -1932.597 7        42.800 7
> 2025 11 17 00 06 49.4414696  0 19                      
R22  21339636.459 7      3408.743 7        45.000 7
R13  23088151.987 5      2600.418 5        30.300 5
R12  20308171.727 7      1032.030 7        42.200 7
R11  21141664.612 7     -1673.686 7        44.600 7
R01  22879944.926 3     -4068.850 3        21.600 3
R20  24096351.925 4     -3447.400 4        27.300 4
R23  24096794.418 4      4459.850 4        24.700 4
R21  21141975.797 7      -722.972 7        42.800 7
R03  22952952.184 5      2115.109 5        32.000 5
G01  23709517.125 7       597.140 7        42.500 7
G02  24880737.905 5     -1712.041 5        33.700 5
G07  23306935.426 6     -2748.920 6        36.100 6
G13  20853505.600 6      -709.671 6        39.400 6
G14  20555571.856 6      -849.203 6        39.300 6
G15  22346238.203 7       239.896 7        44.100 7
G17  20436697.551 5       691.784 5        33.900 5
G19  21321910.331 6      2486.407 6        37.600 6
G22  20756705.913 5      -417.245 5        30.500 5
G30  21291590.520 7     -1930.868 7        44.700 7
> 2025 11 17 00 06 50.4414696  0 18                      
R22  21338994.603 7      3407.077 7        45.500 7
R13  23087662.726 5      2598.965 5        30.400 5
R12  20307973.564 7      1030.512 7        43.200 7
R11  21141979.694 7     -1675.177 7        44.100 7
R20  24097009.070 5     -3450.679 5        30.100 5
R23  24095974.486 4      4456.800 4        25.300 4
R21  21142111.303 7      -725.166 7        41.900 7
R03  22952555.858 5      2113.136 5        33.000 5
G01  23709403.503 7       595.328 7        43.700 7
G02  24881072.174 5     -1713.994 5        32.300 5
G07  23307460.663 5     -2750.424 5        35.300 5
G13  20853641.706 6      -711.674 6        40.200 6
G14  20555732.245 6      -850.710 6        39.700 6
G15  22346192.335 7       237.924 7        44.700 7
G17  20436565.042 5       690.043 5        35.100 5
G19  21321434.560 6      2484.691 6        38.200 6
G22  20756789.256 5      -418.991 5        31.000 5
G30  21291958.666 7     -1932.601 7        45.300 7
> 2025 11 17 00 06 51.4414696  0 19                      
R22  21338356.945 7      3403.316 7        45.700 7
R13  23087175.863 5      2596.124 5        30.400 5
R12  20307787.393 7      1027.123 7        43.300 7
R11  21142290.878 7     -1678.650 7        44.000 7
R01  22881395.322 3     -4064.450 3        21.400 3
R20  24097636.535 5     -3454.378 5        30.600 5
R23  24095225.604 3      4455.550 3        23.400 3
R21  21142256.103 7      -729.307 7        42.200 7
R03  22952168.526 5      2109.053 5        32.400 5
G01  23709288.083 7       591.735 7        43.600 7
G02  24881398.348 5     -1717.767 5        33.200 5
G07  23307985.599 6     -2754.028 6        35.700 6
G13  20853776.913 6      -715.529 6        40.100 6
G14  20555894.732 6      -854.038 6        40.200 6
G15  22346146.467 7       234.067 7        44.700 7
G17  20436441.528 5       686.381 5        35.000 5
G19  21320960.588 6      2480.959 6        38.300 6
G22  20756858.808 5      -422.338 5        31.900 5
G30  21292324.113 7     -1936.301 7        45.200 7
> 2025 11 17 00 06 52.4414696  0 19                      
R22  21337716.588 7      3402.169 7        45.800 7
R13  23086691.098 5      2595.742 5        31.000 5
R12  20307589.830 7      1026.339 7        43.900 7
R11  21142602.363 7     -1679.428 7        44.500 7
R01  22882210.157 3     -4067.150 3        21.600 3
R20  24098289.183 5     -3455.869 5        30.900 5
R23  24094304.342 4      4454.500 4        26.100 4
R21  21142395.806 7      -730.564 7        42.800 7
R03  22951761.108 5      2107.863 5        32.600 5
G01  23709176.261 7       590.709 7        43.700 7
G02  24881718.227 5     -1718.517 5        31.800 5
G07  23308509.636 6     -2754.515 6        36.100 6
G13  20853913.018 6      -716.643 6        40.000 6
G14  20556059.918 6      -854.845 6        39.900 6
G15  22346101.798 7       232.840 7        44.500 7
G17  20436309.619 5       685.069 5        35.000 5
G19  21320492.012 6      2480.404 6        37.500 6
G22  20756949.645 5      -423.120 5        31.500 5
G30  21292694.356 7     -1937.182 7        45.200 7
> 2025 11 17 00 06 53.4414696  0 19                      
R22  21337081.628 7      3399.377 7        46.100 7
R13  23086193.743 5      2592.777 5        31.000 5
R12  20307401.261 7      1023.774 7        44.300 7
R11  21142915.346 7     -1681.993 7        44.500 7
R01  22882991.716 3     -4069.400 3        21.200 3
R20  24098918.148 5     -3458.792 5        31.300 5
R23  24093464.024 4      4450.750 4        26.400 4
R21  21142532.211 7      -733.925 7        43.100 7
R03  22951364.783 5      2104.644 5        32.500 5
G01  23709063.839 7       587.683 7        43.800 7
G02  24882039.904 5     -1721.485 5        31.200 5
G07  23309040.869 6     -2757.355 6        36.600 6
G13  20854046.426 6      -719.887 6        40.200 6
G14  20556220.007 6      -857.573 6        40.400 6
G15  22346055.929 7       229.853 7        44.800 7
G17  20436182.507 6       682.380 6        35.600 6
G19  21320022.238 6      2477.379 6        37.900 6
G22  20757037.484 5      -425.711 5        32.400 5
G30  21293061.003 7     -1939.913 7        45.300 7
> 2025 11 17 00 06 54.4414696  0 18                      
R22  21336444.569 7      3399.267 7        45.700 7
R13  23085701.184 5      2593.546 5        31.000 5
R12  20307209.993 7      1023.953 7        43.900 7
R11  21143229.229 7     -1681.925 7        44.000 7
R20  24099579.490 5     -3458.265 5        31.400 5
R23  24092662.379 4      4446.500 4        24.700 4
R21  21142669.816 7      -734.464 7        42.700 7
R03  22950995.139 5      2105.129 5        30.200 5
G01  23708953.815 7       587.707 7        44.000 7
G02  24882349.590 5     -1721.845 5        31.900 5
G07  23309558.910 6     -2757.139 6        36.500 6
G13  20854178.934 6      -720.075 6        40.200 6
G14  20556387.291 6      -857.467 6        39.900 6
G15  22346013.659 7       229.573 7        44.900 7
G17  20436053.297 6       681.833 6        35.800 6
G19  21319544.069 6      2477.311 6        38.100 6
G22  20757116.029 5      -425.520 5        32.800 5
G30  21293429.747 7     -1939.925 7        45.200 7
> 2025 11 17 00 06 55.4414696  0 19                      
R22  21335809.908 7      3399.622 7        45.800 7
R13  23085229.010 5      2594.174 5        31.400 5
R12  20307015.128 7      1024.612 7        44.000 7
R11  21143541.013 7     -1681.062 7        44.000 7
R01  22884421.127 3     -4067.150 3        21.300 3
R20  24100216.549 5     -3457.920 5        31.100 5
R23  24091795.679 4      4455.750 4        25.400 4
R21  21142806.222 7      -734.644 7        43.200 7
R03  22950596.415 4      2104.650 4        28.800 4
G01  23708840.493 7       587.934 7        44.200 7
G02  24882665.871 5     -1721.676 5        31.800 5
G07  23310084.746 6     -2756.849 6        36.700 6
G13  20854319.837 6      -719.794 6        39.800 6
G14  20556545.282 6      -856.726 6        39.500 6
G15  22345968.390 7       229.696 7        45.400 7
G17  20435923.786 6       682.264 6        36.300 6
G19  21319067.099 6      2477.498 6        37.400 6
G22  20757208.665 5      -424.784 5        34.000 5
G30  21293801.490 7     -1939.423 7        44.900 7
> 2025 11 17 00 06 56.4414696  0 18                      
R22  21335170.451 7      3402.225 7        45.100 7
R13  23084748.143 4      2597.500 4        29.300 4
R12  20306816.965 7      1027.485 7        42.800 7
R11  21143854.296 7     -1678.266 7        43.300 7
R20  24100874.594 5     -3455.397 5        31.200 5
R23  24090934.975 3      4456.800 3        22.900 3
R21  21142943.227 7      -732.360 7        42.700 7
R03  22950186.598 4      2111.300 4        24.200 4
G01  23708726.572 7       590.289 7        43.600 7
G02  24882988.148 5     -1718.913 5        30.500 5
G07  23310606.984 6     -2754.136 6        36.500 6
G13  20854451.146 6      -717.644 6        38.900 6
G14  20556707.769 6      -853.863 6        38.700 6
G15  22345926.419 7       232.088 7        44.600 7
G17  20435798.473 6       684.275 6        35.700 6
G19  21318594.026 6      2480.330 6        36.800 6
G22  20757300.702 5      -422.273 5        33.900 5
G30  21294169.635 7     -1936.994 7        43.900 7
> 2025 11 17 00 06 57.4414696  0 19                      
R22  21334532.792 7      3398.836 7        45.100 7
R13  23084255.584 5      2594.041 5        30.400 5
R12  20306630.194 7      1024.345 7        43.400 7
R11  21144172.376 7     -1681.341 7        43.500 7
R01  22886007.329 3     -4069.600 3        20.600 3
R20  24101511.952 5     -3459.430 5        31.600 5
R23  24090140.525 4      4451.400 4        26.000 4
R21  21143076.035 7      -736.325 7        42.600 7
R03  22949712.926 4      2099.300 4        24.800 4
G01  23708615.649 7       586.833 7        44.200 7
G02  24883319.418 5     -1722.502 5        30.500 5
G07  23311132.521 6     -2757.078 6        36.700 6
G13  20854583.354 6      -721.176 6        39.000 6
G14  20556865.160 6      -856.909 6        38.200 6
G15  22345882.349 7       228.330 7        44.800 7
G17  20435660.568 5       681.274 5        34.900 5
G19  21318121.853 6      2477.124 6        36.800 6
G22  20757383.145 5      -425.274 5        34.300 5
G30  21294535.981 7     -1940.203 7        44.200 7
> 2025 11 17 00 06 58.4414696  0 17                      
R22  21333898.431 7      3398.143 7        44.900 7
R13  23083776.516 5      2594.075 5        30.400 5
R12  20306438.627 7      1023.977 7        43.000 7
R11  21144488.657 7     -1681.764 7        43.100 7
R20  24102146.013 5     -3459.420 5        31.400 5
R23  24089309.200 4      4449.450 4        25.300 4
R21  21143216.338 7      -737.409 7        42.300 7
G01  23708503.826 7       586.139 7        44.300 7
G02  24883641.995 5     -1723.200 5        29.800 5
G07  23311658.357 6     -2757.647 6        36.900 6
G13  20854720.359 6      -722.162 6        38.500 6
G14  20557031.845 6      -857.349 6        37.500 6
G15  22345838.280 7       227.545 7        44.400 7
G17  20435530.459 5       680.640 5        33.600 5
G19  21317651.479 6      2476.396 6        36.400 6
G22  20757475.481 5      -425.642 5        35.400 5
G30  21294907.424 7     -1940.939 7        43.700 7
> 2025 11 17 00 06 59.4414696  0 17                      
R22  21333261.372 7      3399.928 7        45.100 7
R13  23083245.584 4      2597.950 4        28.900 4
R12  20306245.561 7      1026.009 7        42.900 7
R11  21144798.043 7     -1679.725 7        43.800 7
R20  24102806.756 5     -3457.778 5        31.400 5
R23  24088447.297 4      4451.550 4        24.700 4
R21  21143349.745 7      -736.093 7        42.600 7
G01  23708393.802 7       587.705 7        44.400 7
G02  24883972.067 5     -1722.450 5        29.600 5
G07  23312178.497 6     -2755.758 6        36.700 6
G13  20854857.964 6      -720.406 6        38.100 6
G14  20557191.634 6      -855.292 6        37.800 6
G15  22345796.609 7       229.129 7        44.900 7
G17  20435401.848 5       681.812 5        33.300 5
G19  21317174.209 6      2478.312 6        36.400 6
G22  20757550.729 6      -423.743 6        35.500 6
G30  21295274.370 7     -1938.918 7        44.000 7
> 2025 11 17 00 07 00.4414696  0 18                      
R22  21332619.217 7      3402.820 7        45.700 7
R13  23082797.394 5      2600.261 5        30.400 5
R12  20306050.396 7      1029.173 7        42.600 7
R11  21145110.726 7     -1676.462 7        43.700 7
R01  22888242.281 3     -4062.600 3        19.300 3
R20  24103459.704 5     -3455.201 5        31.000 5
R23  24087634.260 4      4460.500 4        25.000 4
R21  21143491.847 7      -733.289 7        42.400 7
G01  23708281.680 7       590.786 7        44.300 7
G02  24884299.740 5     -1716.150 5        29.700 5
G07  23312706.131 6     -2752.416 6        37.000 6
G13  20854996.468 6      -717.921 6        38.300 6
G14  20557352.923 6      -852.287 6        38.200 6
G15  22345753.738 7       231.825 7        45.400 7
G17  20435264.842 5       684.550 5        33.800 5
G19  21316699.038 6      2481.361 6        36.800 6
G22  20757634.071 6      -420.473 6        36.100 6
G30  21295645.813 7     -1936.047 7        44.500 7
> 2025 11 17 00 07 01.4414696  0 17                      
R22  21331979.760 7      3399.113 7        45.200 7
R13  23082317.426 5      2599.550 5        29.900 5
R12  20305858.828 7      1025.793 7        42.300 7
R11  21145430.905 7     -1679.901 7        43.700 7
R20  24104102.159 5     -3458.819 5        32.100 5
R23  24086821.522 4      4452.400 4        24.900 4
R21  21143628.253 7      -737.636 7        42.300 7
G01  23708171.356 7       586.852 7        45.400 7
G02  24884632.509 5     -1720.850 5        29.800 5
G07  23313233.466 6     -2756.192 6        37.400 6
G13  20855130.775 6      -721.730 6        38.200 6
G14  20557524.404 6      -855.526 6        38.000 6
G15  22345710.269 7       227.873 7        45.300 7
G17  20435139.529 5       680.839 5        33.900 5
G19  21316228.964 6      2477.233 6        37.300 6
G22  20757710.518 6      -423.982 6        36.400 6
G30  21296017.256 7     -1939.801 7        44.200 7
> 2025 11 17 00 07 02.4414696  0 18                      
R22  21331347.198 7      3397.049 7        44.600 7
R13  23081817.672 4      2596.200 4        29.200 4
R12  20305666.362 7      1023.365 7        42.200 7
R11  21145736.393 7     -1681.788 7        43.500 7
R01  22889821.288 3     -4064.750 3        20.100 3
R20  24104736.220 5     -3460.868 5        30.600 5
R23  24086000.391 4      4455.800 4        25.500 4
R21  21143771.553 7      -740.162 7        42.600 7
G01  23708056.536 7       583.734 7        44.600 7
G02  24884944.893 4     -1722.000 4        29.100 4
G07  23313753.007 6     -2758.281 6        37.000 6
G13  20855268.380 6      -724.542 6        37.600 6
G14  20557688.091 6      -857.803 6        37.700 6
G15  22345666.499 7       225.547 7        44.700 7
G17  20435008.820 5       677.864 5        34.600 5
G19  21315754.092 6      2474.897 6        36.700 6
G22  20757784.267 6      -426.244 6        35.600 6
G30  21296385.401 7     -1941.827 7        44.500 7
> 2025 11 17 00 07 03.4414696  0 19                      
R22  21330705.042 7      3411.760 7        44.500 7
R13  23081320.316 5      2610.300 5        29.800 5
R12  20305471.496 7      1039.500 7        41.800 7
R11  21146061.068 7     -1666.385 7        43.200 7
R01  22890612.740 3     -4044.500 3        21.200 3
R20  24105388.868 5     -3444.100 5        30.200 5
R23  24085128.894 4      4466.600 4        24.500 4
R21  21143906.160 7      -725.647 7        42.800 7
R03  22947477.074 3      2109.650 3        17.600 3
G01  23707944.414 7       599.650 7        45.100 7
G02  24885252.180 4     -1710.250 4        29.200 4
G07  23314275.545 6     -2743.215 6        37.100 6
G13  20855401.788 6      -709.900 6        37.100 6
G14  20557851.178 6      -842.832 6        38.000 6
G15  22345624.528 7       239.795 7        45.000 7
G17  20434876.911 5       692.700 5        34.300 5
G19  21315276.523 6      2490.350 6        36.300 6
G22  20757860.714 6      -411.217 6        35.500 6
G30  21296753.546 7     -1927.129 7        44.000 7
> 2025 11 17 00 07 04.4414695  0 18                      
R22  21330073.080 7      3404.892 7        44.700 7
R13  23080832.854 5      2599.400 5        29.900 5
R12  20305279.030 7      1032.599 7        42.100 7
R11  21146370.154 7     -1673.249 7        43.900 7
R01  22891302.563 3     -4059.850 3        22.400 3
R20  24106019.632 5     -3452.817 5        30.600 5
R23  24084293.073 4      4461.900 4        23.900 4
R21  21144043.165 7      -733.132 7        43.000 7
G01  23707829.893 7       592.206 7        45.300 7
G02  24885613.730 4     -1715.550 4        29.100 4
G07  23314805.878 6     -2750.145 6        37.900 6
G13  20855535.195 6      -716.728 6        37.400 6
G14  20558010.967 6      -849.351 6        37.800 6
G15  22345577.760 7       232.883 7        45.300 7
G17  20434746.201 5       686.204 5        34.600 5
G19  21314800.453 6      2483.100 6        35.700 6
G22  20757938.660 6      -417.821 6        35.600 6
G30  21297120.192 7     -1933.792 7        44.100 7
> 2025 11 17 00 07 05.4414695  0 19                      
R22  21329433.023 7      3399.313 7        45.200 7
R13  23080327.704 4      2599.150 4        29.200 4
R12  20305080.867 7      1026.905 7        41.600 7
R11  21146684.037 7     -1678.594 7        43.800 7
R01  22892073.329 3     -4070.850 3        22.400 3
R20  24106669.282 5     -3456.200 5        29.900 5
R23  24083454.853 4      4460.950 4        23.900 4
R21  21144173.275 7      -739.298 7        43.000 7
R03  22946584.892 3      2107.500 3        21.600 3
G01  23707721.068 7       586.742 7        45.200 7
G02  24885937.506 5     -1720.950 5        29.500 5
G07  23315326.317 6     -2755.140 6        37.100 6
G13  20855678.496 6      -722.050 6        36.700 6
G14  20558170.157 6      -854.916 6        37.700 6
G15  22345536.089 7       226.986 7        45.600 7
G17  20434612.494 5       680.236 5        33.500 5
G19  21314335.175 6      2477.546 6        38.000 6
G22  20758013.908 6      -423.288 6        36.600 6
G30  21297488.637 7     -1939.421 7        43.800 7
> 2025 11 17 00 07 06.4414695  0 18                      
R22  21328798.962 7      3405.742 7        45.300 7
R13  23079876.516 4      2602.500 4        28.300 4
R12  20304886.601 6      1033.681 6        40.600 6
R11  21147000.318 7     -1671.791 7        43.500 7
R20  24107314.435 4     -3450.550 4        28.800 4
R23  24082647.512 4      4464.000 4        23.600 4
R21  21144318.075 7      -733.213 7        42.500 7
R03  22946212.250 3      2110.550 3        22.100 3
G01  23707605.948 7       593.080 7        44.700 7
G02  24886269.076 5     -1715.205 5        30.400 5
G07  23315844.359 6     -2748.763 6        36.800 6
G13  20855816.101 6      -716.393 6        36.000 6
G14  20558334.143 6      -848.289 6        37.800 6
G15  22345491.720 7       233.252 7        45.200 7
G17  20434473.990 5       689.232 5        32.600 5
G19  21313868.398 6      2484.170 6        38.100 6
G22  20758093.053 6      -416.763 6        35.700 6
G30  21297857.982 7     -1933.039 7        43.500 7
> 2025 11 17 00 07 07.4414696  0 19                      
R22  21328155.907 7      3413.988 7        45.500 7
R13  23079352.479 5      2613.800 5        29.500 5
R12  20304682.143 6      1042.297 6        40.700 6
R11  21147310.304 7     -1663.261 7        44.200 7
R01  22893727.284 3     -4055.550 3        20.100 3
R20  24107959.589 4     -3442.500 4        28.000 4
R23  24081772.118 4      4473.000 4        25.100 4
R21  21144452.082 7      -725.274 7        43.000 7
R03  22945925.348 4      2113.500 4        24.500 4
G01  23707493.526 7       600.931 7        44.700 7
G02  24886614.737 5     -1703.599 5        31.400 5
G07  23316371.094 6     -2740.430 6        36.400 6
G13  20855955.205 6      -708.418 6        36.000 6
G14  20558494.232 6      -839.876 6        38.700 6
G15  22345447.351 7       241.121 7        45.800 7
G17  20434348.976 5       694.523 5        34.000 5
G19  21313392.627 6      2492.243 6        38.400 6
G22  20758171.599 6      -408.485 6        36.300 6
G30  21298221.930 7     -1924.943 7        44.000 7
> 2025 11 17 00 07 08.4414696  0 19                      
R22  21327516.150 7      3405.542 7        44.200 7
R13  23078902.790 4      2606.950 4        28.500 4
R12  20304490.276 6      1034.135 6        38.800 6
R11  21147621.188 7     -1671.274 7        44.900 7
R01  22894356.848 3     -4066.300 3        21.100 3
R20  24108620.631 4     -3453.350 4        27.400 4
R23  24080990.259 4      4462.650 4        25.100 4
R21  21144587.289 7      -734.151 7        44.200 7
R03  22945448.079 3      2116.900 3        22.500 3
G01  23707379.305 7       592.483 7        44.500 7
G02  24886926.521 5     -1715.244 5        32.200 5
G07  23316889.135 6     -2748.752 6        35.600 6
G13  20856082.616 5      -715.156 5        32.800 5
G14  20558659.118 6      -848.150 6        38.700 6
G15  22345402.382 7       232.377 7        44.600 7
G17  20434216.768 5       686.178 5        33.300 5
G19  21312921.953 6      2483.882 6        37.800 6
G22  20758249.545 6      -416.288 6        37.300 6
G30  21298588.876 7     -1933.311 7        42.700 7
> 2025 11 17 00 07 09.4414696  0 19                      
R22  21326882.388 7      3397.143 7        44.700 7
R13  23078431.816 5      2598.545 5        30.800 5
R12  20304313.698 7      1026.317 7        41.500 7
R11  21147935.371 7     -1679.343 7        47.000 7
R01  22895160.292 4     -4067.500 4        26.100 4
R20  24109201.629 4     -3458.500 4        25.700 4
R23  24080087.884 4      4455.450 4        24.900 4
R21  21144726.692 7      -742.757 7        46.500 7
R03  22945142.590 3      2098.350 3        22.000 3
G01  23707266.283 7       584.368 7        44.300 7
G02  24887255.693 5     -1724.091 5        32.000 5
G07  23317409.575 5     -2756.993 5        34.500 5
G13  20856249.601 5      -724.942 5        30.500 5
G14  20558821.306 6      -855.657 6        39.200 6
G15  22345349.318 7       224.213 7        42.200 7
G17  20434090.855 6       677.829 6        36.200 6
G19  21312449.480 6      2476.014 6        38.900 6
G22  20758331.688 6      -423.837 6        37.600 6
G30  21298954.323 7     -1941.188 7        43.700 7
> 2025 11 17 00 07 10.4414696  0 18                      
R22  21326242.032 7      3396.226 7        44.800 7
R13  23077925.167 5      2598.800 5        29.500 5
R12  20304113.736 6      1025.393 6        39.700 6
R11  21148252.851 7     -1680.143 7        47.100 7
R01  22895889.088 4     -4063.950 4        23.600 4
R20  24109934.921 3     -3451.200 3        21.500 3
R23  24079339.602 3      4455.450 3        23.300 3
R21  21144859.500 7      -744.440 7        46.200 7
G01  23707157.758 7       583.394 7        44.100 7
G02  24887592.360 5     -1725.305 5        34.900 5
G07  23317934.512 5     -2757.430 5        34.300 5
G13  20856368.618 5      -726.496 5        34.100 5
G14  20558982.594 6      -856.670 6        39.200 6
G15  22345313.643 7       223.198 7        43.200 7
G17  20433961.645 6       676.552 6        38.800 6
G19  21311988.100 6      2475.142 6        39.700 6
G22  20758409.034 5      -424.908 5        35.000 5
G30  21299323.367 7     -1942.280 7        43.000 7
> 2025 11 17 00 07 11.4414696  0 19                      
R22  21325605.273 7      3402.417 7        44.200 7
R13  23077438.304 4      2602.900 4        29.000 4
R12  20303924.567 6      1031.970 6        38.500 6
R11  21148565.535 7     -1673.628 7        45.600 7
R01  22896649.062 3     -4060.900 3        23.200 3
R20  24110569.882 3     -3448.100 3        21.600 3
R23  24078545.452 4      4459.950 4        24.400 4
R21  21144999.803 7      -738.346 7        45.200 7
R03  22944356.534 3      2105.700 3        21.400 3
G01  23707047.434 7       589.382 7        43.600 7
G02  24887920.033 5     -1718.901 5        35.100 5
G07  23318454.352 5     -2750.817 5        34.000 5
G13  20856507.422 5      -719.550 5        29.700 5
G14  20559150.478 6      -850.225 6        38.900 6
G15  22345272.871 7       228.929 7        43.300 7
G17  20433833.333 6       682.589 6        36.800 6
G19  21311508.432 6      2481.355 6        38.900 6
G22  20758483.383 5      -418.405 5        35.400 5
G30  21299694.810 7     -1935.973 7        42.200 7
> 2025 11 17 00 07 12.4414696  0 19                      
R22  21324970.012 7      3405.260 7        44.200 7
R13  23076958.036 4      2609.050 4        28.400 4
R12  20303720.709 6      1035.010 6        38.600 6
R11  21148874.920 7     -1670.475 7        45.200 7
R01  22897460.000 4     -4056.600 4        24.500 4
R20  24111246.513 3     -3451.400 3        23.000 3
R23  24077604.103 4      4465.450 4        25.800 4
R21  21145138.007 7      -736.109 7        45.000 7
R03  22943918.837 3      2110.850 3        22.200 3
G01  23706931.115 7       592.244 7        43.700 7
G02  24888245.308 5     -1716.269 5        34.900 5
G07  23318972.393 5     -2748.217 5        34.400 5
G13  20856623.142 4      -717.150 4        27.600 4
G14  20559314.165 6      -847.174 6        39.900 6
G15  22345226.404 7       231.520 7        43.500 7
G17  20433699.026 6       685.327 6        37.000 6
G19  21311034.160 6      2484.156 6        38.600 6
G22  20758579.316 6      -415.521 6        35.800 6
G30  21300059.358 7     -1933.042 7        41.600 7
> 2025 11 17 00 07 13.4414696  0 18                      
R22  21324331.155 7      3420.231 7        44.200 7
R13  23076474.471 4      2622.350 4        29.200 4
R12  20303526.443 6      1050.377 6        38.200 6
R11  21149183.707 7     -1655.365 7        45.200 7
R01  22898252.052 4     -4039.850 4        24.500 4
R20  24111898.262 3     -3435.200 3        22.800 3
R23  24076828.840 4      4483.550 4        24.300 4
R21  21145274.413 7      -721.395 7        44.700 7
R03  22943500.027 3      2109.450 3        21.100 3
G01  23706819.592 7       606.773 7        44.200 7
G02  24888576.279 5     -1702.074 5        35.400 5
G07  23319502.426 6     -2733.320 6        35.700 6
G14  20559474.854 6      -832.254 6        39.400 6
G15  22345182.334 7       246.047 7        43.900 7
G17  20433569.216 6       700.057 6        36.800 6
G19  21310560.788 6      2498.923 6        39.300 6
G22  20758651.267 6      -400.648 6        36.800 6
G30  21300431.100 6     -1918.420 6        41.400 6
> 2025 11 17 00 07 14.4414696  0 17                      
R22  21323692.896 7      3421.179 7        42.900 7
R13  23075981.312 4      2622.700 4        27.500 4
R12  20303323.184 6      1051.838 6        37.400 6
R11  21149493.093 7     -1653.865 7        44.000 7
R01  22898967.357 3     -4043.550 3        22.900 3
R20  24112569.198 3     -3442.150 3        21.900 3
R21  21145407.221 7      -720.893 7        43.500 7
R03  22943170.555 3      2117.100 3        22.800 3
G01  23706704.472 7       607.445 7        42.100 7
G02  24888899.156 5     -1700.783 5        34.200 5
G07  23320015.371 5     -2731.980 5        33.700 5
G14  20559637.941 6      -830.825 6        38.300 6
G15  22345131.969 7       246.713 7        42.400 7
G17  20433434.310 6       700.776 6        35.500 6
G19  21310091.013 6      2499.860 6        38.500 6
G22  20758729.512 6      -399.174 6        35.800 6
G30  21300794.449 6     -1917.165 6        39.300 6
> 2025 11 17 00 07 15.4414696  0 16                      
R22  21323051.341 7      3400.214 7        42.700 7
R13  23075512.737 4      2606.500 4        28.100 4
R12  20303133.415 6      1031.035 6        37.600 6
R11  21149801.279 7     -1674.715 7        43.400 7
R01  22899674.867 4     -4065.450 4        24.500 4
R23  24075157.197 3      4468.100 3        20.200 3
R21  21145544.826 7      -742.243 7        42.900 7
G01  23706587.553 7       586.526 7        41.700 7
G02  24889232.825 5     -1721.052 5        34.200 5
G07  23320550.801 5     -2752.477 5        33.900 5
G14  20559798.030 6      -851.365 6        37.800 6
G15  22345089.398 7       225.733 7        41.900 7
G17  20433301.801 6       680.085 6        36.200 6
G19  21309612.544 6      2479.062 6        37.700 6
G22  20758805.660 6      -419.801 6        35.700 6
G30  21301159.296 6     -1937.814 6        39.100 6
> 2025 11 17 00 07 16.4414696  0 18                      
R22  21322414.282 7      3377.445 7        45.200 7
R13  23075013.582 4      2582.750 4        29.300 4
R12  20302943.946 6      1008.406 6        40.800 6
R11  21150120.558 7     -1697.232 7        46.000 7
R01  22900522.380 4     -4082.250 4        27.100 4
R20  24113932.054 3     -3477.500 3        20.000 3
R23  24074280.604 4      4444.550 4        24.700 4
R21  21145684.529 7      -765.652 7        45.600 7
R03  22942428.869 3      2083.600 3        21.700 3
G01  23706477.529 7       564.151 7        44.300 7
G02  24889564.995 6     -1743.389 6        37.200 6
G07  23321065.844 6     -2774.862 6        37.300 6
G14  20559960.517 6      -873.458 6        40.800 6
G15  22345049.226 7       203.278 7        44.500 7
G17  20433177.687 6       657.273 6        37.200 6
G19  21309140.671 6      2456.801 6        40.800 6
G22  20758892.000 6      -442.041 6        37.600 6
G30  21301530.739 6     -1960.199 6        40.100 6
> 2025 11 17 00 07 17.4414693  0 17                      
R22  21321695.313 7      3357.291 7        45.000 7
R13  23074430.420 4      2560.750 4        29.300 4
R12  20302675.266 6       988.464 6        41.400 6
R11  21150346.835 7     -1717.028 7        46.300 7
R01  22901164.469 4     -4104.750 4        26.100 4
R20  24114401.463 4     -3497.800 4        26.200 4
R23  24073378.762 4      4424.700 4        25.000 4
R21  21145742.622 7      -786.138 7        46.300 7
G01  23706281.998 7       544.266 7        44.300 7
G02  24889804.462 6     -1763.756 6        37.000 6
G07  23321504.973 6     -2794.475 6        36.800 6
G14  20560041.695 7      -893.151 7        42.200 7
G15  22344925.645 7       183.032 7        43.700 7
G17  20432961.470 6       637.670 6        37.900 6
G19  21308591.384 6      2437.051 6        40.700 6
G22  20758884.139 6      -461.455 6        38.600 6
G30  21301813.077 6     -1979.996 6        38.600 6
> 2025 11 17 00 07 18.4414692  0 17                      
R22  21321033.229 7      3344.564 7        45.900 7
R13  23073934.121 5      2548.397 5        31.200 5
R12  20302459.573 7       975.940 7        42.800 7
R11  21150645.586 8     -1729.663 8        47.500 8
R01  22901832.265 4     -4115.800 4        25.200 4
R23  24072539.801 4      4409.400 4        25.000 4
R21  21145859.100 7      -799.650 7        46.800 7
R03  22941572.453 3      2050.250 3        19.700 3
G01  23706149.048 7       531.401 7        43.900 7
G02  24890125.998 6     -1776.459 6        37.000 6
G07  23322009.382 6     -2807.089 6        36.100 6
G14  20560170.164 7      -905.718 7        42.500 7
G15  22344860.149 7       170.275 7        44.300 7
G17  20432818.927 6       624.649 6        38.500 6
G19  21308097.784 6      2424.813 6        40.700 6
G22  20758948.153 6      -473.963 6        37.200 6
G30  21302156.198 7     -1992.671 7        41.700 7
> 2025 11 17 00 07 19.4414692  0 15                      
R22  21320407.862 7      3325.651 7        44.100 7
R13  23073445.459 5      2531.050 5        29.800 5
R12  20302279.698 6       957.562 6        39.500 6
R11  21150966.064 7     -1748.301 7        42.700 7
R23  24071709.076 4      4395.100 4        24.200 4
R21  21146012.893 7      -818.910 7        42.200 7
G01  23706044.720 7       512.732 7        42.200 7
G02  24890456.069 5     -1794.712 5        35.400 5
G07  23322555.604 5     -2825.752 5        35.400 5
G14  20560349.140 7      -923.808 7        41.700 7
G15  22344829.870 7       151.348 7        45.100 7
G17  20432698.411 6       605.976 6        37.700 6
G19  21307639.102 6      2405.975 6        40.200 6
G22  20759021.902 5      -491.869 5        33.900 5
G30  21302540.831 7     -2011.036 7        41.600 7
> 2025 11 17 00 07 20.4414692  0 17                      
R22  21319790.589 7      3314.348 7        44.100 7
R13  23072981.381 5      2520.042 5        30.300 5
R12  20302110.315 6       946.401 6        41.200 6
R11  21151292.538 7     -1759.109 7        43.100 7
R01  22903434.656 3     -4145.500 3        20.000 3
R20  24116402.435 3     -3532.200 3        19.500 3
R23  24070918.523 4      4383.200 4        24.000 4
R21  21146159.492 7      -830.501 7        42.200 7
G01  23705947.288 7       501.790 7        43.000 7
G02  24890804.128 6     -1806.268 6        36.100 6
G07  23323087.436 5     -2835.982 5        35.200 5
G14  20560526.917 6      -934.761 6        41.300 6
G15  22344804.387 7       140.237 7        44.800 7
G17  20432581.192 6       594.826 6        37.600 6
G19  21307180.719 6      2395.183 6        39.300 6
G22  20759117.535 5      -502.582 5        33.400 5
G30  21302932.960 6     -2022.243 6        40.800 6
> 2025 11 17 00 07 21.4414692  0 17                      
R22  21319164.023 7      3305.862 7        44.300 7
R13  23072477.130 5      2511.050 5        29.600 5
R12  20301926.542 6       938.196 6        41.400 6
R11  21151626.507 7     -1767.291 7        43.200 7
R01  22904194.629 3     -4154.850 3        23.100 3
R20  24117080.866 3     -3549.750 3        22.700 3
R23  24070104.287 4      4375.800 4        25.000 4
R21  21146314.185 7      -839.525 7        42.200 7
G01  23705854.952 7       493.221 7        43.000 7
G02  24891141.695 6     -1814.400 6        35.800 6
G07  23323618.668 5     -2844.581 5        35.400 5
G14  20560705.893 6      -942.906 6        41.300 6
G15  22344779.205 7       131.607 7        44.500 7
G17  20432475.065 6       586.263 6        37.700 6
G19  21306726.833 6      2386.683 6        39.300 6
G22  20759216.167 5      -511.613 5        34.100 5
G30  21303312.797 6     -2030.591 6        40.300 6
> 2025 11 17 00 07 22.4414692  0 18                      
R22  21318549.149 7      3303.721 7        45.700 7
R13  23072029.840 5      2510.827 5        30.500 5
R12  20301756.260 7       936.192 7        44.600 7
R11  21151960.776 7     -1769.426 7        44.600 7
R01  22905092.808 4     -4161.900 4        23.700 4
R20  24117621.691 3     -3556.300 3        21.800 3
R23  24069257.073 3      4374.650 3        21.600 3
R21  21146468.278 7      -842.245 7        41.500 7
R03  22940080.686 3      2007.900 3        19.500 3
G01  23705757.219 7       491.417 7        43.600 7
G02  24891489.754 6     -1816.556 6        36.500 6
G07  23324172.085 6     -2846.319 6        37.100 6
G14  20560886.968 7      -944.925 7        42.800 7
G15  22344754.022 7       129.335 7        45.900 7
G17  20432356.347 6       583.829 6        39.300 6
G19  21306278.644 7      2384.618 7        42.000 7
G22  20759313.899 6      -513.323 6        37.500 6
G30  21303699.829 6     -2032.588 6        38.600 6
> 2025 11 17 00 07 23.4414692  0 17                      
R22  21317937.273 7      3299.823 7        45.300 7
R13  23071529.486 4      2511.950 4        25.100 4
R12  20301572.787 7       932.770 7        42.700 7
R11  21152294.145 7     -1772.763 7        46.200 7
R01  22905776.934 4     -4158.250 4        24.900 4
R20  24118324.105 4     -3557.800 4        27.900 4
R21  21146632.265 7      -846.380 7        42.600 7
R03  22939597.720 4      1997.500 4        29.000 4
G01  23705665.483 7       487.243 7        43.500 7
G02  24891830.018 5     -1820.297 5        31.800 5
G07  23324713.210 6     -2850.067 6        38.400 6
G14  20561073.438 7      -948.441 7        42.000 7
G15  22344732.437 7       125.197 7        44.400 7
G17  20432254.418 6       580.081 6        36.800 6
G19  21305821.160 7      2380.829 7        42.400 7
G22  20759426.022 6      -516.876 6        41.000 6
G30  21304086.861 6     -2036.248 6        37.300 6
> 2025 11 17 00 07 24.4414692  0 17                      
R22  21317321.499 7      3283.507 7        45.900 7
R13  23071091.789 4      2492.900 4        27.400 4
R12  20301405.203 7       916.693 7        42.900 7
R11  21152626.315 7     -1788.888 7        46.600 7
R01  22906571.684 4     -4173.600 4        26.400 4
R20  24118986.047 4     -3574.400 4        28.200 4
R21  21146788.756 7      -863.046 7        42.700 7
R03  22939246.663 4      1982.400 4        28.400 4
G01  23705576.444 7       470.996 7        44.200 7
G02  24892185.272 5     -1836.087 5        34.100 5
G07  23325258.533 6     -2866.258 6        38.700 6
G14  20561251.815 7      -964.228 7        42.000 7
G15  22344708.154 7       108.948 7        45.300 7
G17  20432137.199 6       563.914 6        37.400 6
G19  21305370.572 7      2364.750 7        42.700 7
G22  20759520.456 6      -532.563 6        40.900 6
G30  21304475.392 6     -2052.289 6        38.800 6
> 2025 11 17 00 07 25.4414692  0 17                      
R22  21316700.029 7      3273.120 7        45.800 7
R13  23070610.022 4      2482.500 4        26.700 4
R12  20301232.223 7       906.571 7        42.900 7
R11  21152959.984 7     -1798.994 7        46.400 7
R01  22907318.167 4     -4184.500 4        27.400 4
R20  24119659.680 4     -3580.400 4        29.000 4
R21  21146953.642 7      -873.940 7        42.700 7
R03  22938880.017 4      1969.000 4        27.900 4
G01  23705486.806 7       461.001 7        44.000 7
G02  24892538.128 5     -1847.096 5        33.600 5
G07  23325802.356 6     -2875.824 6        39.000 6
G14  20561436.487 7      -974.294 7        42.200 7
G15  22344688.967 7        98.607 7        44.900 7
G17  20432034.670 6       553.538 6        37.900 6
G19  21304923.582 7      2354.521 7        42.800 7
G22  20759622.686 6      -542.668 6        40.900 6
G30  21304860.925 6     -2062.466 6        39.000 6
> 2025 11 17 00 07 26.4414692  0 18                      
R22  21316088.752 7      3272.060 7        44.800 7
R13  23070149.541 4      2479.400 4        27.900 4
R12  20301058.043 6       905.641 6        40.700 6
R11  21153299.049 7     -1799.767 7        47.200 7
R01  22908106.022 4     -4185.650 4        29.100 4
R20  24120353.100 4     -3583.100 4        27.500 4
R23  24065881.111 3      4342.650 3        17.700 3
R21  21147117.629 7      -875.271 7        45.600 7
R03  22938453.113 5      1969.489 5        30.500 5
G01  23705401.066 7       459.757 7        43.600 7
G02  24892876.294 5     -1847.333 5        32.800 5
G07  23326352.775 6     -2876.893 6        38.100 6
G14  20561626.855 7      -974.914 7        42.300 7
G15  22344670.680 6        97.912 6        41.400 6
G17  20431929.443 6       552.391 6        36.200 6
G19  21304476.291 7      2353.537 7        41.600 7
G22  20759728.213 6      -543.428 6        38.500 6
G30  21305256.351 7     -2063.285 7        44.900 7
> 2025 11 17 00 07 27.4414692  0 17                      
R22  21315475.077 7      3259.888 7        42.000 7
R13  23069656.083 4      2472.650 4        25.600 4
R12  20300906.348 5       892.200 5        32.500 5
R11  21153635.416 7     -1811.651 7        45.200 7
R01  22908892.677 4     -4192.100 4        27.400 4
R23  24065192.188 4      4333.600 4        24.300 4
R21  21147275.919 7      -888.047 7        44.500 7
R03  22938095.161 5      1955.953 5        31.900 5
G01  23705319.222 7       447.322 7        43.600 7
G02  24893234.546 5     -1859.840 5        33.600 5
G07  23326906.792 6     -2888.810 6        37.600 6
G14  20561801.035 7      -986.717 7        41.600 7
G15  22344669.780 5        84.842 5        31.300 5
G17  20431815.522 4       538.500 4        29.400 4
G19  21304031.100 6      2341.751 6        38.700 6
G22  20759822.647 4      -549.950 4        28.900 4
G30  21305651.178 7     -2075.387 7        46.000 7
> 2025 11 17 00 07 28.4414692  0 17                      
R22  21314868.897 7      3246.542 7        42.600 7
R13  23069234.575 4      2459.750 4        25.500 4
R12  20300725.873 5       880.868 5        34.700 5
R11  21153978.079 7     -1824.827 7        45.000 7
R01  22909669.739 4     -4211.450 4        26.200 4
R23  24064383.048 3      4318.900 3        23.200 3
R21  21147447.100 7      -901.945 7        44.500 7
R03  22937728.514 5      1941.681 5        31.600 5
G01  23705231.983 7       434.291 7        43.400 7
G02  24893587.401 5     -1873.312 5        33.600 5
G07  23327457.211 6     -2901.610 6        37.500 6
G14  20561991.103 6      -999.871 6        41.000 6
G15  22344603.226 3        69.750 3        22.300 3
G17  20431722.586 5       526.512 5        32.000 5
G19  21303584.709 6      2328.399 6        38.700 6
G22  20759929.373 4      -567.100 4        29.200 4
G30  21306049.003 7     -2088.563 7        45.400 7
> 2025 11 17 00 07 29.4414692  0 16                      
R22  21314261.217 7      3235.332 7        43.100 7
R13  23068751.009 4      2440.100 4        24.800 4
R12  20300554.092 5       869.888 5        35.000 5
R11  21154319.543 7     -1835.679 7        45.600 7
R01  22910455.795 4     -4220.500 4        27.200 4
R23  24063488.767 4      4311.800 4        24.500 4
R21  21147620.680 7      -913.603 7        45.000 7
R03  22937353.774 5      1930.618 5        32.100 5
G01  23705151.638 7       423.139 7        43.700 7
G02  24893939.957 5     -1883.998 5        34.000 5
G07  23328005.831 6     -2912.561 6        37.700 6
G14  20562182.671 6     -1010.411 6        41.000 6
G17  20431617.059 5       515.786 5        32.800 5
G19  21303143.414 6      2317.604 6        38.800 6
G22  20760053.188 4      -579.500 4        29.400 4
G30  21306447.427 7     -2099.592 7        45.700 7
> 2025 11 17 00 07 30.4414692  0 17                      
R22  21313655.637 7      3233.037 7        43.700 7
R13  23068334.598 4      2440.800 4        26.100 4
R12  20300391.905 6       867.306 6        37.700 6
R11  21154661.606 7     -1837.670 7        46.500 7
R01  22911217.268 4     -4220.200 4        27.700 4
R20  24123104.596 2     -3624.750 2        17.400 2
R23  24062750.378 4      4303.050 4        25.400 4
R21  21147797.258 7      -916.357 7        45.800 7
R03  22936995.222 5      1927.065 5        32.000 5
G01  23705073.093 7       420.867 7        44.100 7
G02  24894290.415 5     -1887.156 5        33.400 5
G07  23328567.342 6     -2914.468 6        37.200 6
G14  20562364.345 6     -1012.432 6        40.900 6
G17  20431525.023 6       512.403 6        37.000 6
G19  21302698.522 6      2315.455 6        39.500 6
G22  20760165.910 6      -581.006 6        39.900 6
G30  21306850.048 7     -2101.603 7        46.800 7
> 2025 11 17 00 07 31.4414692  0 16                      
R22  21313053.354 6      3232.645 6        41.000 6
R13  23067844.737 4      2444.150 4        28.500 4
R12  20300258.797 5       868.025 5        34.000 5
R11  21155004.868 7     -1838.172 7        42.600 7
R20  24123689.191 5     -3614.530 5        30.700 5
R23  24061976.913 3      4309.650 3        20.800 3
R21  21147963.943 7      -917.507 7        43.500 7
R03  22936627.377 5      1928.780 5        31.600 5
G01  23704994.547 7       419.890 7        43.500 7
G02  24894669.053 4     -1890.750 4        29.000 4
G07  23329114.763 6     -2914.729 6        37.100 6
G14  20562560.409 6     -1012.891 6        39.700 6
G17  20431434.186 7       512.952 7        44.500 7
G19  21302248.234 6      2315.751 6        40.900 6
G22  20760283.728 6      -580.732 6        39.500 6
G30  21307242.177 7     -2102.131 7        44.700 7
> 2025 11 17 00 07 32.4414692  0 17                      
R22  21312439.079 6      3236.096 6        40.100 6
R13  23067374.962 4      2452.150 4        28.500 4
R12  20300073.825 5       871.028 5        34.800 5
R11  21155342.435 7     -1833.152 7        44.600 7
R01  22912866.726 3     -4221.200 3        21.200 3
R20  24124341.239 4     -3619.500 4        25.600 4
R23  24061060.748 3      4314.050 3        22.000 3
R21  21148138.722 7      -913.267 7        47.300 7
R03  22936197.175 4      1930.550 4        24.100 4
G01  23704917.201 7       424.855 7        43.500 7
G02  24894999.724 4     -1879.600 4        29.000 4
G07  23329660.086 6     -2910.332 6        36.800 6
G14  20562763.668 6     -1008.822 6        41.300 6
G17  20431331.957 6       516.144 6        41.000 6
G19  21301807.239 7      2318.625 7        42.700 7
G22  20760377.563 6      -577.612 6        36.200 6
G30  21307647.496 7     -2098.342 7        45.000 7
> 2025 11 17 00 07 33.4414692  0 16                      
R22  21311836.496 7      3252.166 7        42.900 7
R13  23066930.670 4      2463.150 4        28.600 4
R12  20299914.635 6       887.109 6        36.600 6
R11  21155688.395 7     -1817.934 7        42.900 7
R01  22913600.318 4     -4204.500 4        25.300 4
R20  24125028.664 4     -3604.800 4        24.400 4
R21  21148307.205 7      -898.442 7        46.300 7
R03  22935887.189 4      1945.150 4        27.200 4
G01  23704829.362 7       439.545 7        41.800 7
G02  24895373.265 5     -1866.980 5        31.000 5
G07  23330205.708 4     -2895.050 4        28.500 4
G14  20562951.938 6      -993.300 6        40.600 6
G17  20431233.325 6       531.859 6        41.200 6
G19  21301369.842 6      2334.280 6        40.800 6
G22  20760469.899 5      -558.600 5        30.900 5
G30  21308045.920 8     -2082.666 8        48.000 8
> 2025 11 17 00 07 34.4414692  0 16                      
R22  21311225.819 7      3256.456 7        42.100 7
R13  23066445.605 4      2471.000 4        24.100 4
R12  20299759.942 6       895.003 6        37.600 6
R11  21156027.460 7     -1812.733 7        42.700 7
R01  22914373.483 4     -4201.550 4        23.900 4
R20  24125707.394 4     -3600.600 4        24.400 4
R21  21148467.594 7      -894.267 7        45.300 7
R03  22935430.905 3      1943.000 3        23.400 3
G01  23704747.218 7       444.127 7        44.100 7
G02  24895734.515 5     -1862.648 5        31.500 5
G07  23330788.205 5     -2890.056 5        33.500 5
G14  20563144.105 7      -988.157 7        42.100 7
G17  20431133.794 6       535.406 6        39.700 6
G19  21300924.650 7      2338.704 7        43.000 7
G22  20760585.019 6      -556.437 6        36.900 6
G30  21308440.447 7     -2078.318 7        46.200 7
> 2025 11 17 00 07 35.4414692  0 18                      
R22  21310622.337 6      3258.574 6        41.300 6
R13  23065980.327 4      2474.150 4        24.400 4
R12  20299516.211 3       893.900 3        21.200 3
R11  21156365.626 7     -1810.444 7        43.500 7
R01  22915110.073 3     -4184.000 3        21.900 3
R20  24126395.717 4     -3596.950 4        25.100 4
R21  21148636.977 7      -892.691 7        45.800 7
R03  22935100.833 3      1961.950 3        21.700 3
G01  23704661.178 7       445.834 7        44.400 7
G02  24896070.283 5     -1861.296 5        30.900 5
G07  23331336.225 5     -2888.705 5        33.300 5
G13  20860117.315 7      -865.900 7        41.700 7
G14  20563326.679 6      -986.202 6        41.400 6
G15  22344533.075 6        83.200 6        39.800 6
G17  20431028.567 7       537.920 7        43.400 7
G19  21300477.360 7      2340.839 7        43.100 7
G22  20760697.442 5      -554.588 5        34.900 5
G30  21308837.672 7     -2076.169 7        46.900 7
> 2025 11 17 00 07 36.4414692  0 14                      
R22  21310007.762 7      3254.021 7        42.100 7
R13  23065514.450 4      2460.800 4        24.500 4
R11  21156704.692 7     -1814.807 7        44.000 7
R01  22915913.217 3     -4196.350 3        22.900 3
R20  24127081.343 4     -3600.700 4        25.500 4
R21  21148803.961 7      -897.653 7        46.400 7
G01  23704574.538 7       441.155 7        44.400 7
G02  24896439.327 5     -1865.549 5        32.200 5
G07  23331881.548 5     -2892.728 5        31.900 5
G14  20563513.449 6      -990.384 6        41.400 6
G17  20430931.434 7       533.120 7        43.900 7
G19  21300035.466 7      2336.414 7        43.600 7
G22  20760801.470 5      -558.758 5        35.300 5
G30  21309231.599 7     -2080.708 7        47.200 7
> 2025 11 17 00 07 37.4414692  0 15                      
R22  21309394.087 7      3249.396 7        42.000 7
R13  23065087.246 4      2465.750 4        25.800 4
R12  20299175.647 3       885.900 3        20.100 3
R11  21157045.556 7     -1818.971 7        43.800 7
R01  22916713.063 3     -4208.200 3        22.900 3
R20  24127737.888 4     -3610.450 4        24.700 4
R21  21148973.344 7      -902.690 7        45.300 7
G01  23704493.594 7       436.579 7        44.700 7
G02  24896783.189 5     -1869.915 5        31.500 5
G07  23332446.657 5     -2896.777 5        33.700 5
G14  20563704.117 7      -994.668 7        41.800 7
G17  20430833.102 7       528.574 7        43.200 7
G19  21299589.375 7      2331.903 7        42.500 7
G22  20760902.799 5      -563.094 5        35.300 5
G30  21309629.724 7     -2085.049 7        46.900 7
> 2025 11 17 00 07 38.4414692  0 14                      
R22  21308790.904 6      3244.275 6        40.000 6
R13  23064632.161 4      2455.100 4        25.100 4
R12  20299016.757 3       878.500 3        23.000 3
R11  21157383.721 7     -1824.131 7        44.300 7
R20  24128440.002 4     -3614.900 4        27.400 4
R21  21149141.827 7      -908.373 7        45.600 7
G01  23704408.753 7       431.468 7        44.600 7
G02  24897143.540 5     -1875.284 5        31.800 5
