NMEA,$GPGSV,3,1,12,01,18,073,47,02,10,042,38,07,21,122,40,13,54,258,42,1*6F,1763337981806
NMEA,$GPGSV,3,2,12,14,63,029,52,15,30,289,35,17,72,158,51,19,51,191,44,1*66,1763337981806
NMEA,$GPGSV,3,3,12,22,68,345,44,30,49,119,51,06,00,000,,24,04,309,,1*66,1763337981806
NMEA,$GLGSV,3,1,09,86,33,139,43,76,49,333,44,75,37,060,45,85,37,059,47,1*79,1763337981806
NMEA,$GLGSV,3,2,09,77,14,292,,65,16,213,,84,04,021,,87,05,170,,1*7F,1763337981806
NMEA,$GLGSV,3,3,09,67,16,326,,1*40,1763337981806
NMEA,$GNGSA,A,3,01,02,07,13,14,15,17,19,22,30,,,1.2,0.8,0.8,1*38,1763337981810
NMEA,$GNGSA,A,3,75,76,85,86,,,,,,,,,1.2,0.8,0.8,2*31,1763337981810
NMEA,$GNVTG,,T,,M,0.0,N,0.0,K,A*3D,1763337981810
NMEA,$GNDTM,P90,,0000.000025,S,00000.000001,E,0.981,W84*58,1763337981810
NMEA,$GNRMC,000621.00,A,3725.697655,N,12210.009665,W,0.0,,171125,15.0,E,A,V*5C,1763337981810
NMEA,$GNGNS,000621.00,3725.697655,N,12210.009665,W,AA,14,0.8,20.6,-27.9,,,V*2C,1763337981810
NMEA,$GNGGA,000621.00,3725.697655,N,12210.009665,W,1,12,0.8,20.6,M,-27.9,M,,*7A,1763337981810
NMEA,$PSMSG,tech=0x1,sensor=0x0,accu=5.360000,h_rel=4,speed=0.000000,time=1763337981000,SV_used=14,l5=0,e5=0*00,1763337981811
NMEA,$GPGSV,3,1,12,01,18,073,47,02,10,042,37,07,21,122,43,13,54,258,42,1*63,1763337982808
NMEA,$GPGSV,3,2,12,14,63,029,47,15,30,289,37,17,72,158,49,19,51,191,46,1*6B,1763337982808
NMEA,$GPGSV,3,3,12,22,68,345,45,30,49,119,47,06,00,000,,24,04,309,,1*60,1763337982808
NMEA,$GLGSV,3,1,09,86,33,139,45,77,14,292,26,76,49,333,43,75,37,060,48,1*7B,1763337982808
NMEA,$GLGSV,3,2,09,84,04,021,27,87,05,170,26,85,37,059,47,67,16,326,27,1*74,1763337982808
NMEA,$GLGSV,3,3,09,65,16,213,,1*45,1763337982808
NMEA,$GNGSA,A,3,01,02,07,13,14,15,17,19,22,30,,,1.2,0.8,0.8,1*38,1763337982813
NMEA,$GNGSA,A,3,75,76,85,86,,,,,,,,,1.2,0.8,0.8,2*31,1763337982813
NMEA,$GNVTG,,T,,M,0.0,N,0.0,K,A*3D,1763337982813
NMEA,$GNDTM,P90,,0000.000025,S,00000.000001,E,0.981,W84*58,1763337982813
NMEA,$GNRMC,000622.00,A,3725.697590,N,12210.009748,W,0.0,,171125,15.0,E,A,V*5B,1763337982813
NMEA,$GNGNS,000622.00,3725.697590,N,12210.009748,W,AA,14,0.8,20.5,-27.9,,,V*28,1763337982813
NMEA,$GNGGA,000622.00,3725.697590,N,12210.009748,W,1,12,0.8,20.5,M,-27.9,M,,*7E,1763337982813
NMEA,$PSMSG,tech=0x1,sensor=0x0,accu=4.288000,h_rel=4,speed=0.000000,time=1763337982000,SV_used=14,l5=0,e5=0*00,1763337982815
NMEA,$GPGSV,3,1,12,01,18,073,45,02,10,042,35,07,21,122,41,13,54,258,48,1*6B,1763337983807
NMEA,$GPGSV,3,2,12,14,63,029,46,15,30,289,45,17,72,158,46,19,51,191,45,1*63,1763337983807
NMEA,$GPGSV,3,3,12,22,68,345,39,30,49,119,49,06,00,000,,24,04,309,,1*65,1763337983807
NMEA,$GLGSV,3,1,09,86,33,139,46,77,14,292,25,76,49,333,41,75,37,060,45,1*74,1763337983807
NMEA,$GLGSV,3,2,09,65,16,213,26,84,04,021,28,87,05,170,25,85,37,059,42,1*79,1763337983807
NMEA,$GLGSV,3,3,09,67,16,326,25,1*47,1763337983807
NMEA,$GNGSA,A,3,01,02,07,13,14,15,17,19,22,30,,,1.2,0.8,0.8,1*38,1763337983815
NMEA,$GNGSA,A,3,75,76,85,86,,,,,,,,,1.2,0.8,0.8,2*31,1763337983815
NMEA,$GNVTG,,T,,M,0.0,N,0.0,K,A*3D,1763337983815
NMEA,$GNDTM,P90,,0000.000025,S,00000.000001,E,0.981,W84*58,1763337983815
NMEA,$GNRMC,000623.00,A,3725.697599,N,12210.009714,W,0.0,,171125,15.0,E,A,V*5A,1763337983815
NMEA,$GNGNS,000623.00,3725.697599,N,12210.009714,W,AA,14,0.8,20.4,-27.9,,,V*28,1763337983815
NMEA,$GNGGA,000623.00,3725.697599,N,12210.009714,W,1,12,0.8,20.4,M,-27.9,M,,*7E,1763337983815
NMEA,$PSMSG,tech=0x1,sensor=0x0,accu=3.216000,h_rel=4,speed=0.000000,time=1763337983000,SV_used=14,l5=0,e5=0*00,1763337983817
NMEA,$GPGSV,3,1,12,01,18,073,45,02,10,042,32,07,21,122,40,13,54,258,47,1*62,1763337984811
NMEA,$GPGSV,3,2,12,14,63,029,44,15,30,289,46,17,72,158,47,19,51,191,47,1*61,1763337984811
NMEA,$GPGSV,3,3,12,22,68,345,41,30,49,119,50,06,00,000,,24,04,309,,1*62,1763337984811
NMEA,$GLGSV,3,1,09,86,33,139,46,77,14,292,23,76,49,333,43,75,37,060,44,1*71,1763337984811
NMEA,$GLGSV,3,2,09,65,16,213,27,84,04,021,28,87,05,170,24,85,37,059,42,1*79,1763337984811
NMEA,$GLGSV,3,3,09,67,16,326,27,1*45,1763337984811
NMEA,$GNGSA,A,3,01,02,07,13,14,15,17,19,22,30,,,1.1,0.8,0.8,1*3B,1763337984821
NMEA,$GNGSA,A,3,75,76,84,85,86,,,,,,,,1.1,0.8,0.8,2*3E,1763337984821
NMEA,$GNVTG,,T,,M,0.0,N,0.0,K,A*3D,1763337984821
NMEA,$GNDTM,P90,,0000.000025,S,00000.000001,E,0.981,W84*58,1763337984821
NMEA,$GNRMC,000624.00,A,3725.697657,N,12210.009630,W,0.0,,171125,15.0,E,A,V*5B,1763337984821
NMEA,$GNGNS,000624.00,3725.697657,N,12210.009630,W,AA,15,0.8,20.1,-27.9,,,V*2D,1763337984821
NMEA,$GNGGA,000624.00,3725.697657,N,12210.009630,W,1,12,0.8,20.1,M,-27.9,M,,*7A,1763337984821
NMEA,$PSMSG,tech=0x1,sensor=0x0,accu=3.216000,h_rel=4,speed=0.000000,time=1763337984000,SV_used=15,l5=0,e5=0*00,1763337984824
NMEA,$GPGSV,3,1,12,01,18,073,44,02,10,042,38,07,21,122,38,13,54,258,42,1*63,1763337985814
NMEA,$GPGSV,3,2,12,14,63,029,49,15,30,289,38,17,72,158,43,19,51,191,41,1*67,1763337985814
NMEA,$GPGSV,3,3,12,22,68,345,44,30,49,119,47,06,00,000,,24,04,309,,1*61,1763337985814
NMEA,$GLGSV,3,1,09,86,33,139,46,77,14,292,22,76,49,333,44,75,37,060,48,1*7B,1763337985814
NMEA,$GLGSV,3,2,09,65,16,213,27,84,04,021,26,87,05,170,22,85,37,059,44,1*77,1763337985814
NMEA,$GLGSV,3,3,09,67,16,326,27,1*45,1763337985814
NMEA,$GNGSA,A,3,01,02,07,13,14,15,17,19,22,30,,,1.1,0.8,0.8,1*3B,1763337985829
NMEA,$GNGSA,A,3,75,76,84,85,86,,,,,,,,1.1,0.8,0.8,2*3E,1763337985829
NMEA,$GNVTG,,T,,M,0.0,N,0.0,K,A*3D,1763337985829
NMEA,$GNDTM,P90,,0000.000025,S,00000.000001,E,0.981,W84*58,1763337985829
NMEA,$GNRMC,000625.00,A,3725.697513,N,12210.009598,W,0.0,,171125,15.0,E,A,V*58,1763337985829
NMEA,$GNGNS,000625.00,3725.697513,N,12210.009598,W,AA,15,0.8,20.7,-27.9,,,V*28,1763337985829
NMEA,$GNGGA,000625.00,3725.697513,N,12210.009598,W,1,12,0.8,20.7,M,-27.9,M,,*7F,1763337985829
NMEA,$PSMSG,tech=0x1,sensor=0x0,accu=3.216000,h_rel=4,speed=0.000000,time=1763337985000,SV_used=15,l5=0,e5=0*00,1763337985831
NMEA,$GPGSV,3,1,12,01,18,073,44,02,10,042,35,07,21,122,36,13,54,258,43,1*61,1763337986811
NMEA,$GPGSV,3,2,12,14,63,029,48,15,30,289,43,17,72,158,43,19,51,191,45,1*6E,1763337986811
NMEA,$GPGSV,3,3,12,22,68,345,46,30,49,119,48,06,00,000,,24,04,309,,1*6C,1763337986811
NMEA,$GLGSV,3,1,09,86,33,139,46,77,14,292,26,76,49,333,45,75,37,060,46,1*70,1763337986811
NMEA,$GLGSV,3,2,09,65,16,213,27,84,04,021,26,87,05,170,22,85,37,059,42,1*71,1763337986811
NMEA,$GLGSV,3,3,09,67,16,326,27,1*45,1763337986811
NMEA,$GNGSA,A,3,01,02,07,13,14,15,17,19,22,30,,,1.1,0.8,0.8,1*3B,1763337986820
NMEA,$GNGSA,A,3,75,76,84,85,86,,,,,,,,1.1,0.8,0.8,2*3E,1763337986820
NMEA,$GNVTG,,T,,M,0.0,N,0.0,K,A*3D,1763337986820
NMEA,$GNDTM,P90,,0000.000025,S,00000.000001,E,0.981,W84*58,1763337986820
NMEA,$GNRMC,000626.00,A,3725.697352,N,12210.009270,W,0.0,,171125,15.0,E,A,V*59,1763337986820
NMEA,$GNGNS,000626.00,3725.697352,N,12210.009270,W,AA,15,0.8,22.2,-27.9,,,V*2E,1763337986820
NMEA,$GNGGA,000626.00,3725.697352,N,12210.009270,W,1,12,0.8,22.2,M,-27.9,M,,*79,1763337986820
NMEA,$PSMSG,tech=0x1,sensor=0x0,accu=3.216000,h_rel=4,speed=0.000000,time=1763337986000,SV_used=15,l5=0,e5=0*00,1763337986825
NMEA,$GPGSV,3,1,12,01,18,073,45,02,10,042,32,07,21,122,36,13,54,258,43,1*67,1763337987813
NMEA,$GPGSV,3,2,12,14,63,029,49,15,30,289,44,17,72,158,41,19,51,191,45,1*6A,1763337987813
NMEA,$GPGSV,3,3,12,22,68,345,43,30,49,119,44,06,00,000,,24,04,309,,1*65,1763337987813
NMEA,$GLGSV,3,1,09,86,33,139,46,77,14,292,26,76,49,333,46,75,37,060,46,1*73,1763337987813
NMEA,$GLGSV,3,2,09,65,16,213,28,84,04,021,29,87,05,170,22,85,37,059,41,1*72,1763337987813
NMEA,$GLGSV,3,3,09,67,16,326,27,1*45,1763337987813
NMEA,$GNGSA,A,3,01,02,07,13,14,15,17,19,22,30,,,1.1,0.8,0.8,1*3B,1763337987821
NMEA,$GNGSA,A,3,75,76,84,85,86,,,,,,,,1.1,0.8,0.8,2*3E,1763337987821
NMEA,$GNVTG,,T,,M,0.0,N,0.0,K,A*3D,1763337987821
NMEA,$GNDTM,P90,,0000.000025,S,00000.000001,E,0.981,W84*58,1763337987821
NMEA,$GNRMC,000627.00,A,3725.697182,N,12210.008842,W,0.0,,171125,15.0,E,A,V*5D,1763337987821
NMEA,$GNGNS,000627.00,3725.697182,N,12210.008842,W,AA,15,0.8,23.0,-27.9,,,V*29,1763337987821
NMEA,$GNGGA,000627.00,3725.697182,N,12210.008842,W,1,12,0.8,23.0,M,-27.9,M,,*7E,1763337987821
NMEA,$PSMSG,tech=0x1,sensor=0x0,accu=3.216000,h_rel=4,speed=0.000000,time=1763337987000,SV_used=15,l5=0,e5=0*00,1763337987824
NMEA,$GPGSV,3,1,12,01,18,073,43,02,10,042,38,07,21,122,39,13,54,258,44,1*63,1763337988810
NMEA,$GPGSV,3,2,12,14,63,029,48,15,30,289,41,17,72,158,39,19,51,191,41,1*65,1763337988810
NMEA,$GPGSV,3,3,12,22,68,345,41,30,49,119,46,06,00,000,,24,04,309,,1*65,1763337988810
NMEA,$GLGSV,3,1,09,86,33,139,47,77,14,292,26,76,49,333,45,75,37,060,49,1*7E,1763337988810
NMEA,$GLGSV,3,2,09,65,16,213,26,84,04,021,27,87,05,170,22,85,37,059,46,1*75,1763337988810
NMEA,$GLGSV,3,3,09,67,16,326,26,1*44,1763337988810
NMEA,$GNGSA,A,3,01,02,07,13,14,15,17,19,22,30,,,1.1,0.8,0.8,1*3B,1763337988821
NMEA,$GNGSA,A,3,75,76,84,85,86,,,,,,,,1.1,0.8,0.8,2*3E,1763337988821
NMEA,$GNVTG,,T,,M,0.0,N,0.0,K,A*3D,1763337988821
NMEA,$GNDTM,P90,,0000.000025,S,00000.000001,E,0.981,W84*58,1763337988821
NMEA,$GNRMC,000628.00,A,3725.697272,N,12210.008502,W,0.0,,171125,15.0,E,A,V*57,1763337988821
NMEA,$GNGNS,000628.00,3725.697272,N,12210.008502,W,AA,15,0.8,24.2,-27.9,,,V*26,1763337988821
NMEA,$GNGGA,000628.00,3725.697272,N,12210.008502,W,1,12,0.8,24.2,M,-27.9,M,,*71,1763337988821
NMEA,$PSMSG,tech=0x1,sensor=0x0,accu=3.216000,h_rel=4,speed=0.000000,time=1763337988000,SV_used=15,l5=0,e5=0*00,1763337988825
NMEA,$GPGSV,3,1,12,01,18,073,44,02,10,042,38,07,21,122,39,13,54,258,44,1*64,1763337989810
NMEA,$GPGSV,3,2,12,14,63,029,48,15,30,289,41,17,72,158,39,19,51,191,41,1*65,1763337989810
NMEA,$GPGSV,3,3,12,22,68,345,42,30,49,119,47,06,00,000,,24,04,309,,1*67,1763337989810
NMEA,$GLGSV,3,1,09,86,33,139,47,77,14,292,26,76,49,333,44,75,37,060,49,1*7F,1763337989810
NMEA,$GLGSV,3,2,09,65,16,213,26,84,04,021,28,87,05,170,26,85,37,059,46,1*7E,1763337989810
NMEA,$GLGSV,3,3,09,67,16,326,24,1*46,1763337989810
NMEA,$GNGSA,A,3,01,02,07,13,14,15,17,19,22,30,,,1.1,0.8,0.8,1*3B,1763337989818
NMEA,$GNGSA,A,3,75,76,84,85,86,,,,,,,,1.1,0.8,0.8,2*3E,1763337989818
NMEA,$GNVTG,,T,,M,0.0,N,0.0,K,A*3D,1763337989818
NMEA,$GNDTM,P90,,0000.000025,S,00000.000001,E,0.981,W84*58,1763337989818
NMEA,$GNRMC,000629.00,A,3725.697407,N,12210.008243,W,0.0,,171125,15.0,E,A,V*50,1763337989818
NMEA,$GNGNS,000629.00,3725.697407,N,12210.008243,W,AA,15,0.8,24.5,-27.9,,,V*26,1763337989818
NMEA,$GNGGA,000629.00,3725.697407,N,12210.008243,W,1,12,0.8,24.5,M,-27.9,M,,*71,1763337989818
NMEA,$PSMSG,tech=0x1,sensor=0x0,accu=3.216000,h_rel=4,speed=0.000000,time=1763337989000,SV_used=15,l5=0,e5=0*00,1763337989821
NMEA,$GPGSV,3,1,12,01,18,073,45,02,10,042,39,07,21,122,40,13,54,258,44,1*6A,1763337990810
NMEA,$GPGSV,3,2,12,14,63,029,46,15,30,289,39,17,72,158,37,19,51,191,41,1*6A,1763337990810
NMEA,$GPGSV,3,3,12,22,68,345,40,30,49,119,47,06,00,000,,24,04,309,,1*65,1763337990810
NMEA,$GLGSV,3,1,09,86,33,139,48,77,14,292,26,76,49,333,44,75,37,060,49,1*70,1763337990810
NMEA,$GLGSV,3,2,09,65,16,213,26,84,04,021,26,87,05,170,27,85,37,059,46,1*71,1763337990810
NMEA,$GLGSV,3,3,09,67,16,326,31,1*42,1763337990810
NMEA,$GNGSA,A,3,01,02,07,13,14,15,17,19,22,30,,,1.1,0.8,0.8,1*3B,1763337990815
NMEA,$GNGSA,A,3,75,76,84,85,86,,,,,,,,1.1,0.8,0.8,2*3E,1763337990815
NMEA,$GNVTG,,T,,M,0.0,N,0.0,K,A*3D,1763337990815
NMEA,$GNDTM,P90,,0000.000025,S,00000.000001,E,0.981,W84*58,1763337990815
NMEA,$GNRMC,000630.00,A,3725.697550,N,12210.008143,W,0.0,,171125,15.0,E,A,V*58,1763337990815
NMEA,$GNGNS,000630.00,3725.697550,N,12210.008143,W,AA,15,0.8,24.5,-27.9,,,V*2E,1763337990815
NMEA,$GNGGA,000630.00,3725.697550,N,12210.008143,W,1,12,0.8,24.5,M,-27.9,M,,*79,1763337990815
NMEA,$PSMSG,tech=0x1,sensor=0x0,accu=3.216000,h_rel=4,speed=0.000000,time=1763337990000,SV_used=15,l5=0,e5=0*00,1763337990817
NMEA,$GPGSV,3,1,12,01,18,073,48,02,10,042,37,07,21,122,41,13,54,258,43,1*6F,1763337991813
NMEA,$GPGSV,3,2,12,14,63,029,44,15,30,289,47,17,72,158,37,19,51,191,42,1*62,1763337991813
NMEA,$GPGSV,3,3,12,22,68,345,37,30,49,119,48,06,00,000,,24,04,309,,1*6A,1763337991813
NMEA,$GLGSV,3,1,09,86,33,139,47,77,14,292,24,76,49,333,45,75,37,060,47,1*72,1763337991813
NMEA,$GLGSV,3,2,09,65,16,213,25,84,04,021,29,87,05,170,28,85,37,059,44,1*70,1763337991813
NMEA,$GLGSV,3,3,09,67,16,326,34,1*47,1763337991813
NMEA,$GNGSA,A,3,01,02,07,13,14,15,17,19,22,30,,,1.1,0.8,0.8,1*3B,1763337991821
NMEA,$GNGSA,A,3,75,76,84,85,86,,,,,,,,1.1,0.8,0.8,2*3E,1763337991821
NMEA,$GNVTG,,T,,M,0.0,N,0.0,K,A*3D,1763337991821
NMEA,$GNDTM,P90,,0000.000025,S,00000.000001,E,0.981,W84*58,1763337991821
NMEA,$GNRMC,000631.00,A,3725.697706,N,12210.008155,W,0.0,,171125,15.0,E,A,V*5F,1763337991821
NMEA,$GNGNS,000631.00,3725.697706,N,12210.008155,W,AA,15,0.8,23.9,-27.9,,,V*22,1763337991821
NMEA,$GNGGA,000631.00,3725.697706,N,12210.008155,W,1,12,0.8,23.9,M,-27.9,M,,*75,1763337991821
NMEA,$PSMSG,tech=0x1,sensor=0x0,accu=3.216000,h_rel=4,speed=0.000000,time=1763337991000,SV_used=15,l5=0,e5=0*00,1763337991823
NMEA,$GPGSV,3,1,12,01,18,073,48,02,10,042,39,07,21,122,41,13,54,258,44,1*66,1763337992814
NMEA,$GPGSV,3,2,12,14,63,029,44,15,30,289,49,17,72,158,39,19,51,191,43,1*63,1763337992814
NMEA,$GPGSV,3,3,12,22,68,345,36,30,49,119,50,06,00,000,,24,04,309,,1*62,1763337992814
NMEA,$GLGSV,3,1,09,86,33,139,48,77,14,292,33,76,49,333,45,75,37,060,48,1*74,1763337992814
NMEA,$GLGSV,3,2,09,65,16,213,25,84,04,021,30,87,05,170,28,85,37,059,46,1*7A,1763337992814
NMEA,$GLGSV,3,3,09,67,16,326,35,1*46,1763337992814
NMEA,$GNGSA,A,3,01,02,07,13,14,15,17,19,22,30,,,1.1,0.8,0.8,1*3B,1763337992823
NMEA,$GNGSA,A,3,75,76,84,85,86,,,,,,,,1.1,0.8,0.8,2*3E,1763337992823
NMEA,$GNVTG,,T,,M,0.0,N,0.0,K,A*3D,1763337992823
NMEA,$GNDTM,P90,,0000.000025,S,00000.000001,E,0.981,W84*58,1763337992823
NMEA,$GNRMC,000632.00,A,3725.697908,N,12210.008183,W,0.0,,171125,15.0,E,A,V*57,1763337992823
NMEA,$GNGNS,000632.00,3725.697908,N,12210.008183,W,AA,15,0.8,23.8,-27.9,,,V*2B,1763337992823
NMEA,$GNGGA,000632.00,3725.697908,N,12210.008183,W,1,12,0.8,23.8,M,-27.9,M,,*7C,1763337992823
NMEA,$PSMSG,tech=0x1,sensor=0x0,accu=3.216000,h_rel=4,speed=0.000000,time=1763337992000,SV_used=15,l5=0,e5=0*00,1763337992828
NMEA,$GPGSV,3,1,12,01,18,073,49,02,10,042,37,07,21,122,40,13,54,258,45,1*69,1763337993811
NMEA,$GPGSV,3,2,12,14,63,029,45,15,30,289,50,17,72,158,40,19,51,191,43,1*64,1763337993811
NMEA,$GPGSV,3,3,12,22,68,345,36,30,49,119,50,06,00,000,,24,04,309,,1*62,1763337993811
NMEA,$GLGSV,3,1,09,86,33,139,49,77,14,292,33,76,49,333,46,75,37,060,47,1*79,1763337993811
NMEA,$GLGSV,3,2,09,65,16,213,25,84,04,021,33,87,05,170,28,85,37,059,45,1*7A,1763337993811
NMEA,$GLGSV,3,3,09,67,16,326,36,1*45,1763337993811
NMEA,$GNGSA,A,3,01,02,07,13,14,15,17,19,22,30,,,1.0,0.7,0.7,1*3A,1763337993817
NMEA,$GNGSA,A,3,75,76,84,85,86,87,,,,,,,1.0,0.7,0.7,2*30,1763337993817
NMEA,$GNVTG,,T,,M,0.0,N,0.0,K,A*3D,1763337993817
NMEA,$GNDTM,P90,,0000.000025,S,00000.000001,E,0.981,W84*58,1763337993817
NMEA,$GNRMC,000633.00,A,3725.698091,N,12210.008202,W,0.0,,171125,15.0,E,A,V*5A,1763337993817
NMEA,$GNGNS,000633.00,3725.698091,N,12210.008202,W,AA,16,0.7,23.7,-27.9,,,V*25,1763337993817
NMEA,$GNGGA,000633.00,3725.698091,N,12210.008202,W,1,12,0.7,23.7,M,-27.9,M,,*71,1763337993817
NMEA,$PSMSG,tech=0x1,sensor=0x0,accu=3.216000,h_rel=4,speed=0.000000,time=1763337993000,SV_used=16,l5=0,e5=0*00,1763337993819
NMEA,$GPGSV,3,1,12,01,18,073,49,02,10,042,38,07,21,122,41,13,54,258,45,1*67,1763337994813
NMEA,$GPGSV,3,2,12,14,63,029,45,15,30,289,50,17,72,158,40,19,51,191,43,1*64,1763337994813
NMEA,$GPGSV,3,3,12,22,68,345,37,30,49,119,50,06,00,000,,24,04,309,,1*63,1763337994813
NMEA,$GLGSV,3,1,09,86,33,139,49,77,14,292,33,76,49,333,46,75,37,060,47,1*79,1763337994813
NMEA,$GLGSV,3,2,09,65,16,213,24,84,04,021,34,87,05,170,26,85,37,059,45,1*72,1763337994813
NMEA,$GLGSV,3,3,09,67,16,326,35,1*46,1763337994813
NMEA,$GNGSA,A,3,01,02,07,13,14,15,17,19,22,30,,,1.0,0.7,0.7,1*3A,1763337994818
NMEA,$GNGSA,A,3,75,76,84,85,86,87,,,,,,,1.0,0.7,0.7,2*30,1763337994818
NMEA,$GNVTG,,T,,M,0.0,N,0.0,K,A*3D,1763337994818
NMEA,$GNDTM,P90,,0000.000025,S,00000.000001,E,0.981,W84*58,1763337994818
NMEA,$GNRMC,000634.00,A,3725.698261,N,12210.008272,W,0.0,,171125,15.0,E,A,V*57,1763337994818
NMEA,$GNGNS,000634.00,3725.698261,N,12210.008272,W,AA,16,0.7,23.4,-27.9,,,V*2B,1763337994818
NMEA,$GNGGA,000634.00,3725.698261,N,12210.008272,W,1,12,0.7,23.4,M,-27.9,M,,*7F,1763337994818
NMEA,$PSMSG,tech=0x1,sensor=0x0,accu=3.216000,h_rel=4,speed=0.000000,time=1763337994000,SV_used=16,l5=0,e5=0*00,1763337994821
NMEA,$GPGSV,3,1,12,01,18,073,49,02,10,042,37,07,21,122,41,13,54,258,45,1*68,1763337995811
NMEA,$GPGSV,3,2,12,14,63,029,45,15,30,289,50,17,72,158,40,19,51,191,43,1*64,1763337995811
NMEA,$GPGSV,3,3,12,22,68,345,37,30,49,119,50,06,00,000,,24,04,309,,1*63,1763337995811
NMEA,$GLGSV,3,1,09,86,33,139,49,77,14,292,34,76,49,333,47,75,37,060,48,1*70,1763337995811
NMEA,$GLGSV,3,2,09,65,16,213,25,84,04,021,34,87,05,170,29,85,37,059,46,1*7F,1763337995811
NMEA,$GLGSV,3,3,09,67,16,326,36,1*45,1763337995811
NMEA,$GNGSA,A,3,01,02,07,13,14,15,17,19,22,30,,,1.0,0.7,0.7,1*3A,1763337995820
NMEA,$GNGSA,A,3,75,76,84,85,86,87,,,,,,,1.0,0.7,0.7,2*30,1763337995820
NMEA,$GNVTG,,T,,M,0.0,N,0.0,K,A*3D,1763337995820
NMEA,$GNDTM,P90,,0000.000025,S,00000.000001,E,0.981,W84*58,1763337995820
NMEA,$GNRMC,000635.00,A,3725.698372,N,12210.008362,W,0.0,,171125,15.0,E,A,V*55,1763337995820
NMEA,$GNGNS,000635.00,3725.698372,N,12210.008362,W,AA,16,0.7,22.9,-27.9,,,V*25,1763337995820
NMEA,$GNGGA,000635.00,3725.698372,N,12210.008362,W,1,12,0.7,22.9,M,-27.9,M,,*71,1763337995820
NMEA,$PSMSG,tech=0x1,sensor=0x0,accu=3.216000,h_rel=4,speed=0.000000,time=1763337995000,SV_used=16,l5=0,e5=0*00,1763337995822
NMEA,$GPGSV,3,1,12,01,18,073,49,02,10,042,36,07,21,122,42,13,54,258,45,1*6A,1763337996812
NMEA,$GPGSV,3,2,12,14,63,029,45,15,30,289,50,17,72,158,41,19,51,191,43,1*65,1763337996812
NMEA,$GPGSV,3,3,12,22,68,345,37,30,49,119,50,06,00,000,,24,04,309,,1*63,1763337996812
NMEA,$GLGSV,3,1,09,86,33,139,49,77,14,292,34,76,49,333,47,75,37,060,48,1*70,1763337996812
NMEA,$GLGSV,3,2,09,65,16,213,24,84,04,021,34,87,05,170,29,85,37,059,46,1*7E,1763337996812
NMEA,$GLGSV,3,3,09,67,16,326,36,1*45,1763337996812
NMEA,$GNGSA,A,3,01,02,07,13,14,15,17,19,22,30,,,1.0,0.7,0.7,1*3A,1763337996819
NMEA,$GNGSA,A,3,75,76,84,85,86,87,,,,,,,1.0,0.7,0.7,2*30,1763337996819
NMEA,$GNVTG,,T,,M,0.0,N,0.0,K,A*3D,1763337996819
NMEA,$GNDTM,P90,,0000.000025,S,00000.000001,E,0.981,W84*58,1763337996819
NMEA,$GNRMC,000636.00,A,3725.698463,N,12210.008440,W,0.0,,171125,15.0,E,A,V*56,1763337996819
NMEA,$GNGNS,000636.00,3725.698463,N,12210.008440,W,AA,16,0.7,22.8,-27.9,,,V*27,1763337996819
NMEA,$GNGGA,000636.00,3725.698463,N,12210.008440,W,1,12,0.7,22.8,M,-27.9,M,,*73,1763337996819
NMEA,$PSMSG,tech=0x1,sensor=0x0,accu=3.216000,h_rel=4,speed=0.000000,time=1763337996000,SV_used=16,l5=0,e5=0*00,1763337996822
NMEA,$GPGSV,3,1,12,01,18,073,49,02,10,042,37,07,21,122,42,13,54,258,45,1*6B,1763337997813
NMEA,$GPGSV,3,2,12,14,63,029,45,15,30,289,50,17,72,158,41,19,51,191,43,1*65,1763337997813
NMEA,$GPGSV,3,3,12,22,68,345,38,30,49,119,50,06,00,000,,24,04,309,,1*6C,1763337997813
NMEA,$GLGSV,3,1,09,86,33,139,49,77,14,292,34,76,49,333,47,75,37,060,47,1*7F,1763337997813
NMEA,$GLGSV,3,2,09,65,16,213,24,84,04,021,34,87,05,170,28,85,37,059,46,1*7F,1763337997813
NMEA,$GLGSV,3,3,09,67,16,326,33,1*40,1763337997813
NMEA,$GNGSA,A,3,01,02,07,13,14,15,17,19,22,30,,,1.0,0.7,0.7,1*3A,1763337997821
NMEA,$GNGSA,A,3,75,76,84,85,86,87,,,,,,,1.0,0.7,0.7,2*30,1763337997821
NMEA,$GNVTG,,T,,M,0.0,N,0.0,K,A*3D,1763337997821
NMEA,$GNDTM,P90,,0000.000025,S,00000.000001,E,0.981,W84*58,1763337997821
NMEA,$GNRMC,000637.00,A,3725.698510,N,12210.008493,W,0.0,,171125,15.0,E,A,V*5C,1763337997821
NMEA,$GNGNS,000637.00,3725.698510,N,12210.008493,W,AA,16,0.7,22.7,-27.9,,,V*22,1763337997821
NMEA,$GNGGA,000637.00,3725.698510,N,12210.008493,W,1,12,0.7,22.7,M,-27.9,M,,*76,1763337997821
NMEA,$PSMSG,tech=0x1,sensor=0x0,accu=3.216000,h_rel=4,speed=0.000000,time=1763337997000,SV_used=16,l5=0,e5=0*00,1763337997825
NMEA,$GPGSV,3,1,12,01,18,073,49,02,10,042,37,07,21,122,42,13,54,258,45,1*6B,1763337998813
NMEA,$GPGSV,3,2,12,14,63,029,45,15,30,289,50,17,72,158,41,19,51,191,42,1*64,1763337998813
NMEA,$GPGSV,3,3,12,22,68,345,39,30,49,119,50,06,00,000,,24,04,309,,1*6D,1763337998813
NMEA,$GLGSV,3,1,09,86,33,139,49,77,14,292,34,76,49,333,47,75,37,060,47,1*7F,1763337998813
NMEA,$GLGSV,3,2,09,65,16,213,24,84,04,021,34,87,05,170,28,85,37,059,46,1*7F,1763337998813
NMEA,$GLGSV,3,3,09,67,16,326,32,1*41,1763337998813
NMEA,$GNGSA,A,3,01,02,07,13,14,15,17,19,22,30,,,1.0,0.7,0.7,1*3A,1763337998829
NMEA,$GNGSA,A,3,67,75,76,84,85,86,87,,,,,,1.0,0.7,0.7,2*31,1763337998829
NMEA,$GNVTG,,T,,M,0.0,N,0.0,K,A*3D,1763337998829
NMEA,$GNDTM,P90,,0000.000025,S,00000.000001,E,0.981,W84*58,1763337998829
NMEA,$GNRMC,000638.00,A,3725.698539,N,12210.008524,W,0.0,,171125,15.0,E,A,V*55,1763337998829
NMEA,$GNGNS,000638.00,3725.698539,N,12210.008524,W,AA,17,0.7,22.6,-27.9,,,V*2B,1763337998829
NMEA,$GNGGA,000638.00,3725.698539,N,12210.008524,W,1,12,0.7,22.6,M,-27.9,M,,*7E,1763337998829
NMEA,$PSMSG,tech=0x1,sensor=0x0,accu=3.216000,h_rel=4,speed=0.000000,time=1763337998000,SV_used=17,l5=0,e5=0*00,1763337998831
NMEA,$GPGSV,3,1,12,01,18,073,49,02,10,042,36,07,21,122,42,13,54,258,44,1*6B,1763337999812
NMEA,$GPGSV,3,2,12,14,63,029,44,15,30,289,50,17,72,158,41,19,51,191,42,1*65,1763337999812
NMEA,$GPGSV,3,3,12,22,68,345,39,30,49,119,49,06,00,000,,24,04,309,,1*65,1763337999812
NMEA,$GLGSV,3,1,09,86,33,139,48,77,14,292,32,76,49,333,46,75,37,060,46,1*78,1763337999812
NMEA,$GLGSV,3,2,09,65,16,213,24,84,04,021,34,87,05,170,26,85,37,059,46,1*71,1763337999812
NMEA,$GLGSV,3,3,09,67,16,326,27,1*45,1763337999812
NMEA,$GNGSA,A,3,01,02,07,13,14,15,17,19,22,30,,,1.0,0.7,0.7,1*3A,1763337999819
NMEA,$GNGSA,A,3,67,75,76,84,85,86,87,,,,,,1.0,0.7,0.7,2*31,1763337999819
NMEA,$GNVTG,,T,,M,0.0,N,0.0,K,A*3D,1763337999819
NMEA,$GNDTM,P90,,0000.000025,S,00000.000001,E,0.981,W84*58,1763337999819
NMEA,$GNRMC,000639.00,A,3725.698556,N,12210.008544,W,0.0,,171125,15.0,E,A,V*5B,1763337999819
NMEA,$GNGNS,000639.00,3725.698556,N,12210.008544,W,AA,17,0.7,22.6,-27.9,,,V*25,1763337999819
NMEA,$GNGGA,000639.00,3725.698556,N,12210.008544,W,1,12,0.7,22.6,M,-27.9,M,,*70,1763337999819
NMEA,$PSMSG,tech=0x1,sensor=0x0,accu=3.216000,h_rel=4,speed=0.000000,time=1763337999000,SV_used=17,l5=0,e5=0*00,1763337999822
NMEA,$GPGSV,3,1,12,01,18,073,49,02,10,042,36,07,21,122,42,13,54,258,44,1*6B,1763338000810
NMEA,$GPGSV,3,2,12,14,63,029,43,15,30,289,50,17,72,158,40,19,51,191,42,1*63,1763338000810
NMEA,$GPGSV,3,3,12,22,68,345,39,30,49,119,49,06,00,000,,24,04,309,,1*65,1763338000810
NMEA,$GLGSV,3,1,09,86,33,139,48,77,14,292,33,76,49,333,46,75,37,060,47,1*78,1763338000810
NMEA,$GLGSV,3,2,09,65,16,213,24,84,04,021,35,87,05,170,29,85,37,059,46,1*7F,1763338000810
NMEA,$GLGSV,3,3,09,67,16,326,28,1*4A,1763338000810
NMEA,$GNGSA,A,3,01,02,07,13,14,15,17,19,22,30,,,1.0,0.7,0.7,1*3A,1763338000818
NMEA,$GNGSA,A,3,67,75,76,84,85,86,87,,,,,,1.0,0.7,0.7,2*31,1763338000818
NMEA,$GNVTG,,T,,M,0.0,N,0.0,K,A*3D,1763338000818
NMEA,$GNDTM,P90,,0000.000025,S,00000.000001,E,0.981,W84*58,1763338000818
NMEA,$GNRMC,000640.00,A,3725.698565,N,12210.008554,W,0.0,,171125,15.0,E,A,V*54,1763338000818
NMEA,$GNGNS,000640.00,3725.698565,N,12210.008554,W,AA,17,0.7,22.6,-27.9,,,V*2A,1763338000818
NMEA,$GNGGA,000640.00,3725.698565,N,12210.008554,W,1,12,0.7,22.6,M,-27.9,M,,*7F,1763338000818
NMEA,$PSMSG,tech=0x1,sensor=0x0,accu=3.216000,h_rel=4,speed=0.000000,time=1763338000000,SV_used=17,l5=0,e5=0*00,1763338000820
NMEA,$GPGSV,3,1,12,01,18,073,49,02,10,042,35,07,21,122,42,13,54,258,44,1*68,1763338001811
NMEA,$GPGSV,3,2,12,14,63,029,43,15,30,289,49,17,72,158,39,19,51,191,41,1*66,1763338001811
NMEA,$GPGSV,3,3,12,22,68,345,40,30,49,119,49,06,00,000,,24,04,309,,1*6B,1763338001811
NMEA,$GLGSV,3,1,09,86,33,139,48,77,14,292,33,76,49,333,46,75,37,060,46,1*79,1763338001811
NMEA,$GLGSV,3,2,09,65,16,213,24,84,04,021,34,87,05,170,28,85,37,059,45,1*7C,1763338001811
NMEA,$GLGSV,3,3,09,67,16,326,28,1*4A,1763338001811
NMEA,$GNGSA,A,3,01,02,07,13,14,15,17,19,22,30,,,1.0,0.7,0.7,1*3A,1763338001818
NMEA,$GNGSA,A,3,67,75,76,84,85,86,87,,,,,,1.0,0.7,0.7,2*31,1763338001818
NMEA,$GNVTG,,T,,M,0.0,N,0.0,K,A*3D,1763338001818
NMEA,$GNDTM,P90,,0000.000025,S,00000.000001,E,0.981,W84*58,1763338001818
NMEA,$GNRMC,000641.00,A,3725.698569,N,12210.008561,W,0.0,,171125,15.0,E,A,V*5F,1763338001818
NMEA,$GNGNS,000641.00,3725.698569,N,12210.008561,W,AA,17,0.7,22.6,-27.9,,,V*21,1763338001818
NMEA,$GNGGA,000641.00,3725.698569,N,12210.008561,W,1,12,0.7,22.6,M,-27.9,M,,*74,1763338001818
NMEA,$PSMSG,tech=0x1,sensor=0x0,accu=3.216000,h_rel=4,speed=0.000000,time=1763338001000,SV_used=17,l5=0,e5=0*00,1763338001821
NMEA,$GPGSV,3,1,12,01,18,073,49,02,10,042,35,07,21,122,42,13,54,258,43,1*6F,1763338002813
NMEA,$GPGSV,3,2,12,14,63,029,43,15,30,289,50,17,72,158,38,19,51,191,41,1*6F,1763338002813
NMEA,$GPGSV,3,3,12,22,68,345,41,30,49,119,49,06,00,000,,24,04,309,,1*6A,1763338002813
NMEA,$GLGSV,3,1,09,86,33,139,48,77,14,292,32,76,49,333,46,75,37,060,47,1*79,1763338002813
NMEA,$GLGSV,3,2,09,65,16,213,24,84,04,021,34,87,05,170,28,85,37,059,46,1*7F,1763338002813
NMEA,$GLGSV,3,3,09,67,16,326,28,1*4A,1763338002813
NMEA,$GNGSA,A,3,01,02,07,13,14,15,17,19,22,30,,,1.0,0.7,0.7,1*3A,1763338002829
NMEA,$GNGSA,A,3,67,75,76,84,85,86,87,,,,,,1.0,0.7,0.7,2*31,1763338002829
NMEA,$GNVTG,,T,,M,0.0,N,0.0,K,A*3D,1763338002829
NMEA,$GNDTM,P90,,0000.000025,S,00000.000001,E,0.981,W84*58,1763338002829
NMEA,$GNRMC,000642.00,A,3725.698571,N,12210.008565,W,0.0,,171125,15.0,E,A,V*51,1763338002829
NMEA,$GNGNS,000642.00,3725.698571,N,12210.008565,W,AA,17,0.7,22.6,-27.9,,,V*2F,1763338002829
NMEA,$GNGGA,000642.00,3725.698571,N,12210.008565,W,1,12,0.7,22.6,M,-27.9,M,,*7A,1763338002829
NMEA,$PSMSG,tech=0x1,sensor=0x0,accu=3.216000,h_rel=4,speed=0.000000,time=1763338002000,SV_used=17,l5=0,e5=0*00,1763338002832
NMEA,$GPGSV,3,1,12,01,18,073,49,02,10,042,35,07,21,122,42,13,54,258,43,1*6F,1763338003814
NMEA,$GPGSV,3,2,12,14,63,029,43,15,30,289,50,17,72,158,39,19,51,191,42,1*6D,1763338003814
NMEA,$GPGSV,3,3,12,22,68,345,41,30,49,119,50,06,00,000,,24,04,309,,1*62,1763338003814
NMEA,$GLGSV,3,1,09,86,33,139,49,77,14,292,33,76,49,333,46,75,37,060,47,1*79,1763338003814
NMEA,$GLGSV,3,2,09,65,16,213,22,84,04,021,34,87,05,170,28,85,37,059,45,1*7A,1763338003814
NMEA,$GLGSV,3,3,09,67,16,326,28,1*4A,1763338003814
NMEA,$GNGSA,A,3,01,02,07,13,14,15,17,19,22,30,,,1.0,0.7,0.7,1*3A,1763338003825
NMEA,$GNGSA,A,3,67,75,76,84,85,86,87,,,,,,1.0,0.7,0.7,2*31,1763338003825
NMEA,$GNVTG,,T,,M,0.0,N,0.0,K,A*3D,1763338003825
NMEA,$GNDTM,P90,,0000.000025,S,00000.000001,E,0.981,W84*58,1763338003825
NMEA,$GNRMC,000643.00,A,3725.698571,N,12210.008568,W,0.0,,171125,15.0,E,A,V*5D,1763338003825
NMEA,$GNGNS,000643.00,3725.698571,N,12210.008568,W,AA,17,0.7,22.6,-27.9,,,V*23,1763338003825
NMEA,$GNGGA,000643.00,3725.698571,N,12210.008568,W,1,12,0.7,22.6,M,-27.9,M,,*76,1763338003825
NMEA,$PSMSG,tech=0x1,sensor=0x0,accu=3.216000,h_rel=4,speed=0.000000,time=1763338003000,SV_used=17,l5=0,e5=0*00,1763338003828
NMEA,$GPGSV,3,1,12,01,18,073,50,02,10,042,35,07,21,122,42,13,54,258,43,1*67,1763338004815
NMEA,$GPGSV,3,2,12,14,63,029,43,15,30,289,50,17,72,158,39,19,51,191,42,1*6D,1763338004815
NMEA,$GPGSV,3,3,12,22,68,345,41,30,49,119,49,06,00,000,,24,04,309,,1*6A,1763338004815
NMEA,$GLGSV,3,1,09,86,33,139,48,77,14,292,33,76,49,333,45,75,37,060,47,1*7B,1763338004815
NMEA,$GLGSV,3,2,09,65,16,213,22,84,04,021,35,87,05,170,28,85,37,059,45,1*7B,1763338004815
NMEA,$GLGSV,3,3,09,67,16,326,28,1*4A,1763338004815
NMEA,$GNGSA,A,3,01,02,07,13,14,15,17,19,22,30,,,1.0,0.7,0.7,1*3A,1763338004825
NMEA,$GNGSA,A,3,75,76,84,85,86,87,,,,,,,1.0,0.7,0.7,2*30,1763338004825
NMEA,$GNVTG,,T,,M,0.0,N,0.0,K,A*3D,1763338004825
NMEA,$GNDTM,P90,,0000.000025,S,00000.000001,E,0.981,W84*58,1763338004825
NMEA,$GNRMC,000644.00,A,3725.698571,N,12210.008570,W,0.0,,171125,15.0,E,A,V*53,1763338004825
NMEA,$GNGNS,000644.00,3725.698571,N,12210.008570,W,AA,16,0.7,22.6,-27.9,,,V*2C,1763338004825
NMEA,$GNGGA,000644.00,3725.698571,N,12210.008570,W,1,12,0.7,22.6,M,-27.9,M,,*78,1763338004825
NMEA,$PSMSG,tech=0x1,sensor=0x0,accu=3.216000,h_rel=4,speed=0.000000,time=1763338004000,SV_used=16,l5=0,e5=0*00,1763338004828
NMEA,$GPGSV,3,1,12,01,18,073,50,02,10,042,34,07,21,122,42,13,54,258,43,1*66,1763338005812
NMEA,$GPGSV,3,2,12,14,63,029,43,15,30,289,50,17,72,158,40,19,51,191,42,1*63,1763338005812
NMEA,$GPGSV,3,3,12,22,68,345,41,30,49,119,50,06,00,000,,24,04,309,,1*62,1763338005812
NMEA,$GLGSV,3,1,09,86,33,139,48,77,14,292,32,76,49,333,45,75,37,060,47,1*7A,1763338005812
NMEA,$GLGSV,3,2,09,65,16,213,23,84,04,021,34,87,05,170,29,85,37,059,46,1*79,1763338005812
NMEA,$GLGSV,3,3,09,67,16,326,28,1*4A,1763338005812
NMEA,$GNGSA,A,3,01,02,07,13,14,15,17,19,22,30,,,1.0,0.7,0.7,1*3A,1763338005819
NMEA,$GNGSA,A,3,75,76,84,85,86,87,,,,,,,1.0,0.7,0.7,2*30,1763338005819
NMEA,$GNVTG,,T,,M,0.0,N,0.0,K,A*3D,1763338005819
NMEA,$GNDTM,P90,,0000.000025,S,00000.000001,E,0.981,W84*58,1763338005819
NMEA,$GNRMC,000645.00,A,3725.698570,N,12210.008572,W,0.0,,171125,15.0,E,A,V*51,1763338005819
NMEA,$GNGNS,000645.00,3725.698570,N,12210.008572,W,AA,16,0.7,22.6,-27.9,,,V*2E,1763338005819
NMEA,$GNGGA,000645.00,3725.698570,N,12210.008572,W,1,12,0.7,22.6,M,-27.9,M,,*7A,1763338005819
NMEA,$PSMSG,tech=0x1,sensor=0x0,accu=3.216000,h_rel=4,speed=0.000000,time=1763338005000,SV_used=16,l5=0,e5=0*00,1763338005821
NMEA,$GPGSV,3,1,12,01,18,073,50,02,10,042,34,07,21,122,42,13,54,258,42,1*67,1763338006813
NMEA,$GPGSV,3,2,12,14,63,029,43,15,30,289,50,17,72,158,39,19,51,191,41,1*6E,1763338006813
NMEA,$GPGSV,3,3,12,22,68,345,41,30,49,119,49,06,00,000,,24,04,309,,1*6A,1763338006813
NMEA,$GLGSV,3,1,09,86,33,139,48,77,14,292,33,76,49,333,45,75,37,060,46,1*7A,1763338006813
NMEA,$GLGSV,3,2,09,65,16,213,24,84,04,021,33,87,05,170,28,85,37,059,46,1*78,1763338006813
NMEA,$GLGSV,3,3,09,67,16,326,21,1*43,1763338006813
NMEA,$GNGSA,A,3,01,02,07,13,14,15,17,19,22,30,,,1.0,0.7,0.7,1*3A,1763338006818
NMEA,$GNGSA,A,3,75,76,84,85,86,87,,,,,,,1.0,0.7,0.7,2*30,1763338006818
NMEA,$GNVTG,,T,,M,0.0,N,0.0,K,A*3D,1763338006818
NMEA,$GNDTM,P90,,0000.000025,S,00000.000001,E,0.981,W84*58,1763338006818
NMEA,$GNRMC,000646.00,A,3725.698568,N,12210.008575,W,0.0,,171125,15.0,E,A,V*5C,1763338006818
NMEA,$GNGNS,000646.00,3725.698568,N,12210.008575,W,AA,16,0.7,22.6,-27.9,,,V*23,1763338006818
NMEA,$GNGGA,000646.00,3725.698568,N,12210.008575,W,1,12,0.7,22.6,M,-27.9,M,,*77,1763338006818
NMEA,$PSMSG,tech=0x1,sensor=0x0,accu=3.216000,h_rel=4,speed=0.000000,time=1763338006000,SV_used=16,l5=0,e5=0*00,1763338006820
NMEA,$GPGSV,3,1,12,01,18,073,50,02,10,042,34,07,21,122,43,13,54,258,42,1*66,1763338007819
NMEA,$GPGSV,3,2,12,14,63,029,43,15,30,289,50,17,72,158,40,19,51,191,41,1*60,1763338007819
NMEA,$GPGSV,3,3,12,22,68,345,41,30,49,119,49,06,00,000,,24,04,309,,1*6A,1763338007819
NMEA,$GLGSV,3,1,09,86,33,139,48,77,14,292,33,76,49,333,45,75,37,060,47,1*7B,1763338007819
NMEA,$GLGSV,3,2,09,65,16,213,25,84,04,021,34,87,05,170,27,85,37,059,46,1*71,1763338007819
NMEA,$GLGSV,3,3,09,67,16,326,21,1*43,1763338007819
NMEA,$GNGSA,A,3,01,02,07,13,14,15,17,19,22,30,,,1.0,0.7,0.7,1*3A,1763338007824
NMEA,$GNGSA,A,3,75,76,84,85,86,87,,,,,,,1.0,0.7,0.7,2*30,1763338007824
NMEA,$GNVTG,,T,,M,0.0,N,0.0,K,A*3D,1763338007824
NMEA,$GNDTM,P90,,0000.000025,S,00000.000001,E,0.981,W84*58,1763338007824
NMEA,$GNRMC,000647.00,A,3725.698567,N,12210.008578,W,0.0,,171125,15.0,E,A,V*5F,1763338007824
NMEA,$GNGNS,000647.00,3725.698567,N,12210.008578,W,AA,16,0.7,22.6,-27.9,,,V*20,1763338007824
NMEA,$GNGGA,000647.00,3725.698567,N,12210.008578,W,1,12,0.7,22.6,M,-27.9,M,,*74,1763338007824
NMEA,$PSMSG,tech=0x1,sensor=0x0,accu=3.216000,h_rel=4,speed=0.000000,time=1763338007000,SV_used=16,l5=0,e5=0*00,1763338007826
NMEA,$GPGSV,3,1,12,01,18,073,50,02,10,042,35,07,21,122,42,13,54,258,42,1*66,1763338008814
NMEA,$GPGSV,3,2,12,14,63,029,43,15,30,289,51,17,72,158,39,19,51,191,43,1*6D,1763338008814
NMEA,$GPGSV,3,3,12,22,68,345,42,30,49,119,49,06,00,000,,24,04,309,,1*69,1763338008814
NMEA,$GLGSV,3,1,09,86,33,139,48,77,14,292,32,76,49,333,45,75,37,060,47,1*7A,1763338008814
NMEA,$GLGSV,3,2,09,65,16,213,25,84,04,021,33,87,05,170,27,85,37,059,46,1*76,1763338008814
NMEA,$GLGSV,3,3,09,67,16,326,25,1*47,1763338008814
NMEA,$GNGSA,A,3,01,02,07,13,14,15,17,19,22,30,,,1.0,0.7,0.7,1*3A,1763338008824
NMEA,$GNGSA,A,3,75,76,84,85,86,87,,,,,,,1.0,0.7,0.7,2*30,1763338008824
NMEA,$GNVTG,,T,,M,0.0,N,0.0,K,A*3D,1763338008824
NMEA,$GNDTM,P90,,0000.000025,S,00000.000001,E,0.981,W84*58,1763338008824
NMEA,$GNRMC,000648.00,A,3725.698566,N,12210.008580,W,0.0,,171125,15.0,E,A,V*56,1763338008824
NMEA,$GNGNS,000648.00,3725.698566,N,12210.008580,W,AA,16,0.7,22.6,-27.9,,,V*29,1763338008824
NMEA,$GNGGA,000648.00,3725.698566,N,12210.008580,W,1,12,0.7,22.6,M,-27.9,M,,*7D,1763338008824
NMEA,$PSMSG,tech=0x1,sensor=0x0,accu=3.216000,h_rel=4,speed=0.000000,time=1763338008000,SV_used=16,l5=0,e5=0*00,1763338008828
NMEA,$GPGSV,3,1,12,01,18,073,50,02,10,042,35,07,21,122,42,13,54,258,41,1*65,1763338009819
NMEA,$GPGSV,3,2,12,14,63,029,43,15,30,289,50,17,72,158,38,19,51,191,43,1*6D,1763338009819
NMEA,$GPGSV,3,3,12,22,68,345,41,30,49,119,49,06,00,000,,24,04,309,,1*6A,1763338009819
NMEA,$GLGSV,3,1,09,86,33,139,48,77,14,292,31,76,49,333,44,75,37,060,47,1*78,1763338009819
NMEA,$GLGSV,3,2,09,65,16,213,25,84,04,021,32,87,05,170,27,85,37,059,46,1*77,1763338009819
NMEA,$GLGSV,3,3,09,67,16,326,25,1*47,1763338009819
NMEA,$GNGSA,A,3,01,02,07,13,14,15,17,19,22,30,,,1.0,0.7,0.7,1*3A,1763338009827
NMEA,$GNGSA,A,3,75,76,84,85,86,87,,,,,,,1.0,0.7,0.7,2*30,1763338009827
NMEA,$GNVTG,,T,,M,0.0,N,0.0,K,A*3D,1763338009827
NMEA,$GNDTM,P90,,0000.000025,S,00000.000001,E,0.981,W84*58,1763338009827
NMEA,$GNRMC,000649.00,A,3725.698566,N,12210.008582,W,0.0,,171125,15.0,E,A,V*55,1763338009827
NMEA,$GNGNS,000649.00,3725.698566,N,12210.008582,W,AA,16,0.7,22.6,-27.9,,,V*2A,1763338009827
NMEA,$GNGGA,000649.00,3725.698566,N,12210.008582,W,1,12,0.7,22.6,M,-27.9,M,,*7E,1763338009827
NMEA,$PSMSG,tech=0x1,sensor=0x0,accu=3.216000,h_rel=4,speed=0.000000,time=1763338009000,SV_used=16,l5=0,e5=0*00,1763338009829
NMEA,$GPGSV,3,1,12,01,18,073,50,02,10,042,36,07,21,122,41,13,54,258,41,1*65,1763338010812
NMEA,$GPGSV,3,2,12,14,63,029,44,15,30,289,51,17,72,158,39,19,51,191,43,1*6A,1763338010812
NMEA,$GPGSV,3,3,12,22,68,345,41,30,49,119,49,06,00,000,,24,04,309,,1*6A,1763338010812
NMEA,$GLGSV,3,1,09,86,33,139,49,77,14,292,33,76,49,333,44,75,37,060,47,1*7B,1763338010812
NMEA,$GLGSV,3,2,09,65,16,213,23,84,04,021,31,87,05,170,28,85,37,059,46,1*7D,1763338010812
NMEA,$GLGSV,3,3,09,67,16,326,28,1*4A,1763338010812
NMEA,$GNGSA,A,3,01,02,07,13,14,15,17,19,22,30,,,1.0,0.7,0.7,1*3A,1763338010824
NMEA,$GNGSA,A,3,75,76,84,85,86,87,,,,,,,1.0,0.7,0.7,2*30,1763338010824
NMEA,$GNVTG,,T,,M,0.0,N,0.0,K,A*3D,1763338010824
NMEA,$GNDTM,P90,,0000.000025,S,00000.000001,E,0.981,W84*58,1763338010824
NMEA,$GNRMC,000650.00,A,3725.698566,N,12210.008584,W,0.0,,171125,15.0,E,A,V*5B,1763338010824
NMEA,$GNGNS,000650.00,3725.698566,N,12210.008584,W,AA,16,0.7,22.6,-27.9,,,V*24,1763338010824
NMEA,$GNGGA,000650.00,3725.698566,N,12210.008584,W,1,12,0.7,22.6,M,-27.9,M,,*70,1763338010824
NMEA,$PSMSG,tech=0x1,sensor=0x0,accu=3.216000,h_rel=4,speed=0.000000,time=1763338010000,SV_used=16,l5=0,e5=0*00,1763338010827
NMEA,$GPGSV,3,1,12,01,18,073,50,02,10,042,37,07,21,122,41,13,54,258,38,1*6A,1763338011812
NMEA,$GPGSV,3,2,12,14,63,029,44,15,30,289,50,17,72,158,38,19,51,191,43,1*6A,1763338011812
NMEA,$GPGSV,3,3,12,22,68,345,42,30,49,119,48,06,00,000,,24,04,309,,1*68,1763338011812
NMEA,$GLGSV,3,1,09,86,33,139,47,77,14,292,32,76,49,333,42,75,37,060,48,1*7D,1763338011812
NMEA,$GLGSV,3,2,09,65,16,213,24,84,04,021,30,87,05,170,28,85,37,059,47,1*7A,1763338011812
NMEA,$GLGSV,3,3,09,67,16,326,26,1*44,1763338011812
NMEA,$GNGSA,A,3,01,02,07,13,14,15,17,19,22,30,,,1.0,0.7,0.7,1*3A,1763338011819
NMEA,$GNGSA,A,3,75,76,84,85,86,87,,,,,,,1.0,0.7,0.7,2*30,1763338011819
NMEA,$GNVTG,,T,,M,0.0,N,0.0,K,A*3D,1763338011819
NMEA,$GNDTM,P90,,0000.000025,S,00000.000001,E,0.981,W84*58,1763338011819
NMEA,$GNRMC,000651.00,A,3725.698567,N,12210.008585,W,0.0,,171125,15.0,E,A,V*5A,1763338011819
NMEA,$GNGNS,000651.00,3725.698567,N,12210.008585,W,AA,16,0.7,22.6,-27.9,,,V*25,1763338011819
NMEA,$GNGGA,000651.00,3725.698567,N,12210.008585,W,1,12,0.7,22.6,M,-27.9,M,,*71,1763338011819
NMEA,$PSMSG,tech=0x1,sensor=0x0,accu=3.216000,h_rel=4,speed=0.000000,time=1763338011000,SV_used=16,l5=0,e5=0*00,1763338011825
NMEA,$GPGSV,3,1,12,01,18,073,49,02,10,042,37,07,21,122,40,13,54,258,36,1*6D,1763338012813
NMEA,$GPGSV,3,2,12,14,63,029,44,15,30,289,47,17,72,158,41,19,51,191,44,1*65,1763338012813
NMEA,$GPGSV,3,3,12,22,68,345,43,30,49,119,49,06,00,000,,24,04,309,,1*68,1763338012813
NMEA,$GLGSV,3,1,09,86,33,139,48,77,14,292,34,76,49,333,45,75,37,060,50,1*7A,1763338012813
NMEA,$GLGSV,3,2,09,65,16,213,29,84,04,021,29,87,05,170,28,85,37,059,50,1*79,1763338012813
NMEA,$GLGSV,3,3,09,67,16,326,25,1*47,1763338012813
NMEA,$GNGSA,A,3,01,02,07,13,14,15,17,19,22,30,,,1.0,0.7,0.7,1*3A,1763338012822
NMEA,$GNGSA,A,3,65,75,76,84,85,86,87,,,,,,1.0,0.7,0.7,2*33,1763338012822
NMEA,$GNVTG,,T,,M,0.0,N,0.0,K,A*3D,1763338012822
NMEA,$GNDTM,P90,,0000.000025,S,00000.000001,E,0.981,W84*58,1763338012822
NMEA,$GNRMC,000652.00,A,3725.698566,N,12210.008587,W,0.0,,171125,15.0,E,A,V*5A,1763338012822
NMEA,$GNGNS,000652.00,3725.698566,N,12210.008587,W,AA,17,0.7,22.6,-27.9,,,V*24,1763338012822
NMEA,$GNGGA,000652.00,3725.698566,N,12210.008587,W,1,12,0.7,22.6,M,-27.9,M,,*71,1763338012822
NMEA,$PSMSG,tech=0x1,sensor=0x0,accu=3.216000,h_rel=4,speed=0.000000,time=1763338012000,SV_used=17,l5=0,e5=0*00,1763338012824
NMEA,$GPGSV,3,1,12,01,18,073,49,02,10,042,40,07,21,122,39,13,54,258,39,1*6C,1763338013812
NMEA,$GPGSV,3,2,12,14,63,029,44,15,30,289,48,17,72,158,44,19,51,191,45,1*6E,1763338013812
NMEA,$GPGSV,3,3,12,22,68,345,40,30,49,119,48,06,00,000,,24,04,309,,1*6A,1763338013812
NMEA,$GLGSV,3,1,09,86,33,139,48,77,14,292,33,76,49,333,43,75,37,060,50,1*7B,1763338013812
NMEA,$GLGSV,3,2,09,65,16,213,27,84,04,021,25,87,05,170,26,85,37,059,49,1*7D,1763338013812
NMEA,$GLGSV,3,3,09,67,16,326,25,1*47,1763338013812
NMEA,$GNGSA,A,3,01,02,07,13,14,15,17,19,22,30,,,1.0,0.7,0.7,1*3A,1763338013820
NMEA,$GNGSA,A,3,65,75,76,84,85,86,87,,,,,,1.0,0.7,0.7,2*33,1763338013820
NMEA,$GNVTG,,T,,M,0.0,N,0.0,K,A*3D,1763338013820
NMEA,$GNDTM,P90,,0000.000025,S,00000.000001,E,0.981,W84*58,1763338013820
NMEA,$GNRMC,000653.00,A,3725.698566,N,12210.008588,W,0.0,,171125,15.0,E,A,V*54,1763338013820
NMEA,$GNGNS,000653.00,3725.698566,N,12210.008588,W,AA,17,0.7,22.6,-27.9,,,V*2A,1763338013820
NMEA,$GNGGA,000653.00,3725.698566,N,12210.008588,W,1,12,0.7,22.6,M,-27.9,M,,*7F,1763338013820
NMEA,$PSMSG,tech=0x1,sensor=0x0,accu=3.216000,h_rel=4,speed=0.000000,time=1763338013000,SV_used=17,l5=0,e5=0*00,1763338013823
NMEA,$GPGSV,3,1,12,01,18,073,49,02,10,042,40,07,21,122,39,13,54,258,35,1*60,1763338014813
NMEA,$GPGSV,3,2,12,14,63,029,44,15,30,289,48,17,72,158,42,19,51,191,44,1*69,1763338014813
NMEA,$GPGSV,3,3,12,22,68,345,40,30,49,119,47,06,00,000,,24,04,309,,1*65,1763338014813
NMEA,$GLGSV,3,1,09,86,33,139,47,77,14,292,32,76,49,333,42,75,37,060,49,1*7C,1763338014813
NMEA,$GLGSV,3,2,09,65,16,213,26,84,04,021,25,87,05,170,27,85,37,059,48,1*7C,1763338014813
NMEA,$GLGSV,3,3,09,67,16,326,24,1*46,1763338014813
NMEA,$GNGSA,A,3,01,02,07,13,14,15,17,19,22,30,,,1.0,0.7,0.7,1*3A,1763338014820
NMEA,$GNGSA,A,3,65,75,76,84,85,86,87,,,,,,1.0,0.7,0.7,2*33,1763338014820
NMEA,$GNVTG,,T,,M,0.0,N,0.0,K,A*3D,1763338014820
NMEA,$GNDTM,P90,,0000.000025,S,00000.000001,E,0.981,W84*58,1763338014820
NMEA,$GNRMC,000654.00,A,3725.698566,N,12210.008589,W,0.0,,171125,15.0,E,A,V*52,1763338014820
NMEA,$GNGNS,000654.00,3725.698566,N,12210.008589,W,AA,17,0.7,22.6,-27.9,,,V*2C,1763338014820
NMEA,$GNGGA,000654.00,3725.698566,N,12210.008589,W,1,12,0.7,22.6,M,-27.9,M,,*79,1763338014820
NMEA,$PSMSG,tech=0x1,sensor=0x0,accu=3.216000,h_rel=4,speed=0.000000,time=1763338014000,SV_used=17,l5=0,e5=0*00,1763338014826
NMEA,$GPGSV,3,1,12,01,18,073,49,02,10,042,40,07,21,122,39,13,54,258,33,1*66,1763338015818
NMEA,$GPGSV,3,2,12,14,63,029,45,15,30,289,49,17,72,158,42,19,51,191,44,1*69,1763338015818
NMEA,$GPGSV,3,3,12,22,68,345,41,30,49,119,47,06,00,000,,24,04,309,,1*64,1763338015818
NMEA,$GLGSV,3,1,09,86,33,139,47,77,14,292,31,76,49,333,42,75,37,060,48,1*7E,1763338015818
NMEA,$GLGSV,3,2,09,65,16,213,28,84,04,021,26,87,05,170,29,85,37,059,48,1*7F,1763338015818
NMEA,$GLGSV,3,3,09,67,16,326,25,1*47,1763338015818
NMEA,$GNGSA,A,3,01,02,07,13,14,15,17,19,22,30,,,1.0,0.7,0.7,1*3A,1763338015825
NMEA,$GNGSA,A,3,65,75,76,84,85,86,87,,,,,,1.0,0.7,0.7,2*33,1763338015825
NMEA,$GNVTG,,T,,M,0.0,N,0.0,K,A*3D,1763338015825
NMEA,$GNDTM,P90,,0000.000025,S,00000.000001,E,0.981,W84*58,1763338015825
NMEA,$GNRMC,000655.00,A,3725.698565,N,12210.008589,W,0.0,,171125,15.0,E,A,V*50,1763338015825
NMEA,$GNGNS,000655.00,3725.698565,N,12210.008589,W,AA,17,0.7,22.6,-27.9,,,V*2E,1763338015825
NMEA,$GNGGA,000655.00,3725.698565,N,12210.008589,W,1,12,0.7,22.6,M,-27.9,M,,*7B,1763338015825
NMEA,$PSMSG,tech=0x1,sensor=0x0,accu=3.216000,h_rel=4,speed=0.000000,time=1763338015000,SV_used=17,l5=0,e5=0*00,1763338015831
NMEA,$GPGSV,3,1,12,01,18,073,49,02,10,042,40,07,21,122,41,14,63,029,44,1*6E,1763338016813
NMEA,$GPGSV,3,2,12,15,30,289,49,17,72,158,42,19,51,191,44,22,68,345,42,1*69,1763338016813
NMEA,$GPGSV,3,3,12,30,49,119,46,06,00,000,,13,54,258,,24,04,309,,1*60,1763338016813
NMEA,$GLGSV,3,1,09,86,33,139,47,77,14,292,32,76,49,333,41,75,37,060,48,1*7E,1763338016813
NMEA,$GLGSV,3,2,09,65,16,213,28,84,04,021,26,87,05,170,27,85,37,059,48,1*71,1763338016813
NMEA,$GLGSV,3,3,09,67,16,326,24,1*46,1763338016813
NMEA,$GNGSA,A,3,01,02,07,13,14,15,17,19,22,30,,,1.0,0.7,0.7,1*3A,1763338016819
NMEA,$GNGSA,A,3,65,75,76,84,85,86,87,,,,,,1.0,0.7,0.7,2*33,1763338016819
NMEA,$GNVTG,,T,,M,0.0,N,0.0,K,A*3D,1763338016819
NMEA,$GNDTM,P90,,0000.000025,S,00000.000001,E,0.981,W84*58,1763338016819
NMEA,$GNRMC,000656.00,A,3725.698565,N,12210.008590,W,0.0,,171125,15.0,E,A,V*5B,1763338016819
NMEA,$GNGNS,000656.00,3725.698565,N,12210.008590,W,AA,17,0.7,22.6,-27.9,,,V*25,1763338016819
NMEA,$GNGGA,000656.00,3725.698565,N,12210.008590,W,1,12,0.7,22.6,M,-27.9,M,,*70,1763338016819
NMEA,$PSMSG,tech=0x1,sensor=0x0,accu=3.216000,h_rel=4,speed=0.000000,time=1763338016000,SV_used=17,l5=0,e5=0*00,1763338016822
NMEA,$GPGSV,3,1,12,01,18,073,47,02,10,042,39,07,21,122,39,14,63,029,43,1*66,1763338017818
NMEA,$GPGSV,3,2,12,15,30,289,47,17,72,158,41,19,51,191,44,22,68,345,41,1*67,1763338017818
NMEA,$GPGSV,3,3,12,30,49,119,44,06,00,000,,13,54,258,,24,04,309,,1*62,1763338017818
NMEA,$GLGSV,3,1,09,86,33,139,46,77,14,292,31,76,49,333,40,75,37,060,47,1*72,1763338017818
NMEA,$GLGSV,3,2,09,65,16,213,26,84,04,021,25,87,05,170,27,85,37,059,47,1*73,1763338017818
NMEA,$GLGSV,3,3,09,67,16,326,26,1*44,1763338017818
NMEA,$GNGSA,A,3,01,02,07,13,14,15,17,19,22,30,,,1.0,0.7,0.7,1*3A,1763338017825
NMEA,$GNGSA,A,3,65,75,76,84,85,86,87,,,,,,1.0,0.7,0.7,2*33,1763338017825
NMEA,$GNVTG,,T,,M,0.0,N,0.0,K,A*3D,1763338017825
NMEA,$GNDTM,P90,,0000.000025,S,00000.000001,E,0.981,W84*58,1763338017825
NMEA,$GNRMC,000657.00,A,3725.698565,N,12210.008592,W,0.0,,171125,15.0,E,A,V*58,1763338017825
NMEA,$GNGNS,000657.00,3725.698565,N,12210.008592,W,AA,17,0.7,22.6,-27.9,,,V*26,1763338017825
NMEA,$GNGGA,000657.00,3725.698565,N,12210.008592,W,1,12,0.7,22.6,M,-27.9,M,,*73,1763338017825
NMEA,$PSMSG,tech=0x1,sensor=0x0,accu=3.216000,h_rel=4,speed=0.000000,time=1763338017000,SV_used=17,l5=0,e5=0*00,1763338017828
NMEA,$GPGSV,3,1,12,01,18,073,47,02,10,042,39,07,21,122,39,14,63,029,43,1*66,1763338018813
NMEA,$GPGSV,3,2,12,15,30,289,47,17,72,158,41,19,51,191,43,22,68,345,41,1*60,1763338018813
NMEA,$GPGSV,3,3,12,30,49,119,44,06,00,000,,13,54,258,,24,04,309,,1*62,1763338018813
NMEA,$GLGSV,3,1,09,86,33,139,46,77,14,292,31,76,49,333,41,75,37,060,46,1*72,1763338018813
NMEA,$GLGSV,3,2,09,65,16,213,28,84,04,021,25,87,05,170,23,85,37,059,46,1*78,1763338018813
NMEA,$GLGSV,3,3,09,67,16,326,26,1*44,1763338018813
NMEA,$GNGSA,A,3,01,02,07,13,14,15,17,19,22,30,,,1.1,0.7,0.7,1*3B,1763338018825
NMEA,$GNGSA,A,3,75,76,85,86,87,,,,,,,,1.1,0.7,0.7,2*3D,1763338018825
NMEA,$GNVTG,,T,,M,0.0,N,0.0,K,A*3D,1763338018825
NMEA,$GNDTM,P90,,0000.000025,S,00000.000001,E,0.981,W84*58,1763338018825
NMEA,$GNRMC,000658.00,A,3725.698565,N,12210.008593,W,0.0,,171125,15.0,E,A,V*56,1763338018825
NMEA,$GNGNS,000658.00,3725.698565,N,12210.008593,W,AA,15,0.7,22.6,-27.9,,,V*2A,1763338018825
NMEA,$GNGGA,000658.00,3725.698565,N,12210.008593,W,1,12,0.7,22.6,M,-27.9,M,,*7D,1763338018825
NMEA,$PSMSG,tech=0x1,sensor=0x0,accu=3.216000,h_rel=4,speed=0.000000,time=1763338018000,SV_used=15,l5=0,e5=0*00,1763338018828
NMEA,$GPGSV,3,1,12,01,18,073,49,02,10,042,42,07,21,122,42,14,63,029,46,1*6D,1763338019815
NMEA,$GPGSV,3,2,12,15,30,289,50,17,72,158,42,19,51,191,46,22,68,345,43,1*62,1763338019815
NMEA,$GPGSV,3,3,12,30,49,119,45,06,00,000,,13,54,258,,24,04,309,,1*63,1763338019815
NMEA,$GLGSV,3,1,09,86,33,139,48,77,14,292,32,76,49,333,44,75,37,060,49,1*75,1763338019815
NMEA,$GLGSV,3,2,09,65,16,213,30,84,04,021,23,87,05,170,28,85,37,059,49,1*73,1763338019815
NMEA,$GLGSV,3,3,09,67,16,326,25,1*47,1763338019815
NMEA,$GNGSA,A,3,01,02,07,13,14,15,17,19,22,30,,,1.0,0.7,0.7,1*3A,1763338019825
NMEA,$GNGSA,A,3,65,75,76,85,86,87,,,,,,,1.0,0.7,0.7,2*3F,1763338019825
NMEA,$GNVTG,,T,,M,0.0,N,0.0,K,A*3D,1763338019825
NMEA,$GNDTM,P90,,0000.000025,S,00000.000001,E,0.981,W84*58,1763338019825
NMEA,$GNRMC,000659.00,A,3725.698563,N,12210.008595,W,0.0,,171125,15.0,E,A,V*57,1763338019825
NMEA,$GNGNS,000659.00,3725.698563,N,12210.008595,W,AA,16,0.7,22.6,-27.9,,,V*28,1763338019825
NMEA,$GNGGA,000659.00,3725.698563,N,12210.008595,W,1,12,0.7,22.6,M,-27.9,M,,*7C,1763338019825
NMEA,$PSMSG,tech=0x1,sensor=0x0,accu=3.216000,h_rel=4,speed=0.000000,time=1763338019000,SV_used=16,l5=0,e5=0*00,1763338019828
NMEA,$GPGSV,3,1,12,01,18,073,49,02,10,042,42,07,21,122,42,14,63,029,47,1*6C,1763338020812
NMEA,$GPGSV,3,2,12,15,30,289,49,17,72,158,43,19,51,191,46,22,68,345,44,1*6C,1763338020812
NMEA,$GPGSV,3,3,12,30,49,119,44,06,00,000,,13,54,258,,24,04,309,,1*62,1763338020812
NMEA,$GLGSV,3,1,09,86,33,139,48,77,14,292,32,76,49,333,44,75,37,060,49,1*75,1763338020812
NMEA,$GLGSV,3,2,09,65,16,213,29,84,04,021,29,87,05,170,28,85,37,059,49,1*71,1763338020812
NMEA,$GLGSV,3,3,09,67,16,326,25,1*47,1763338020812
NMEA,$GNGSA,A,3,01,02,07,13,14,15,17,19,22,30,,,1.0,0.7,0.7,1*3A,1763338020821
NMEA,$GNGSA,A,3,65,75,76,84,85,86,87,,,,,,1.0,0.7,0.7,2*33,1763338020821
NMEA,$GNVTG,,T,,M,0.0,N,0.0,K,A*3D,1763338020821
NMEA,$GNDTM,P90,,0000.000025,S,00000.000001,E,0.981,W84*58,1763338020821
NMEA,$GNRMC,000700.00,A,3725.698562,N,12210.008595,W,0.0,,171125,15.0,E,A,V*5B,1763338020821
NMEA,$GNGNS,000700.00,3725.698562,N,12210.008595,W,AA,17,0.7,22.6,-27.9,,,V*25,1763338020821
NMEA,$GNGGA,000700.00,3725.698562,N,12210.008595,W,1,12,0.7,22.6,M,-27.9,M,,*70,1763338020821
NMEA,$PSMSG,tech=0x1,sensor=0x0,accu=3.216000,h_rel=4,speed=0.000000,time=1763338020000,SV_used=17,l5=0,e5=0*00,1763338020823
NMEA,$GPGSV,3,1,12,01,18,073,49,02,10,042,42,07,21,122,41,14,63,029,48,1*60,1763338021812
NMEA,$GPGSV,3,2,12,15,30,289,49,17,72,158,44,19,51,191,46,22,68,345,42,1*6D,1763338021812
NMEA,$GPGSV,3,3,12,30,49,119,47,06,00,000,,13,54,258,,24,04,309,,1*61,1763338021812
NMEA,$GLGSV,3,1,09,86,33,139,49,77,14,292,34,76,49,333,46,75,37,060,51,1*79,1763338021812
NMEA,$GLGSV,3,2,09,65,16,213,28,84,04,021,29,87,05,170,28,85,37,059,50,1*78,1763338021812
NMEA,$GLGSV,3,3,09,67,16,326,23,1*41,1763338021812
NMEA,$GNGSA,A,3,01,02,07,14,15,17,19,22,30,,,,1.0,0.7,0.7,1*38,1763338021819
NMEA,$GNGSA,A,3,65,75,76,84,85,86,,,,,,,1.0,0.7,0.7,2*3C,1763338021819
NMEA,$GNVTG,,T,,M,0.0,N,0.0,K,A*3D,1763338021819
NMEA,$GNDTM,P90,,0000.000025,S,00000.000001,E,0.981,W84*58,1763338021819
NMEA,$GNRMC,000701.00,A,3725.698559,N,12210.008594,W,0.0,,171125,15.0,E,A,V*53,1763338021819
NMEA,$GNGNS,000701.00,3725.698559,N,12210.008594,W,AA,15,0.7,22.6,-27.9,,,V*2F,1763338021819
NMEA,$GNGGA,000701.00,3725.698559,N,12210.008594,W,1,12,0.7,22.6,M,-27.9,M,,*78,1763338021819
NMEA,$PSMSG,tech=0x1,sensor=0x0,accu=3.216000,h_rel=4,speed=0.000000,time=1763338021000,SV_used=15,l5=0,e5=0*00,1763338021822
NMEA,$GPGSV,3,1,12,01,18,073,47,02,10,042,40,07,21,122,40,14,63,029,47,1*62,1763338022815
NMEA,$GPGSV,3,2,12,15,30,289,50,17,72,158,43,19,51,191,45,22,68,345,39,1*6D,1763338022815
NMEA,$GPGSV,3,3,12,30,49,119,47,06,00,000,,13,54,258,,24,04,309,,1*61,1763338022815
NMEA,$GLGSV,3,1,09,86,33,139,47,77,14,292,33,76,49,333,43,75,37,060,46,1*73,1763338022815
NMEA,$GLGSV,3,2,09,65,16,213,28,84,04,021,29,87,05,170,27,85,37,059,45,1*73,1763338022815
NMEA,$GLGSV,3,3,09,67,16,326,23,1*41,1763338022815
NMEA,$GNGSA,A,3,01,02,07,14,15,17,19,22,30,,,,1.0,0.7,0.7,1*38,1763338022822
NMEA,$GNGSA,A,3,65,75,76,84,85,86,,,,,,,1.0,0.7,0.7,2*3C,1763338022822
NMEA,$GNVTG,,T,,M,0.0,N,0.0,K,A*3D,1763338022822
NMEA,$GNDTM,P90,,0000.000025,S,00000.000001,E,0.981,W84*58,1763338022822
NMEA,$GNRMC,000702.00,A,3725.698556,N,12210.008593,W,0.0,,171125,15.0,E,A,V*58,1763338022822
NMEA,$GNGNS,000702.00,3725.698556,N,12210.008593,W,AA,15,0.7,22.6,-27.9,,,V*24,1763338022822
NMEA,$GNGGA,000702.00,3725.698556,N,12210.008593,W,1,12,0.7,22.6,M,-27.9,M,,*73,1763338022822
NMEA,$PSMSG,tech=0x1,sensor=0x0,accu=3.216000,h_rel=4,speed=0.000000,time=1763338022000,SV_used=15,l5=0,e5=0*00,1763338022827
NMEA,$GPGSV,3,1,12,01,18,073,48,02,10,042,41,07,21,122,40,14,63,029,46,1*6D,1763338023817
NMEA,$GPGSV,3,2,12,15,30,289,50,17,72,158,43,19,51,191,44,22,68,345,38,1*6D,1763338023817
NMEA,$GPGSV,3,3,12,30,49,119,46,06,00,000,,13,54,258,,24,04,309,,1*60,1763338023817
NMEA,$GLGSV,3,1,09,86,33,139,47,77,14,292,33,76,49,333,44,75,37,060,46,1*74,1763338023817
NMEA,$GLGSV,3,2,09,65,16,213,23,84,04,021,23,87,05,170,27,85,37,059,45,1*72,1763338023817
NMEA,$GLGSV,3,3,09,67,16,326,23,1*41,1763338023817
NMEA,$GNGSA,A,3,01,02,07,14,15,17,19,22,30,,,,1.0,0.7,0.7,1*38,1763338023828
NMEA,$GNGSA,A,3,65,75,76,84,85,86,,,,,,,1.0,0.7,0.7,2*3C,1763338023828
NMEA,$GNVTG,,T,,M,0.0,N,0.0,K,A*3D,1763338023828
NMEA,$GNDTM,P90,,0000.000025,S,00000.000001,E,0.981,W84*58,1763338023828
NMEA,$GNRMC,000703.00,A,3725.698554,N,12210.008592,W,0.0,,171125,15.0,E,A,V*5A,1763338023828
NMEA,$GNGNS,000703.00,3725.698554,N,12210.008592,W,AA,15,0.7,22.6,-27.9,,,V*26,1763338023828
NMEA,$GNGGA,000703.00,3725.698554,N,12210.008592,W,1,12,0.7,22.6,M,-27.9,M,,*71,1763338023828
NMEA,$PSMSG,tech=0x1,sensor=0x0,accu=3.216000,h_rel=4,speed=0.000000,time=1763338023000,SV_used=15,l5=0,e5=0*00,1763338023830
NMEA,$GPGSV,3,1,12,01,18,073,48,02,10,042,41,07,21,122,40,14,63,029,46,1*6D,1763338024812
NMEA,$GPGSV,3,2,12,15,30,289,50,17,72,158,43,19,51,191,44,22,68,345,39,1*6C,1763338024812
NMEA,$GPGSV,3,3,12,30,49,119,45,06,00,000,,13,54,258,,24,04,309,,1*63,1763338024812
NMEA,$GLGSV,3,1,09,86,33,139,47,77,14,292,33,76,49,333,44,75,37,060,46,1*74,1763338024812
NMEA,$GLGSV,3,2,09,65,16,213,26,84,04,021,26,87,05,170,28,85,37,059,45,1*7D,1763338024812
NMEA,$GLGSV,3,3,09,67,16,326,23,1*41,1763338024812
NMEA,$GNGSA,A,3,01,02,07,14,15,17,19,22,30,,,,1.0,0.7,0.7,1*38,1763338024820
NMEA,$GNGSA,A,3,65,75,76,84,85,86,,,,,,,1.0,0.7,0.7,2*3C,1763338024820
NMEA,$GNVTG,,T,,M,0.0,N,0.0,K,A*3D,1763338024820
NMEA,$GNDTM,P90,,0000.000025,S,00000.000001,E,0.981,W84*58,1763338024820
NMEA,$GNRMC,000704.00,A,3725.698551,N,12210.008590,W,0.0,,171125,15.0,E,A,V*5A,1763338024820
NMEA,$GNGNS,000704.00,3725.698551,N,12210.008590,W,AA,15,0.7,22.6,-27.9,,,V*26,1763338024820
NMEA,$GNGGA,000704.00,3725.698551,N,12210.008590,W,1,12,0.7,22.6,M,-27.9,M,,*71,1763338024820
NMEA,$PSMSG,tech=0x1,sensor=0x0,accu=3.216000,h_rel=4,speed=0.000000,time=1763338024000,SV_used=15,l5=0,e5=0*00,1763338024823
NMEA,$GPGSV,3,1,12,01,18,073,49,02,10,042,42,07,21,122,42,14,63,029,48,1*63,1763338025862
NMEA,$GPGSV,3,2,12,15,30,289,51,17,72,158,44,19,51,191,47,22,68,345,43,1*64,1763338025862
NMEA,$GPGSV,3,3,12,30,49,119,44,06,00,000,,13,54,258,,24,04,309,,1*62,1763338025862
NMEA,$GLGSV,3,1,09,86,33,139,49,77,14,292,34,76,49,333,48,75,37,060,48,1*7F,1763338025862
NMEA,$GLGSV,3,2,09,65,16,213,27,84,04,021,25,87,05,170,25,85,37,059,45,1*72,1763338025862
NMEA,$GLGSV,3,3,09,67,16,326,23,1*41,1763338025862
NMEA,$GNGSA,A,3,01,02,07,14,15,17,19,22,30,,,,1.0,0.7,0.7,1*38,1763338025868
NMEA,$GNGSA,A,3,65,75,76,84,85,86,,,,,,,1.0,0.7,0.7,2*3C,1763338025868
NMEA,$GNVTG,,T,,M,0.0,N,0.0,K,A*3D,1763338025868
NMEA,$GNDTM,P90,,0000.000025,S,00000.000001,E,0.981,W84*58,1763338025868
NMEA,$GNRMC,000705.00,A,3725.698555,N,12210.008582,W,0.0,,171125,15.0,E,A,V*5C,1763338025868
NMEA,$GNGNS,000705.00,3725.698555,N,12210.008582,W,AA,15,0.7,22.6,-27.9,,,V*20,1763338025868
NMEA,$GNGGA,000705.00,3725.698555,N,12210.008582,W,1,12,0.7,22.6,M,-27.9,M,,*77,1763338025868
NMEA,$PSMSG,tech=0x1,sensor=0x0,accu=3.216000,h_rel=4,speed=0.000000,time=1763338025000,SV_used=15,l5=0,e5=0*00,1763338025870
NMEA,$GPGSV,3,1,12,01,18,073,49,02,10,042,37,07,21,122,43,14,63,029,47,1*6F,1763338026817
NMEA,$GPGSV,3,2,12,15,30,289,49,17,72,158,42,19,51,191,47,22,68,345,46,1*6E,1763338026817
NMEA,$GPGSV,3,3,12,30,49,119,42,06,00,000,,13,54,258,,24,04,309,,1*64,1763338026817
NMEA,$GLGSV,3,1,09,86,33,139,48,77,14,292,28,76,49,333,46,75,37,060,49,1*7C,1763338026817
NMEA,$GLGSV,3,2,09,65,16,213,28,84,04,021,31,87,05,170,25,85,37,059,46,1*7B,1763338026817
NMEA,$GLGSV,3,3,09,67,16,326,32,1*41,1763338026817
NMEA,$GNGSA,A,3,01,02,07,14,15,17,19,22,30,,,,1.0,0.7,0.7,1*38,1763338026824
NMEA,$GNGSA,A,3,65,67,75,76,84,85,86,,,,,,1.0,0.7,0.7,2*3D,1763338026824
NMEA,$GNVTG,,T,,M,0.0,N,0.0,K,A*3D,1763338026824
NMEA,$GNDTM,P90,,0000.000025,S,00000.000001,E,0.981,W84*58,1763338026824
NMEA,$GNRMC,000706.00,A,3725.698557,N,12210.008577,W,0.0,,171125,15.0,E,A,V*57,1763338026824
NMEA,$GNGNS,000706.00,3725.698557,N,12210.008577,W,AA,16,0.7,22.6,-27.9,,,V*28,1763338026824
NMEA,$GNGGA,000706.00,3725.698557,N,12210.008577,W,1,12,0.7,22.6,M,-27.9,M,,*7C,1763338026824
NMEA,$PSMSG,tech=0x1,sensor=0x0,accu=3.216000,h_rel=4,speed=0.000000,time=1763338026000,SV_used=16,l5=0,e5=0*00,1763338026826
NMEA,$GPGSV,3,1,12,01,18,073,49,02,10,042,39,07,21,122,44,14,63,029,47,1*66,1763338027822
NMEA,$GPGSV,3,2,12,15,30,289,50,17,72,158,42,19,51,191,48,22,68,345,46,1*69,1763338027822
NMEA,$GPGSV,3,3,12,30,49,119,44,06,00,000,,13,54,258,,24,04,309,,1*62,1763338027822
NMEA,$GLGSV,3,1,09,86,33,139,49,77,14,292,30,76,49,333,46,75,37,060,50,1*7C,1763338027822
NMEA,$GLGSV,3,2,09,65,16,213,29,84,04,021,31,87,05,170,25,85,37,059,46,1*7A,1763338027822
NMEA,$GLGSV,3,3,09,67,16,326,31,1*42,1763338027822
NMEA,$GNGSA,A,3,01,02,07,14,15,17,19,22,30,,,,1.0,0.7,0.7,1*38,1763338027831
NMEA,$GNGSA,A,3,65,67,75,76,84,85,86,,,,,,1.0,0.7,0.7,2*3D,1763338027831
NMEA,$GNVTG,,T,,M,0.0,N,0.0,K,A*3D,1763338027831
NMEA,$GNDTM,P90,,0000.000025,S,00000.000001,E,0.981,W84*58,1763338027831
NMEA,$GNRMC,000707.00,A,3725.698557,N,12210.008574,W,0.0,,171125,15.0,E,A,V*55,1763338027831
NMEA,$GNGNS,000707.00,3725.698557,N,12210.008574,W,AA,16,0.7,22.6,-27.9,,,V*2A,1763338027831
NMEA,$GNGGA,000707.00,3725.698557,N,12210.008574,W,1,12,0.7,22.6,M,-27.9,M,,*7E,1763338027831
NMEA,$PSMSG,tech=0x1,sensor=0x0,accu=3.216000,h_rel=4,speed=0.000000,time=1763338027000,SV_used=16,l5=0,e5=0*00,1763338027833
NMEA,$GPGSV,3,1,12,01,18,073,49,02,10,042,39,07,21,122,44,14,63,029,47,1*66,1763338028822
NMEA,$GPGSV,3,2,12,15,30,289,50,17,72,158,43,19,51,191,48,22,68,345,46,1*68,1763338028822
NMEA,$GPGSV,3,3,12,30,49,119,44,06,00,000,,13,54,258,,24,04,309,,1*62,1763338028822
NMEA,$GLGSV,3,1,09,86,33,139,49,77,14,292,30,76,49,333,46,75,37,060,49,1*74,1763338028822
NMEA,$GLGSV,3,2,09,65,16,213,30,84,04,021,32,87,05,170,25,85,37,059,46,1*71,1763338028822
NMEA,$GLGSV,3,3,09,67,16,326,31,1*42,1763338028822
NMEA,$GNGSA,A,3,01,02,07,14,15,17,19,22,30,,,,1.0,0.7,0.7,1*38,1763338028833
NMEA,$GNGSA,A,3,65,67,75,76,84,85,86,,,,,,1.0,0.7,0.7,2*3D,1763338028833
NMEA,$GNVTG,,T,,M,0.0,N,0.0,K,A*3D,1763338028833
NMEA,$GNDTM,P90,,0000.000025,S,00000.000001,E,0.981,W84*58,1763338028833
NMEA,$GNRMC,000708.00,A,3725.698557,N,12210.008571,W,0.0,,171125,15.0,E,A,V*5F,1763338028833
NMEA,$GNGNS,000708.00,3725.698557,N,12210.008571,W,AA,16,0.7,22.6,-27.9,,,V*20,1763338028833
NMEA,$GNGGA,000708.00,3725.698557,N,12210.008571,W,1,12,0.7,22.6,M,-27.9,M,,*74,1763338028833
NMEA,$PSMSG,tech=0x1,sensor=0x0,accu=3.216000,h_rel=4,speed=0.000000,time=1763338028000,SV_used=16,l5=0,e5=0*00,1763338028837
NMEA,$GPGSV,3,1,12,01,18,073,49,02,10,042,38,07,21,122,43,14,63,029,47,1*60,1763338029812
NMEA,$GPGSV,3,2,12,15,30,289,46,17,72,158,41,19,51,191,47,22,68,345,44,1*60,1763338029812
NMEA,$GPGSV,3,3,12,30,49,119,50,06,00,000,,13,54,258,,24,04,309,,1*67,1763338029812
NMEA,$GLGSV,3,1,09,86,33,139,48,77,14,292,31,76,49,333,44,75,37,060,50,1*7E,1763338029812
NMEA,$GLGSV,3,2,09,65,16,213,32,84,04,021,31,87,05,170,21,85,37,059,49,1*7B,1763338029812
NMEA,$GLGSV,3,3,09,67,16,326,34,1*47,1763338029812
NMEA,$GNGSA,A,3,01,02,07,14,15,17,19,22,30,,,,1.0,0.7,0.7,1*38,1763338029822
NMEA,$GNGSA,A,3,65,67,75,76,84,85,86,,,,,,1.0,0.7,0.7,2*3D,1763338029822
NMEA,$GNVTG,,T,,M,0.0,N,0.0,K,A*3D,1763338029822
NMEA,$GNDTM,P90,,0000.000025,S,00000.000001,E,0.981,W84*58,1763338029822
NMEA,$GNRMC,000709.00,A,3725.698557,N,12210.008569,W,0.0,,171125,15.0,E,A,V*57,1763338029822
NMEA,$GNGNS,000709.00,3725.698557,N,12210.008569,W,AA,16,0.7,22.6,-27.9,,,V*28,1763338029822
NMEA,$GNGGA,000709.00,3725.698557,N,12210.008569,W,1,12,0.7,22.6,M,-27.9,M,,*7C,1763338029822
NMEA,$PSMSG,tech=0x1,sensor=0x0,accu=3.216000,h_rel=4,speed=0.000000,time=1763338029000,SV_used=16,l5=0,e5=0*00,1763338029823
NMEA,$GPGSV,3,1,12,01,18,073,49,02,10,042,39,07,21,122,43,14,63,029,47,1*61,1763338030809
NMEA,$GPGSV,3,2,12,15,30,289,36,17,72,158,34,19,51,191,44,22,68,345,34,1*61,1763338030809
NMEA,$GPGSV,3,3,12,30,49,119,51,06,00,000,,13,54,258,,24,04,309,,1*66,1763338030809
NMEA,$GLGSV,3,1,09,86,33,139,45,77,14,292,29,76,49,333,36,75,37,060,48,1*76,1763338030809
NMEA,$GLGSV,3,2,09,65,16,213,30,84,04,021,31,87,05,170,27,85,37,059,48,1*7E,1763338030809
NMEA,$GLGSV,3,3,09,67,16,326,35,1*46,1763338030809
NMEA,$GNGSA,A,3,01,02,07,14,15,17,19,22,30,,,,1.0,0.7,0.7,1*38,1763338030816
NMEA,$GNGSA,A,3,65,67,75,76,84,85,86,,,,,,1.0,0.7,0.7,2*3D,1763338030816
NMEA,$GNVTG,,T,,M,0.0,N,0.0,K,A*3D,1763338030816
NMEA,$GNDTM,P90,,0000.000025,S,00000.000001,E,0.981,W84*58,1763338030816
NMEA,$GNRMC,000710.00,A,3725.698558,N,12210.008568,W,0.0,,171125,15.0,E,A,V*51,1763338030816
NMEA,$GNGNS,000710.00,3725.698558,N,12210.008568,W,AA,16,0.7,22.6,-27.9,,,V*2E,1763338030816
NMEA,$GNGGA,000710.00,3725.698558,N,12210.008568,W,1,12,0.7,22.6,M,-27.9,M,,*7A,1763338030816
NMEA,$PSMSG,tech=0x1,sensor=0x0,accu=3.216000,h_rel=4,speed=0.000000,time=1763338030000,SV_used=16,l5=0,e5=0*00,1763338030818
NMEA,$GPGSV,3,1,12,01,18,073,48,02,10,042,39,07,21,122,43,14,63,029,46,1*61,1763338031814
NMEA,$GPGSV,3,2,12,15,30,289,27,17,72,158,37,19,51,191,44,22,68,345,34,1*62,1763338031814
NMEA,$GPGSV,3,3,12,30,49,119,50,06,00,000,,13,54,258,,24,04,309,,1*67,1763338031814
NMEA,$GLGSV,3,1,09,86,33,139,46,77,14,292,29,76,49,333,38,75,37,060,48,1*7B,1763338031814
NMEA,$GLGSV,3,2,09,65,16,213,29,84,04,021,31,87,05,170,26,85,37,059,48,1*77,1763338031814
NMEA,$GLGSV,3,3,09,67,16,326,35,1*46,1763338031814
NMEA,$GNGSA,A,3,01,02,07,14,15,17,19,22,30,,,,1.0,0.7,0.7,1*38,1763338031865
NMEA,$GNGSA,A,3,65,67,75,76,84,85,86,,,,,,1.0,0.7,0.7,2*3D,1763338031865
NMEA,$GNVTG,,T,,M,0.0,N,0.0,K,A*3D,1763338031865
NMEA,$GNDTM,P90,,0000.000025,S,00000.000001,E,0.981,W84*58,1763338031865
NMEA,$GNRMC,000711.00,A,3725.698559,N,12210.008566,W,0.0,,171125,15.0,E,A,V*5F,1763338031865
NMEA,$GNGNS,000711.00,3725.698559,N,12210.008566,W,AA,16,0.7,22.6,-27.9,,,V*20,1763338031865
NMEA,$GNGGA,000711.00,3725.698559,N,12210.008566,W,1,12,0.7,22.6,M,-27.9,M,,*74,1763338031865
NMEA,$PSMSG,tech=0x1,sensor=0x0,accu=3.216000,h_rel=4,speed=0.000000,time=1763338031000,SV_used=16,l5=0,e5=0*00,1763338031868
NMEA,$GPGSV,3,1,12,01,18,073,49,02,10,042,39,07,21,122,43,14,63,029,46,1*60,1763338032819
