     4.01           OBSERVATION DATA    M                   RINEX VERSION / TYPE
GnssLogger          samsung 10          20251117 031234 UTC PGM / RUN BY / DATE
Google GnssLogger                                           MARKER NAME
Unknown                                                     MARKER NUMBER
Unknown             Unknown                                 OBSERVER / AGENCY
Unknown             GnssLogger          v3.1.1.1            REC # / TYPE / VERS
Unknown             Unknown                                 ANT # / TYPE
        0.0000        0.0000        0.0000                  ANTENNA: DELTA H/E/N
G    3 C1C D1C S1C                                          SYS / # / OBS TYPES
R    3 C1C D1C S1C                                          SYS / # / OBS TYPES
  2025    11    17    03    12   34.0000000     GLONASS     TIME OF FIRST OBS
 6 R12 -1 R13 -2 R14 -7 R22 -3 R23  3 R24  2                GLONASS SLOT / FRQ #
samsung SM-G9600 (Android 10) HW Year: 2017 HW Model:       COMMENT

                                                            END OF HEADER
> 2025 11 17 03 12 34.4344938  0 12                      
R14  21256433.875 6      3289.161 6        37.400 6
R22  22804517.459 7     -3979.700 7        43.900 7
R13  19347271.860 5      -390.600 5        34.600 5
R23  19783218.361 6     -2032.248 6        39.800 6
G06  21035445.462 6      -700.936 6        40.900 6
G11  21312616.480 5      2174.100 5        32.900 5
G12  21539243.390 7      2226.556 7        45.700 7
G17  24024726.126 6     -2732.400 6        35.600 6
G19  21677107.149 7     -2251.360 7        42.200 7
G22  23741035.821 4     -2343.100 4        26.900 4
G24  21221848.618 7     -1486.564 7        42.700 7
G25  23851720.695 5      3241.100 5        35.400 5
> 2025 11 17 03 12 35.4344938  0 14                      
R14  21255811.506 6      3287.382 6        37.000 6
R22  22805256.747 7     -3983.286 7        43.300 7
R13  19347357.001 5      -393.167 5        33.100 5
R12  21865464.652 4     -3133.600 4        24.400 4
R24  20411285.959 4      2700.600 4        28.100 4
R23  19783599.697 6     -2037.043 6        40.200 6
G06  21035590.561 6      -705.760 6        41.100 6
G11  21312182.981 5      2174.536 5        30.300 5
G12  21538823.081 7      2222.057 7        45.100 7
G17  24025243.868 5     -2733.029 5        35.200 5
G19  21677535.252 7     -2255.652 7        41.600 7
G22  23741491.505 4     -2348.350 4        25.900 4
G24  21222132.521 7     -1491.280 7        41.900 7
G25  23851101.924 5      3241.779 5        34.800 5
> 2025 11 17 03 12 36.4344938  0 15                      
R14  21255212.820 6      3293.617 6        39.800 6
R22  22806009.526 5     -3979.032 5        35.200 5
R13  19347399.872 4      -386.050 4        27.700 4
R12  21866093.916 4     -3129.000 4        24.500 4
R24  20410703.162 4      2707.500 4        23.500 4
R23  19783976.536 6     -2031.802 6        38.100 6
G06  21035738.059 6      -701.129 6        40.900 6
G11  21311791.751 4      2179.700 4        27.000 4
G12  21538403.671 6      2227.416 6        39.400 6
G17  24025771.802 5     -2727.265 5        31.600 5
G19  21677967.853 7     -2250.217 7        41.900 7
G20  24674858.749 3      3043.900 3        21.800 3
G22  23741883.334 4     -2350.800 4        27.100 4
G24  21222413.427 6     -1485.850 6        39.100 6
G25  23850473.858 4      3250.550 4        29.300 4
> 2025 11 17 03 12 37.4344938  0 15                      
R14  21254597.346 6      3281.644 6        41.100 6
R22  22806749.114 5     -3988.595 5        35.100 5
R13  19347488.610 5      -397.571 5        30.000 5
R12  21866676.113 4     -3130.900 4        24.300 4
R24  20410188.718 4      2697.900 4        24.200 4
R23  19784354.874 6     -2043.873 6        38.900 6
G06  21035881.360 6      -712.877 6        38.100 6
G11  21311403.820 4      2170.050 4        26.300 4
G12  21537977.067 6      2216.393 6        40.600 6
G17  24026293.741 5     -2737.450 5        29.600 5
G19  21678396.256 7     -2261.880 7        43.600 7
G20  24674289.443 3      3039.050 3        22.100 3
G22  23742355.507 4     -2361.150 4        27.500 4
G24  21222696.731 7     -1497.917 7        42.700 7
G25  23849837.099 4      3233.450 4        28.200 4
> 2025 11 17 03 12 38.4344938  0 14                      
R14  21253980.074 6      3267.724 6        40.300 6
R22  22807486.004 5     -4002.813 5        35.400 5
R13  19347559.361 5      -412.758 5        30.600 5
R12  21867252.314 4     -3132.250 4        23.500 4
R24  20409736.032 5      2678.686 5        33.000 5
R23  19784758.095 6     -2058.162 6        38.100 6
G06  21036016.267 6      -726.842 6        39.400 6
G11  21310958.928 4      2153.450 4        28.200 4
G12  21537557.057 7      2202.525 7        41.900 7
G19  21678823.161 6     -2275.839 6        38.000 6
G20  24673706.346 3      3038.100 3        21.200 3
G22  23742823.783 4     -2371.500 4        28.100 4
G24  21222993.225 6     -1512.309 6        40.000 6
G25  23849238.114 5      3222.643 5        30.300 5
> 2025 11 17 03 12 39.4344938  0 14                      
R14  21253364.000 7      3260.965 7        43.000 7
R22  22808246.277 6     -4009.033 6        36.400 6
R13  19347628.613 5      -419.435 5        30.100 5
R12  21867823.419 3     -3132.300 3        22.800 3
R24  20409220.988 5      2671.675 5        32.500 5
R23  19785134.634 6     -2064.959 6        36.300 6
G06  21036153.872 6      -733.807 6        38.900 6
G11  21310575.793 4      2146.800 4        27.000 4
G12  21537126.855 6      2195.955 6        38.500 6
G19  21679259.659 6     -2281.986 6        38.800 6
G20  24673125.648 3      3036.700 3        20.600 3
G22  23743255.784 5     -2378.000 5        29.500 5
G24  21223277.728 7     -1519.065 7        41.700 7
G25  23848649.321 5      3216.122 5        34.300 5
> 2025 11 17 03 12 40.4344938  0 14                      
R14  21252755.122 7      3260.153 7        43.400 7
R22  22809006.551 5     -4010.034 5        35.000 5
R13  19347733.541 5      -421.218 5        30.400 5
R12  21868405.316 3     -3134.150 3        22.500 3
R24  20408705.345 5      2670.611 5        31.200 5
R23  19785516.869 6     -2066.607 6        37.900 6
G06  21036292.675 6      -735.147 6        40.000 6
G11  21310147.989 3      2152.500 3        23.000 3
G12  21536709.244 6      2195.350 6        40.400 6
G19  21679690.161 6     -2282.494 6        39.500 6
G20  24672562.039 3      3031.350 3        20.100 3
G22  23743765.431 3     -2381.450 3        21.800 3
G24  21223574.223 7     -1520.218 7        43.300 7
G25  23848025.453 5      3215.683 5        32.200 5
> 2025 11 17 03 12 41.4344938  0 14                      
R14  21252143.845 7      3257.517 7        43.300 7
R22  22809761.129 6     -4012.721 6        38.300 6
R13  19347808.489 5      -423.977 5        30.200 5
R12  21869067.258 3     -3139.850 3        22.400 3
R24  20408212.786 5      2668.359 5        33.200 5
R23  19785901.203 6     -2069.532 6        37.900 6
G06  21036435.077 6      -738.004 6        40.800 6
G11  21309630.847 3      2142.100 3        22.200 3
G12  21536293.432 6      2192.596 6        39.500 6
G19  21680123.361 6     -2285.191 6        39.300 6
G20  24671979.842 3      3030.500 3        19.700 3
G22  23744153.362 4     -2378.500 4        24.900 4
G24  21223865.921 7     -1523.220 7        44.200 7
G25  23847418.074 5      3212.807 5        33.500 5
> 2025 11 17 03 12 42.4344938  0 15                      
R14  21251527.771 7      3254.276 7        42.900 7
R22  22810515.107 6     -4015.895 6        37.000 6
R13  19347866.948 5      -427.633 5        30.700 5
R12  21869652.153 3     -3144.800 3        21.800 3
R24  20407727.422 5      2663.741 5        35.400 5
R23  19786279.841 6     -2073.259 6        37.100 6
G06  21036574.480 6      -741.864 6        40.700 6
G11  21309333.453 4      2138.600 4        23.700 4
G12  21535875.821 6      2189.358 6        39.900 6
G19  21680562.557 6     -2288.381 6        39.400 6
G20  24671412.634 3      3027.800 3        19.000 3
G22  23744642.624 4     -2381.650 4        25.600 4
G24  21224154.621 7     -1526.765 7        43.200 7
G25  23846792.707 5      3210.263 5        33.800 5
G32  25943820.265 3        88.550 3        18.200 3
> 2025 11 17 03 12 43.4344938  0 12                      
R14  21250920.991 7      3251.367 7        43.200 7
R22  22811264.588 6     -4019.529 6        36.200 6
R13  19347952.389 5      -431.187 5        30.700 5
R24  20407234.563 6      2660.851 6        35.600 6
R23  19786671.670 6     -2076.590 6        37.500 6
G06  21036718.681 6      -744.904 6        40.200 6
G11  21309027.065 4      2134.300 4        23.500 4
G12  21535454.913 6      2186.538 6        39.300 6
G19  21680990.960 6     -2291.016 6        36.900 6
G22  23745079.421 4     -2389.400 4        27.700 4
G24  21224442.122 7     -1529.941 7        42.400 7
G25  23846195.220 5      3207.251 5        34.000 5
> 2025 11 17 03 12 44.4344938  0 11                      
R14  21250309.715 7      3251.265 7        45.700 7
R22  22812020.964 6     -4018.475 6        37.600 6
R13  19348043.826 5      -431.859 5        31.100 5
R24  20406753.097 6      2660.371 6        37.000 6
R23  19787064.698 6     -2077.100 6        39.500 6
G06  21036866.778 6      -745.605 6        40.000 6
G12  21535043.897 6      2186.512 6        40.300 6
G19  21681433.154 6     -2291.004 6        38.500 6
G22  23745543.200 4     -2388.100 4        29.300 4
G24  21224731.722 7     -1530.408 7        44.300 7
G25  23845589.640 6      3207.768 6        35.700 6
> 2025 11 17 03 12 45.4344938  0 12                      
R14  21249702.935 7      3247.569 7        45.500 7
R22  22812771.345 6     -4022.263 6        37.400 6
R13  19348122.671 5      -435.878 5        30.600 5
R24  20406253.942 6      2655.981 6        38.400 6
R23  19787462.822 6     -2081.287 6        40.200 6
G06  21036996.288 7      -749.745 7        41.500 7
G11  21308047.344 4      2132.750 4        26.000 4
G12  21534631.982 6      2182.918 6        41.000 6
G19  21681869.652 6     -2294.653 6        38.900 6
G22  23746009.977 5     -2392.300 5        29.600 5
G24  21225025.219 7     -1534.504 7        45.000 7
G25  23844972.667 5      3203.868 5        34.800 5
> 2025 11 17 03 12 46.4344938  0 14                      
R14  21249093.457 7      3244.559 7        45.700 7
R22  22813518.727 5     -4024.923 5        34.300 5
R13  19348211.110 5      -437.800 5        29.900 5
R24  20405765.580 6      2652.689 6        37.600 6
R23  19787840.561 6     -2084.489 6        38.400 6
G06  21037144.686 7      -753.109 7        41.700 7
G11  21307671.704 5      2129.500 5        29.600 5
G12  21534219.768 6      2179.780 6        38.700 6
G17  24031043.652 4     -2771.750 4        27.600 4
G19  21682313.944 6     -2297.655 6        38.500 6
G22  23746457.268 4     -2395.600 4        27.600 4
G24  21225320.214 7     -1537.933 7        43.700 7
G25  23844366.786 5      3201.744 5        35.400 5
G32  25943726.130 4        67.050 4        24.600 4
> 2025 11 17 03 12 47.4344938  0 15                      
R14  21248480.981 7      3246.729 7        46.000 7
R22  22814276.603 6     -4022.791 6        35.700 6
R13  19348263.274 4      -436.600 4        28.700 4
R12  21872601.511 3     -3173.250 3        22.100 3
R24  20405266.126 6      2654.630 6        37.500 6
R23  19788231.190 6     -2082.870 6        38.500 6
G06  21037290.385 6      -751.268 6        39.800 6
G11  21307242.701 4      2130.250 4        25.300 4
G12  21533806.054 6      2182.389 6        37.700 6
G17  24031569.488 4     -2771.600 4        29.200 4
G19  21682751.641 6     -2295.371 6        38.800 6
G22  23746919.547 5     -2393.320 5        31.500 5
G24  21225610.413 7     -1536.001 7        44.200 7
G25  23843754.610 5      3203.932 5        35.000 5
G32  25943725.830 3        65.650 3        23.000 3
> 2025 11 17 03 12 48.4344938  0 15                      
R14  21247875.400 7      3245.724 7        45.500 7
R22  22815033.279 6     -4023.598 6        35.500 6
R13  19348367.302 5      -439.737 5        30.700 5
R12  21873259.555 4     -3175.400 4        26.300 4
R24  20404758.577 6      2653.164 6        37.100 6
R23  19788612.826 6     -2084.451 6        38.200 6
G06  21037422.293 6      -752.476 6        39.600 6
G11  21306903.036 4      2130.550 4        27.300 4
G12  21533393.839 6      2181.032 6        37.200 6
G17  24032107.316 4     -2771.350 4        27.500 4
G19  21683192.336 6     -2296.263 6        40.400 6
G22  23747384.226 5     -2394.116 5        32.000 5
G24  21225902.112 7     -1537.384 7        44.000 7
G25  23843153.226 5      3203.075 5        35.100 5
G32  25943701.247 4        64.300 4        24.400 4
> 2025 11 17 03 12 49.4344938  0 15                      
R14  21247264.723 7      3243.296 7        45.400 7
R22  22815774.366 6     -4025.732 6        36.300 6
R13  19348471.929 5      -441.616 5        33.200 5
R12  21873885.822 4     -3176.250 4        25.700 4
R24  20404245.033 6      2650.660 6        36.900 6
R23  19789012.150 6     -2086.897 6        38.400 6
G06  21037567.993 6      -755.326 6        39.300 6
G11  21306480.928 4      2130.200 4        28.500 4
G12  21532983.723 5      2179.056 5        35.300 5
G17  24032638.848 4     -2773.000 4        28.100 4
G19  21683632.431 6     -2298.535 6        39.900 6
G22  23747824.921 5     -2396.394 5        30.400 5
G24  21226188.713 7     -1539.993 7        44.500 7
G25  23842544.048 5      3201.314 5        34.800 5
G32  25943718.635 4        68.350 4        25.400 4
> 2025 11 17 03 12 50.4344938  0 16                      
R14  21246655.244 7      3246.078 7        44.000 7
R22  22816531.642 5     -4023.245 5        35.000 5
R13  19348526.492 5      -439.496 5        32.900 5
R12  21874455.128 4     -3177.800 4        23.600 4
R24  20403758.770 5      2652.578 5        34.300 5
R23  19789404.278 6     -2085.270 6        37.300 6
G06  21037693.606 6      -753.268 6        38.800 6
G11  21306098.693 4      2127.000 4        27.800 4
G12  21532560.416 6      2181.437 6        35.800 6
G17  24033172.479 4     -2769.400 4        26.500 4
G19  21684062.634 6     -2296.357 6        38.300 6
G20  24666836.302 3      2996.300 3        19.600 3
G22  23748292.597 4     -2393.750 4        28.500 4
G24  21226479.812 7     -1537.907 7        42.400 7
G25  23841928.874 5      3203.712 5        33.600 5
G32  25943680.561 3        68.400 3        23.100 3
> 2025 11 17 03 12 51.4344938  0 15                      
R14  21246047.265 7      3250.843 7        44.800 7
R22  22817285.620 5     -4018.667 5        34.000 5
R13  19348602.039 5      -435.833 5        30.900 5
R12  21874987.559 4     -3171.550 4        27.500 4
R24  20403238.630 5      2657.045 5        31.900 5
R23  19789800.004 6     -2080.606 6        37.700 6
G06  21037829.112 6      -749.219 6        38.600 6
G11  21305722.753 4      2135.400 4        29.200 4
G12  21532151.200 6      2186.018 6        38.700 6
G17  24033701.612 4     -2766.050 4        28.200 4
G19  21684490.437 6     -2291.122 6        36.800 6
G20  24666237.617 4      3011.550 4        23.700 4
G22  23748780.959 4     -2387.100 4        24.600 4
G24  21226764.315 7     -1533.597 7        43.100 7
G25  23841322.094 5      3208.473 5        33.100 5
> 2025 11 17 03 12 52.4344938  0 15                      
R14  21245437.487 7      3252.005 7        43.400 7
R22  22818053.388 5     -4017.135 5        33.200 5
R13  19348710.864 5      -434.629 5        30.600 5
R12  21875566.158 4     -3170.450 4        26.700 4
R24  20402741.874 5      2658.060 5        33.500 5
R23  19790178.642 6     -2079.536 6        36.400 6
G06  21037981.406 6      -748.369 6        38.800 6
G11  21305304.842 5      2134.148 5        31.600 5
G12  21531734.188 6      2187.134 6        37.600 6
G17  24034237.941 4     -2763.000 4        27.800 4
G19  21684926.036 6     -2290.006 6        35.900 6
G20  24665659.317 3      3015.200 3        22.700 3
G22  23749235.744 4     -2387.300 4        26.200 4
G24  21227053.914 7     -1532.622 7        41.800 7
G25  23840692.530 5      3209.807 5        32.200 5
> 2025 11 17 03 12 53.4344938  0 13                      
R14  21244828.609 7      3249.018 7        43.900 7
R22  22818786.680 5     -4019.457 5        31.300 5
R13  19348772.321 5      -437.548 5        31.700 5
R24  20402243.319 5      2654.429 5        33.500 5
R23  19790568.372 6     -2083.090 6        37.400 6
G06  21038122.009 6      -751.755 6        38.200 6
G11  21304911.814 4      2131.100 4        27.300 4
G12  21531312.980 6      2184.353 6        36.500 6
G17  24034752.985 4     -2768.800 4        25.100 4
G19  21685379.622 6     -2292.739 6        37.900 6
G22  23749664.147 5     -2393.850 5        29.500 5
G24  21227348.910 7     -1536.080 7        42.100 7
G25  23840090.846 5      3207.416 5        33.900 5
> 2025 11 17 03 12 54.4344938  0 16                      
R14  21244214.334 7      3248.136 7        43.700 7
R22  22819548.153 5     -4021.537 5        33.100 5
R13  19348866.756 5      -439.088 5        32.000 5
R12  21876696.976 3     -3175.650 3        23.200 3
R24  20401775.343 6      2653.169 6        35.900 6
R23  19790967.696 6     -2084.519 6        37.000 6
G06  21038277.301 6      -753.145 6        39.800 6
G11  21304533.176 4      2132.050 4        25.600 4
G12  21530892.371 6      2183.558 6        35.900 6
G17  24035306.401 4     -2763.650 4        27.000 4
G19  21685803.828 6     -2293.806 6        37.700 6
G20  24664556.381 3      2999.750 3        22.500 3
G22  23750106.641 4     -2391.850 4        29.400 4
G24  21227639.709 7     -1537.311 7        43.200 7
G25  23839487.364 5      3206.464 5        33.200 5
G32  25943644.586 3        74.300 3        19.300 3
> 2025 11 17 03 12 55.4344938  0 15                      
R14  21243612.351 7      3250.306 7        43.700 7
R22  22820274.550 5     -4018.648 5        31.200 5
R13  19348954.295 5      -437.404 5        31.800 5
R12  21877344.527 4     -3176.950 4        24.900 4
R24  20401277.387 5      2655.517 5        35.200 5
R23  19791355.627 6     -2082.370 6        36.000 6
G06  21038416.105 6      -751.028 6        40.400 6
G11  21304154.539 4      2135.450 4        25.700 4
G12  21530477.159 6      2185.747 6        36.300 6
G17  24035780.074 4     -2763.400 4        27.900 4
G19  21686250.819 6     -2291.375 6        37.800 6
G22  23750570.420 4     -2389.700 4        28.900 4
G24  21227937.702 7     -1535.443 7        43.800 7
G25  23838872.790 5      3209.159 5        34.200 5
G32  25943608.012 3        73.350 3        22.100 3
> 2025 11 17 03 12 56.4344938  0 16                      
R14  21243004.971 7      3251.285 7        45.100 7
R22  22821062.405 5     -4017.663 5        32.000 5
R13  19349032.841 5      -436.972 5        33.100 5
R12  21877970.794 3     -3173.350 3        23.300 3
R24  20400781.830 6      2655.803 6        36.400 6
R23  19791741.161 6     -2082.218 6        36.100 6
G06  21038556.708 6      -750.583 6        39.800 6
G11  21303729.433 4      2133.950 4        26.400 4
G12  21530059.248 5      2186.962 5        34.800 5
G17  24036300.213 4     -2765.900 4        25.100 4
G19  21686686.717 6     -2290.622 6        39.200 6
G20  24663427.962 4      3010.750 4        24.200 4
G22  23751024.606 5     -2388.217 5        31.000 5
G24  21228232.099 7     -1534.904 7        44.600 7
G25  23838257.016 5      3209.932 5        33.700 5
G32  25943606.213 4        68.100 4        26.700 4
> 2025 11 17 03 12 57.4344938  0 15                      
R14  21242390.097 7      3252.584 7        44.000 7
R22  22821801.393 5     -4015.899 5        31.800 5
R13  19349093.099 5      -436.378 5        32.600 5
R12  21878573.976 4     -3172.200 4        28.900 4
R24  20400279.378 6      2656.760 6        35.500 6
R23  19792116.501 5     -2081.471 5        34.300 5
G06  21038705.405 6      -749.945 6        41.200 6
G11  21303310.623 4      2133.850 4        28.600 4
G12  21529644.935 6      2187.756 6        36.100 6
G14  24748728.210 2     -3038.200 2        16.400 2
G19  21687122.915 6     -2289.400 6        37.700 6
G20  24662841.568 4      3013.100 4        24.200 4
G22  23751465.301 4     -2384.950 4        29.100 4
G24  21228527.094 7     -1534.009 7        43.600 7
G25  23837645.439 5      3211.890 5        32.500 5
> 2025 11 17 03 12 58.4344938  0 16                      
R14  21241782.418 7      3253.364 7        42.800 7
R22  22822549.675 5     -4015.163 5        31.900 5
R13  19349183.637 5      -435.535 5        32.400 5
R12  21879160.670 4     -3172.400 4        29.300 4
R24  20399795.213 6      2656.995 6        37.300 6
R23  19792501.434 5     -2080.764 5        34.700 5
G06  21038846.607 6      -749.459 6        40.800 6
G11  21302906.503 4      2135.050 4        29.000 4
G12  21529229.722 6      2188.692 6        36.300 6
G14  24749311.906 2     -3039.150 2        16.500 2
G17  24037348.588 4     -2758.300 4        26.100 4
G19  21687557.614 6     -2288.137 6        37.400 6
G20  24662265.067 3      3022.200 3        23.000 3
G22  23751936.574 4     -2386.900 4        25.500 4
G24  21228816.394 7     -1533.564 7        44.100 7
G25  23837036.261 5      3212.644 5        33.000 5
> 2025 11 17 03 12 59.4344938  0 13                      
R14  21241172.640 7      3253.674 7        45.000 7
R22  22823318.943 5     -4014.974 5        31.600 5
R13  19349272.675 5      -435.757 5        33.000 5
R12  21879748.563 4     -3170.000 4        26.100 4
R24  20399310.749 6      2657.122 6        36.000 6
R23  19792886.368 5     -2080.920 5        33.100 5
G06  21038989.309 6      -749.585 6        40.600 6
G11  21302492.189 4      2133.500 4        27.100 4
G12  21528810.313 6      2189.098 6        36.100 6
G19  21687988.116 6     -2287.862 6        35.600 6
G22  23752379.368 4     -2386.550 4        26.900 4
G24  21229107.492 7     -1533.614 7        43.700 7
G25  23836431.580 5      3213.276 5        33.300 5
> 2025 11 17 03 13 00.4344938  0 15                      
R14  21240560.164 7      3254.946 7        44.700 7
R22  22824043.841 5     -4014.348 5        32.600 5
R13  19349355.418 5      -434.964 5        31.700 5
R12  21880400.012 4     -3172.150 4        28.500 4
R24  20398807.997 6      2657.884 6        35.800 6
R23  19793289.589 5     -2080.101 5        33.200 5
G06  21039131.410 6      -748.540 6        41.100 6
G11  21302067.983 4      2140.300 4        24.400 4
G12  21528404.993 6      2190.195 6        37.000 6
G17  24038439.233 4     -2756.750 4        25.400 4
G19  21688416.519 5     -2286.243 5        35.400 5
G20  24661101.572 3      3019.000 3        20.800 3
G22  23752814.966 5     -2384.811 5        30.400 5
G24  21229406.685 7     -1532.679 7        44.800 7
G25  23835810.110 5      3214.586 5        33.900 5
> 2025 11 17 03 13 01.4344938  0 15                      
R14  21239949.487 7      3253.216 7        45.100 7
R22  22824813.708 5     -4015.025 5        33.400 5
R13  19349444.756 5      -437.155 5        32.700 5
R12  21880949.232 4     -3170.900 4        29.100 4
R24  20398301.048 5      2655.875 5        34.600 5
R23  19793680.518 5     -2082.418 5        34.200 5
G06  21039271.413 6      -750.851 6        40.500 6
G11  21301632.684 4      2133.750 4        24.600 4
G12  21527984.085 6      2188.754 6        36.500 6
G19  21688858.713 6     -2288.501 6        36.200 6
G20  24660611.112 4      3016.950 4        24.800 4
G22  23753287.139 5     -2386.221 5        32.900 5
G24  21229702.880 7     -1534.762 7        45.200 7
G25  23835209.626 5      3213.344 5        34.600 5
G32  25943572.037 3        75.650 3        18.900 3
> 2025 11 17 03 13 02.4344938  0 13                      
R14  21239338.810 7      3253.527 7        45.000 7
R22  22825576.980 5     -4014.548 5        33.900 5
R13  19349522.102 5      -437.147 5        33.200 5
R12  21881568.003 4     -3169.000 4        26.200 4
R24  20397774.612 5      2655.281 5        32.100 5
R23  19794086.137 5     -2082.354 5        33.400 5
G06  21039420.110 6      -750.928 6        39.900 6
G11  21301233.960 4      2135.700 4        27.900 4
G12  21527567.373 5      2188.935 5        35.200 5
G19  21689295.811 5     -2288.113 5        34.600 5
G22  23753738.627 5     -2385.779 5        33.600 5
G24  21229992.180 7     -1534.911 7        44.700 7
G25  23834582.160 5      3213.421 5        33.500 5
> 2025 11 17 03 13 03.4344938  0 14                      
R14  21238723.935 7      3257.431 7        44.900 7
R22  22826323.463 5     -4010.970 5        34.000 5
R13  19349600.648 5      -433.881 5        33.600 5
R12  21882070.456 4     -3169.400 4        24.100 4
R24  20397253.273 5      2660.250 5        29.700 5
R23  19794460.878 5     -2078.735 5        32.900 5
G06  21039562.212 7      -747.633 7        42.200 7
G11  21300803.458 5      2136.339 5        30.600 5
G12  21527153.360 6      2192.644 6        38.500 6
G14  24752169.527 3     -3038.300 3        19.000 3
G19  21689730.510 5     -2284.577 5        33.600 5
G22  23754186.816 5     -2382.399 5        31.000 5
G24  21230281.180 7     -1531.533 7        45.400 7
G25  23833968.785 5      3217.780 5        32.900 5
> 2025 11 17 03 13 04.4344938  0 13                      
R14  21238112.059 7      3257.864 7        45.000 7
R22  22827075.642 5     -4010.376 5        34.100 5
R13  19349689.986 5      -433.425 5        33.700 5
R12  21882727.001 4     -3167.550 4        26.200 4
R24  20396781.100 4      2660.050 4        29.000 4
R23  19794863.499 5     -2078.893 5        35.200 5
G06  21039703.414 7      -747.527 7        43.100 7
G11  21300388.546 5      2137.054 5        31.700 5
G12  21526742.344 6      2193.129 6        39.400 6
G19  21690159.513 5     -2284.100 5        31.300 5
G22  23754643.400 5     -2381.304 5        32.300 5
G24  21230568.681 7     -1531.279 7        45.900 7
G25  23833370.399 5      3218.716 5        33.600 5
> 2025 11 17 03 13 05.4344938  0 14                      
R14  21237504.379 7      3249.851 7        45.000 7
R22  22827809.534 5     -4018.163 5        33.500 5
R13  19349757.140 5      -442.205 5        34.000 5
R24  20396367.986 4      2656.600 4        25.600 4
R23  19795249.632 5     -2087.216 5        34.100 5
G06  21039846.115 7      -755.997 7        41.900 7
G11  21299989.822 5      2128.001 5        30.100 5
G12  21526328.331 6      2185.103 6        40.700 6
G14  24753291.950 3     -3031.100 3        23.400 3
G19  21690588.516 5     -2291.495 5        33.500 5
G22  23755091.890 5     -2388.908 5        33.000 5
G24  21230861.578 7     -1539.659 7        44.900 7
G25  23832740.235 5      3210.241 5        32.900 5
G32  25943451.520 3        71.900 3        19.400 3
> 2025 11 17 03 13 06.4344938  0 14                      
R14  21236895.201 7      3254.200 7        45.200 7
R22  22828554.518 5     -4014.467 5        31.700 5
R13  19349831.488 5      -438.497 5        32.600 5
R12  21883961.546 3     -3175.550 3        22.900 3
R24  20395839.752 4      2657.550 4        26.200 4
R23  19795630.668 6     -2083.493 6        36.100 6
G06  21039989.716 7      -752.120 7        42.500 7
G11  21299583.003 5      2132.636 5        31.800 5
G12  21525911.020 6      2189.356 6        40.800 6
G14  24753891.535 4     -3030.350 4        25.000 4
G19  21691030.410 5     -2287.534 5        32.200 5
G22  23755531.086 4     -2387.050 4        29.300 4
G24  21231149.679 7     -1535.872 7        44.700 7
G25  23832127.459 5      3214.890 5        33.700 5
> 2025 11 17 03 13 07.4344938  0 14                      
R14  21236283.325 7      3257.999 7        46.300 7
R22  22829299.802 4     -4007.900 4        28.200 4
R13  19349919.327 5      -435.101 5        34.200 5
R12  21884586.914 4     -3165.400 4        24.200 4
R24  20395422.141 4      2659.450 4        25.700 4
R23  19796035.687 6     -2079.736 6        36.200 6
G06  21040126.122 6      -748.737 6        41.200 6
G11  21299144.707 5      2136.017 5        30.000 5
G12  21525491.910 7      2193.217 7        41.900 7
G14  24754473.133 4     -3023.250 4        25.800 4
G19  21691467.208 5     -2283.100 5        35.200 5
G22  23755989.768 4     -2385.100 4        25.800 4
G24  21231437.779 7     -1532.187 7        44.700 7
G25  23831523.977 5      3219.241 5        35.200 5
> 2025 11 17 03 13 08.4344938  0 14                      
R14  21235670.849 7      3257.686 7        45.800 7
R22  22830065.173 5     -4010.032 5        30.200 5
R13  19350008.666 5      -436.989 5        33.200 5
R12  21885126.540 4     -3169.700 4        25.500 4
R24  20394813.562 3      2660.200 3        22.600 3
R23  19796411.028 5     -2080.831 5        35.200 5
G06  21040267.624 6      -749.369 6        40.300 6
G11  21298746.582 4      2133.250 4        29.400 4
G12  21525075.198 7      2192.924 7        41.700 7
G14  24755072.718 4     -3027.900 4        25.600 4
G19  21691911.800 5     -2283.354 5        34.300 5
G22  23756455.346 5     -2383.165 5        31.300 5
G24  21231732.175 7     -1533.021 7        44.600 7
G25  23830907.304 5      3218.612 5        34.000 5
> 2025 11 17 03 13 09.4344932  0 13                      
R14  21234880.921 7      3294.403 7        43.400 7
R22  22830656.088 5     -3975.499 5        30.700 5
R13  19349905.262 4      -398.200 4        29.400 4
R12  21885569.958 4     -3130.750 4        27.100 4
R23  19796609.815 5     -2044.295 5        33.900 5
G06  21040228.376 6      -713.674 6        38.600 6
G11  21298147.322 4      2174.200 4        28.500 4
G12  21524472.940 6      2229.144 6        40.000 6
G14  24755451.680 4     -2992.700 4        24.600 4
G19  21692157.654 5     -2247.662 5        32.900 5
G22  23756709.595 4     -2355.100 4        24.100 4
G24  21231837.428 7     -1497.249 7        42.800 7
G25  23830105.684 5      3254.367 5        32.100 5
> 2025 11 17 03 13 10.4344932  0 14                      
R14  21234265.447 7      3281.520 7        43.200 7
R22  22831332.420 5     -3971.637 5        30.100 5
R13  19349987.405 4      -409.600 4        28.400 4
R12  21886182.434 4     -3132.700 4        24.200 4
R24  20393746.925 3      2683.850 3        21.400 3
R23  19796974.063 5     -2055.457 5        30.500 5
G06  21040368.079 6      -726.918 6        37.800 6
G11  21297743.502 4      2162.650 4        26.100 4
G12  21524053.531 6      2216.368 6        40.100 6
G14  24756016.489 4     -3010.850 4        23.800 4
G19  21692556.978 5     -2262.800 5        30.900 5
G22  23757122.409 4     -2368.150 4        25.300 4
G24  21232123.729 7     -1510.397 7        42.400 7
G25  23829482.116 5      3240.900 5        31.900 5
> 2025 11 17 03 13 11.4344932  0 12                      
R14  21233650.263 6      3257.817 6        41.100 6
R22  22832143.949 6     -4010.850 6        41.400 6
R13  19350041.359 5      -436.934 5        32.000 5
R24  20393135.639 4      2650.650 4        29.300 4
R23  19797378.773 6     -2081.617 6        38.500 6
G06  21040510.471 7      -750.475 7        42.800 7
G11  21297310.892 4      2138.450 4        24.800 4
G12  21523627.216 7      2193.012 7        44.400 7
G19  21693008.456 6     -2283.131 6        38.700 6
G22  23757605.665 5     -2380.705 5        34.500 5
G24  21232419.615 7     -1534.002 7        45.500 7
G25  23828899.609 5      3218.813 5        33.100 5
> 2025 11 17 03 13 12.4344932  0 12                      
R14  21233035.988 7      3240.030 7        43.800 7
R22  22832891.631 7     -4026.875 7        45.300 7
R13  19350138.191 5      -454.767 5        35.200 5
R12  21887285.961 3     -3182.900 3        23.000 3
R24  20392653.273 5      2638.530 5        30.900 5
R23  19797773.600 6     -2100.095 6        39.700 6
G06  21040657.669 7      -768.732 7        45.100 7
G12  21523209.006 7      2175.521 7        46.200 7
G19  21693435.960 6     -2300.929 6        39.600 6
G22  23758058.052 5     -2398.767 5        35.300 5
G24  21232709.814 8     -1551.842 8        47.500 8
G25  23828267.947 5      3202.170 5        33.900 5
> 2025 11 17 03 13 13.4344932  0 12                      
R14  21232429.209 7      3246.813 7        42.700 7
R22  22833651.306 7     -4021.708 7        44.500 7
R13  19350224.232 5      -449.038 5        35.400 5
R12  21887902.334 4     -3173.950 4        26.900 4
R24  20392165.211 4      2642.950 4        28.600 4
R23  19798163.630 6     -2093.804 6        40.700 6
G06  21040805.767 7      -762.412 7        44.100 7
G12  21522796.791 7      2182.345 7        45.500 7
G19  21693880.253 6     -2293.957 6        39.500 6
G22  23758519.133 5     -2392.797 5        33.700 5
G24  21233006.609 7     -1545.541 7        46.800 7
G25  23827680.653 5      3208.831 5        33.000 5
> 2025 11 17 03 13 14.4344932  0 13                      
R14  21231820.930 7      3256.524 7        42.600 7
R22  22834401.686 7     -4010.470 7        43.600 7
R13  19350315.669 6      -439.288 6        35.700 6
R12  21888475.837 4     -3171.600 4        26.100 4
R24  20391649.268 4      2654.850 4        29.300 4
R23  19798550.362 7     -2084.048 7        42.000 7
G06  21040949.067 7      -753.395 7        44.900 7
G12  21522378.281 7      2192.189 7        46.000 7
G19  21694312.853 6     -2284.444 6        39.200 6
G20  24652937.340 3      3022.450 3        23.400 3
G22  23758970.021 6     -2382.223 6        35.900 6
G24  21233296.508 8     -1536.109 8        47.500 8
G25  23827066.079 5      3219.296 5        34.900 5
> 2025 11 17 03 13 15.4344932  0 14                      
R14  21231217.148 7      3252.224 7        43.500 7
R22  22835164.958 5     -4014.647 5        30.400 5
R13  19350406.206 5      -444.863 5        31.600 5
R12  21889090.711 4     -3177.050 4        26.000 4
R24  20391135.424 4      2651.850 4        28.800 4
R23  19798943.990 5     -2089.769 5        34.500 5
G06  21041085.773 7      -757.839 7        42.600 7
G11  21295768.160 4      2130.300 4        28.100 4
G12  21521967.865 7      2187.346 7        42.100 7
G19  21694757.745 7     -2288.710 7        41.500 7
G20  24652399.812 4      3017.650 4        26.400 4
G22  23759423.607 5     -2386.525 5        32.300 5
G24  21233580.711 6     -1540.934 6        38.700 6
G25  23826443.710 6      3214.971 6        36.600 6
> 2025 11 17 03 13 16.4344932  0 14                      
R14  21230610.368 7      3253.095 7        43.400 7
R22  22835878.164 5     -4013.990 5        30.500 5
R13  19350495.244 5      -443.658 5        33.100 5
R12  21889697.491 4     -3172.800 4        26.100 4
R24  20390666.848 5      2649.802 5        30.600 5
R23  19799323.227 5     -2088.740 5        33.400 5
G06  21041229.673 7      -757.425 7        41.900 7
G12  21521555.351 6      2188.683 6        40.700 6
G19  21695199.339 6     -2287.690 6        38.300 6
G20  24651824.211 3      3017.200 3        23.100 3
G22  23759887.685 5     -2386.000 5        31.300 5
G24  21233887.099 6     -1540.579 6        39.000 6
G25  23825832.133 6      3216.033 6        35.800 6
G32  25943182.322 2        70.650 2        17.400 2
> 2025 11 17 03 13 17.4344932  0 15                      
R14  21229993.395 7      3248.777 7        43.200 7
R22  22836640.836 5     -4018.230 5        31.600 5
R13  19350564.496 5      -448.734 5        32.200 5
R12  21890355.835 4     -3177.100 4        23.500 4
R24  20390167.394 4      2645.650 4        23.700 4
R23  19799712.358 5     -2093.713 5        35.300 5
G06  21041377.471 6      -762.173 6        41.400 6
G11  21295083.434 3      2132.150 3        19.200 3
G12  21521137.740 6      2184.176 6        40.500 6
G19  21695631.640 6     -2292.059 6        38.500 6
G20  24651188.051 4      3014.650 4        27.200 4
G22  23760342.471 5     -2389.621 5        30.400 5
G24  21234173.401 6     -1545.214 6        37.700 6
G25  23825216.359 6      3212.039 6        36.400 6
G32  25943146.047 4        62.700 4        24.400 4
> 2025 11 17 03 13 18.4344932  0 15                      
R14  21229380.919 7      3249.586 7        43.400 7
R22  22837397.212 5     -4017.740 5        33.500 5
R13  19350641.843 5      -448.598 5        31.700 5
R12  21890879.873 4     -3181.300 4        25.800 4
R24  20389619.973 4      2647.950 4        24.900 4
R23  19800121.275 5     -2093.166 5        35.100 5
G06  21041520.772 7      -761.696 7        41.600 7
G11  21294625.651 3      2132.000 3        22.100 3
G12  21520724.026 7      2185.087 7        41.700 7
G19  21696069.037 6     -2291.031 6        39.900 6
G20  24650612.749 4      3012.750 4        27.100 4
G22  23760776.870 4     -2389.400 4        29.000 4
G24  21234471.695 6     -1544.652 6        37.700 6
G25  23824595.489 6      3212.710 6        35.900 6
G32  25943131.357 4        60.200 4        26.000 4
> 2025 11 17 03 13 19.4344932  0 15                      
R14  21228767.244 7      3259.366 7        44.300 7
R22  22838165.281 6     -4007.713 6        35.800 6
R13  19350705.998 5      -438.483 5        32.300 5
R12  21891488.451 4     -3168.250 4        27.000 4
R24  20389129.513 4      2658.750 4        28.900 4
R23  19800512.204 6     -2083.509 6        36.800 6
G06  21041655.978 7      -752.575 7        41.700 7
G11  21294229.325 3      2135.150 3        21.600 3
G12  21520302.818 7      2194.557 7        41.800 7
G17  24048195.094 4     -2753.050 4        27.400 4
G19  21696514.229 7     -2281.262 7        42.400 7
G20  24650055.435 5      3024.500 5        29.900 5
G22  23761223.860 5     -2379.250 5        30.100 5
G24  21234766.091 6     -1535.396 6        38.600 6
G25  23823977.917 5      3222.638 5        34.900 5
> 2025 11 17 03 13 20.4344932  0 15                      
R14  21228143.376 7      3261.132 7        44.000 7
R22  22838903.669 5     -4005.651 5        33.900 5
R13  19350809.727 5      -437.611 5        34.300 5
R12  21892139.900 4     -3168.600 4        25.800 4
R24  20388645.948 4      2657.900 4        28.500 4
R23  19800898.936 6     -2082.272 6        36.800 6
G06  21041794.782 6      -751.297 6        41.400 6
G11  21293731.970 4      2136.250 4        25.800 4
G12  21519880.710 7      2196.314 7        42.400 7
G17  24048723.329 4     -2752.250 4        28.100 4
G19  21696946.530 7     -2279.583 7        42.500 7
G20  24649505.616 4      3028.050 4        27.500 4
G22  23761689.138 4     -2376.750 4        29.400 4
G24  21235055.690 6     -1534.131 6        38.800 6
G25  23823343.256 5      3224.690 5        33.400 5
> 2025 11 17 03 13 21.4344932  0 14                      
R14  21227542.891 7      3257.586 7        44.900 7
R22  22839646.855 5     -4009.188 5        35.200 5
R13  19350904.161 5      -441.579 5        35.100 5
R12  21892658.841 3     -3172.650 3        23.300 3
R24  20388168.378 5      2652.696 5        33.300 5
R23  19801290.165 6     -2086.185 6        38.000 6
G06  21041934.185 6      -755.293 6        41.400 6
G11  21293307.164 5      2132.700 5        29.500 5
G12  21519460.401 7      2192.826 7        42.100 7
G19  21697379.430 7     -2283.114 7        41.900 7
G20  24648900.635 4      3025.650 4        28.000 4
G22  23762158.613 4     -2381.950 4        28.800 4
G24  21235358.181 6     -1537.823 6        39.300 6
G25  23822723.585 5      3221.132 5        33.000 5
> 2025 11 17 03 13 22.4344932  0 15                      
R14  21226932.214 7      3254.446 7        45.100 7
R22  22840410.726 6     -4012.349 6        36.000 6
R13  19350987.803 5      -445.135 5        35.100 5
R12  21893286.906 4     -3172.450 4        25.700 4
R24  20387710.595 5      2648.817 5        31.200 5
R23  19801682.594 6     -2089.790 6        37.300 6
G06  21042087.080 7      -758.574 7        42.600 7
G11  21292901.544 4      2128.150 4        29.100 4
G12  21519046.388 7      2189.793 7        43.200 7
G19  21697815.628 6     -2286.217 6        40.900 6
G20  24648333.727 4      3020.350 4        27.000 4
G22  23762560.335 4     -2384.400 4        25.900 4
G24  21235648.080 6     -1541.193 6        40.100 6
G25  23822130.596 5      3218.401 5        34.500 5
G32  25943068.401 3        69.350 3        21.100 3
> 2025 11 17 03 13 23.4344932  0 16                      
R14  21226317.340 7      3252.812 7        45.000 7
R22  22841157.809 5     -4014.130 5        32.800 5
R13  19351077.741 5      -446.767 5        34.300 5
R12  21893817.839 5     -3176.600 5        29.700 5
R24  20387230.328 5      2646.916 5        34.600 5
R23  19802089.412 5     -2091.699 5        34.600 5
G06  21042230.081 7      -760.701 7        42.000 7
G11  21292506.418 5      2126.488 5        30.000 5
G12  21518626.678 7      2188.232 7        42.800 7
G17  24050295.740 4     -2755.500 4        28.800 4
G19  21698249.728 6     -2287.643 6        40.200 6
G20  24647771.316 4      3019.050 4        25.800 4
G22  23763048.397 5     -2388.250 5        29.900 5
G24  21235945.774 6     -1543.286 6        39.800 6
G25  23821498.633 5      3217.273 5        33.900 5
G32  25943042.319 3        63.550 3        23.200 3
> 2025 11 17 03 13 24.4344932  0 15                      
R14  21225709.960 7      3247.230 7        46.200 7
R22  22841918.682 5     -4018.834 5        35.000 5
R13  19351168.878 5      -453.106 5        35.300 5
R12  21894415.325 4     -3182.250 4        25.800 4
R24  20386750.360 5      2641.222 5        33.100 5
R23  19802465.951 5     -2097.612 5        34.300 5
G06  21042372.782 7      -766.780 7        41.700 7
G11  21292083.711 4      2121.400 4        29.000 4
G12  21518204.870 7      2182.707 7        42.600 7
G17  24050781.104 4     -2758.700 4        29.100 4
G19  21698688.024 6     -2293.066 6        40.900 6
G20  24647213.103 3      3009.950 3        23.200 3
G22  23763539.457 5     -2388.697 5        30.000 5
G24  21236240.470 6     -1549.300 6        39.900 6
G25  23820882.260 5      3211.642 5        32.900 5
> 2025 11 17 03 13 25.4344932  0 15                      
R14  21225103.180 7      3247.484 7        46.900 7
R22  22842666.964 6     -4019.067 6        36.800 6
R13  19351234.233 5      -453.426 5        34.600 5
R12  21895008.315 4     -3180.850 4        28.500 4
R24  20386246.109 5      2641.018 5        34.700 5
R23  19802856.581 5     -2098.081 5        33.500 5
G06  21042527.475 7      -766.786 7        43.400 7
G11  21291679.590 4      2120.250 4        28.900 4
G12  21517790.557 7      2183.158 7        43.400 7
G19  21699116.727 6     -2292.720 6        41.200 6
G20  24646603.925 3      3016.050 3        22.900 3
G22  23763997.240 5     -2390.751 5        34.000 5
G24  21236536.365 6     -1549.184 6        39.800 6
G25  23820271.283 5      3212.597 5        32.300 5
G32  25943036.623 3        57.400 3        22.300 3
> 2025 11 17 03 13 26.4344932  0 14                      
R14  21224489.205 7      3241.755 7        45.300 7
R22  22843424.240 5     -4024.013 5        35.400 5
R13  19351325.969 5      -459.331 5        33.800 5
R12  21895588.113 4     -3184.600 4        29.400 4
R24  20385733.464 5      2634.827 5        34.300 5
R23  19803252.007 5     -2104.178 5        32.300 5
G06  21042675.572 7      -772.944 7        42.100 7
G11  21291258.382 4      2115.500 4        26.100 4
G12  21517371.747 7      2177.336 7        42.200 7
G19  21699552.926 6     -2298.133 6        39.500 6
G20  24646049.309 3      3006.400 3        22.600 3
G22  23764453.824 5     -2395.862 5        33.800 5
G24  21236829.862 6     -1555.231 6        40.600 6
G25  23819654.610 5      3207.021 5        31.500 5
> 2025 11 17 03 13 27.4344932  0 14                      
R14  21223881.226 7      3265.250 7        46.000 7
R22  22844191.409 6     -4000.850 6        35.800 6
R13  19351395.821 5      -435.950 5        33.900 5
R12  21896177.805 4     -3165.950 4        27.400 4
R24  20385238.806 5      2657.400 5        33.900 5
R23  19803636.341 5     -2081.550 5        31.000 5
G06  21042830.565 7      -749.950 7        43.500 7
G11  21290859.958 4      2136.150 4        28.300 4
G12  21516956.834 7      2199.750 7        41.700 7
G19  21699987.625 6     -2274.950 6        39.400 6
G22  23764902.913 5     -2374.750 5        34.100 5
G24  21237127.856 6     -1533.350 6        39.600 6
G25  23819060.121 5      3227.850 5        32.400 5
G32  25942999.149 3        65.650 3        21.800 3
> 2025 11 17 03 13 28.4344932  0 14                      
R14  21223269.350 7      3264.751 7        45.700 7
R22  22844925.900 6     -4001.360 6        36.300 6
R13  19351456.979 5      -437.188 5        32.200 5
R12  21896807.369 4     -3166.750 4        29.200 4
R24  20384730.658 5      2657.324 5        32.800 5
R23  19804035.665 5     -2081.867 5        32.500 5
G06  21042974.765 7      -750.939 7        43.200 7
G11  21290411.168 3      2135.850 3        22.700 3
G12  21516537.125 7      2200.126 7        42.400 7
G19  21700425.621 6     -2275.669 6        39.800 6
G20  24644828.254 3      3029.800 3        21.900 3
G22  23765355.000 5     -2373.266 5        33.200 5
G24  21237419.254 6     -1533.408 6        38.800 6
G25  23818432.656 5      3229.592 5        31.500 5
> 2025 11 17 03 13 29.4344932  0 13                      
R14  21222654.475 7      3256.971 7        45.500 7
R22  22845660.991 5     -4008.930 5        34.100 5
R13  19351536.124 5      -445.674 5        31.900 5
R12  21897388.367 4     -3176.550 4        24.400 4
R24  20384232.403 5      2648.830 5        33.000 5
R23  19804428.693 5     -2089.955 5        31.600 5
G06  21043117.167 7      -759.216 7        43.400 7
G12  21516121.612 7      2192.272 7        42.400 7
G19  21700859.421 6     -2283.506 6        39.600 6
G22  23765816.381 5     -2380.922 5        33.000 5
G24  21237708.554 6     -1541.518 6        40.400 6
G25  23817809.987 5      3222.309 5        32.300 5
G32  25943012.340 3        67.850 3        21.500 3
> 2025 11 17 03 13 30.4344932  0 13                      
R14  21222046.197 7      3250.241 7        45.600 7
R22  22846429.959 6     -4015.204 6        37.500 6
R13  19351629.059 5      -452.205 5        32.200 5
R12  21897891.419 3     -3170.450 3        22.900 3
R24  20383747.639 5      2641.958 5        34.200 5
R23  19804804.932 5     -2097.186 5        35.000 5
G06  21043261.067 7      -766.193 7        43.900 7
G11  21289566.353 3      2124.650 3        21.700 3
G12  21515699.505 7      2185.837 7        42.000 7
G19  21701287.525 6     -2289.755 6        40.300 6
G22  23766258.575 5     -2386.050 5        29.500 5
G24  21237996.055 7     -1548.385 7        41.500 7
G25  23817191.515 5      3216.630 5        31.200 5
> 2025 11 17 03 13 31.4344932  0 15                      
R14  21221432.521 7      3270.600 7        45.400 7
R22  22847171.046 6     -3996.550 6        37.500 6
R13  19351718.398 5      -431.100 5        32.200 5
R12  21898567.451 3     -3161.200 3        23.300 3
R24  20383237.092 5      2662.050 5        32.000 5
R23  19805191.665 5     -2077.650 5        35.100 5
G06  21043398.372 7      -747.050 7        44.000 7
G11  21289247.674 4      2140.750 4        27.300 4
G12  21515283.992 7      2206.150 7        42.200 7
G19  21701721.324 6     -2270.200 6        40.200 6
G20  24643187.490 3      3036.700 3        21.200 3
G22  23766685.779 5     -2369.700 5        30.500 5
G24  21238285.654 6     -1529.150 6        41.100 6
G25  23816586.534 5      3235.950 5        31.500 5
G32  25942969.769 3        66.850 3        21.200 3
> 2025 11 17 03 13 32.4344932  0 14                      
R14  21220822.444 7      3271.261 7        46.400 7
R22  22847913.032 6     -3994.677 6        37.800 6
R13  19351788.249 5      -432.353 5        30.500 5
R12  21899151.746 4     -3158.650 4        25.300 4
R24  20382722.648 5      2662.048 5        33.400 5
R23  19805582.594 5     -2076.941 5        34.800 5
G06  21043541.373 7      -746.403 7        43.700 7
G11  21288875.032 4      2142.950 4        29.300 4
G12  21514862.784 7      2206.414 7        41.600 7
G19  21702152.126 6     -2269.015 6        39.800 6
G22  23767133.969 4     -2367.150 4        28.500 4
G24  21238577.052 6     -1528.515 6        41.200 6
G25  23815974.957 5      3237.229 5        32.800 5
G32  25942936.192 4        73.050 4        24.400 4
> 2025 11 17 03 13 33.4344932  0 15                      
R14  21220213.265 7      3268.773 7        46.800 7
R22  22848677.203 6     -3997.142 6        38.800 6
R13  19351862.598 5      -435.440 5        31.100 5
R24  20382239.083 5      2659.049 5        33.500 5
R23  19805978.920 6     -2080.287 6        37.300 6
G06  21043682.575 7      -749.268 7        43.300 7
G11  21288478.406 5      2139.038 5        31.800 5
G12  21514445.773 7      2203.915 7        42.500 7
G14  24769354.546 3     -3023.800 3        17.800 3
G19  21702585.326 6     -2271.407 6        40.000 6
G20  24642052.475 3      3036.700 3        22.000 3
G22  23767572.865 4     -2369.800 4        29.400 4
G24  21238863.054 7     -1531.210 7        42.300 7
G25  23815377.471 5      3234.427 5        33.600 5
G32  25942962.874 3        70.400 3        23.100 3
> 2025 11 17 03 13 34.4344932  0 15                      
R14  21219597.492 7      3263.209 7        46.200 7
R22  22849417.990 6     -4002.178 6        38.400 6
R13  19351939.345 5      -441.218 5        31.100 5
R12  21900360.809 4     -3166.400 4        23.900 4
R24  20381717.144 5      2653.286 5        30.400 5
R23  19806372.547 6     -2085.931 6        35.600 6
G06  21043829.473 7      -755.125 7        43.800 7
G11  21288068.590 5      2133.164 5        32.000 5
G12  21514028.461 7      2198.635 7        42.200 7
G19  21703016.728 6     -2276.794 6        40.800 6
G20  24641407.622 3      3029.450 3        22.900 3
G22  23768012.661 4     -2373.300 4        28.400 4
G24  21239150.855 7     -1537.079 7        41.500 7
G25  23814778.785 5      3229.591 5        34.400 5
G32  25942927.798 3        69.250 3        22.700 3
> 2025 11 17 03 13 35.4344932  0 16                      
R14  21218988.313 7      3264.831 7        46.000 7
R22  22850174.966 6     -4001.523 6        37.800 6
R13  19352075.151 5      -445.869 5        30.800 5
R12  21900933.113 4     -3167.150 4        27.400 4
R24  20381212.294 4      2654.750 4        25.700 4
R23  19806747.288 6     -2084.862 6        35.500 6
G06  21043973.374 7      -754.113 7        43.300 7
G11  21287656.675 5      2134.627 5        32.000 5
G12  21513613.249 7      2200.114 7        42.000 7
G14  24770462.879 3     -3017.800 3        23.000 3
G19  21703448.728 6     -2275.095 6        39.000 6
G20  24640811.035 3      3041.400 3        23.400 3
G22  23768426.674 3     -2367.100 3        22.700 3
G24  21239441.054 6     -1535.945 6        41.000 6
G25  23814163.011 5      3230.837 5        33.800 5
G32  25942937.392 3        69.000 3        23.200 3
> 2025 11 17 03 13 36.4344932  0 15                      
R14  21218374.638 7      3276.313 7        46.600 7
R22  22850917.852 6     -3989.151 6        37.200 6
R13  19352146.801 5      -429.450 5        30.800 5
R12  21901570.771 4     -3154.350 4        28.200 4
R24  20380696.051 4      2667.150 4        27.800 4
R23  19807151.708 6     -2073.487 6        35.500 6
G03  25344689.850 3      -957.350 3        22.800 3
G06  21044113.077 7      -743.147 7        43.200 7
G11  21287246.859 5      2145.511 5        33.200 5
G12  21513196.837 7      2211.479 7        42.500 7
G19  21703879.230 6     -2263.764 6        40.600 6
G20  24640271.708 3      3047.000 3        23.300 3
G22  23768884.457 3     -2360.600 3        23.000 3
G24  21239728.255 6     -1524.973 6        40.900 6
G25  23813543.640 5      3242.851 5        33.500 5
> 2025 11 17 03 13 37.4344932  0 17                      
R14  21217758.865 7      3272.292 7        46.800 7
R22  22851673.629 6     -3992.581 6        38.300 6
R13  19352221.749 5      -433.148 5        30.900 5
R12  21902162.562 5     -3158.575 5        30.000 5
R24  20380156.425 4      2661.600 4        28.300 4
R23  19807536.042 6     -2077.833 6        36.900 6
G03  25344863.130 3      -960.500 3        20.600 3
G06  21044251.581 7      -747.521 7        44.200 7
G11  21286844.238 5      2141.535 5        33.600 5
G12  21512778.327 7      2207.480 7        43.200 7
G14  24771588.300 3     -3007.050 3        23.300 3
G19  21704312.730 6     -2267.879 6        39.600 6
G20  24639679.019 3      3038.650 3        22.500 3
G22  23769317.058 3     -2369.050 3        22.300 3
G24  21240022.951 7     -1529.105 7        42.800 7
G25  23812918.573 5      3239.671 5        33.400 5
G32  25942856.148 3        85.500 3        21.500 3
> 2025 11 17 03 13 38.4344932  0 16                      
R14  21217147.588 7      3268.000 7        45.900 7
R22  22852413.817 6     -3997.444 6        36.800 6
R13  19352294.599 5      -438.347 5        31.800 5
R12  21902752.553 5     -3163.129 5        30.000 5
R24  20379710.633 4      2655.800 4        27.400 4
R23  19807933.267 6     -2082.776 6        37.000 6
G03  25345050.800 3      -964.100 3        20.300 3
G06  21044397.280 7      -752.146 7        44.500 7
G11  21286440.417 5      2136.923 5        33.600 5
G12  21512355.320 7      2203.363 7        42.800 7
G14  24772225.658 3     -3013.650 3        23.000 3
G19  21704747.429 6     -2271.781 6        39.500 6
G20  24639126.801 3      3042.800 3        22.500 3
G22  23769801.522 3     -2371.500 3        21.500 3
G24  21240321.845 7     -1533.702 7        42.900 7
G25  23812304.598 5      3234.748 5        33.400 5
> 2025 11 17 03 13 39.4344932  0 15                      
R14  21216535.711 7      3270.009 7        46.300 7
R22  22853161.499 6     -3995.055 6        36.000 6
R13  19352388.134 5      -436.950 5        31.500 5
R12  21903356.036 4     -3162.150 4        28.900 4
R24  20379230.066 4      2660.200 4        28.400 4
R23  19808325.095 6     -2081.073 6        37.700 6
G06  21044538.483 7      -750.553 7        43.000 7
G11  21286034.199 5      2138.508 5        34.500 5
G12  21511941.606 7      2205.219 7        42.800 7
G19  21705171.336 6     -2269.784 6        39.300 6
G20  24638571.585 4      3040.700 4        24.500 4
G22  23770307.272 4     -2368.600 4        28.700 4
G24  21240609.346 7     -1532.369 7        42.500 7
G25  23811713.707 6      3237.262 6        35.700 6
G32  25942842.357 3        77.000 3        22.900 3
> 2025 11 17 03 13 40.4344932  0 15                      
R14  21215922.636 7      3261.842 7        45.700 7
R22  22853897.789 6     -4002.822 6        36.300 6
R13  19352443.595 5      -445.092 5        31.000 5
R12  21903964.314 5     -3169.870 5        31.800 5
R24  20378750.398 5      2648.650 5        29.600 5
R23  19808694.140 6     -2089.462 6        36.100 6
G06  21044684.781 7      -758.892 7        42.700 7
G11  21285622.883 5      2130.612 5        33.500 5
G12  21511520.098 7      2197.261 7        43.000 7
G14  24773275.831 3     -3021.850 3        21.500 3
G19  21705588.647 6     -2277.690 6        37.200 6
G22  23770773.150 5     -2375.231 5        31.400 5
G24  21240907.639 7     -1540.597 7        42.500 7
G25  23811108.426 6      3229.385 6        37.200 6
G32  25942858.846 4        71.300 4        24.200 4
> 2025 11 17 03 13 41.4344932  0 14                      
R14  21215306.262 7      3265.963 7        45.400 7
R22  22854667.956 6     -3998.980 6        37.500 6
R13  19352513.447 5      -441.696 5        31.500 5
R12  21904538.417 4     -3168.100 4        29.400 4
R24  20378271.630 5      2653.047 5        31.100 5
R23  19809096.761 6     -2086.065 6        38.900 6
G06  21044824.485 6      -755.205 6        39.900 6
G11  21285213.067 5      2134.430 5        34.100 5
G12  21511102.187 7      2201.310 7        44.600 7
G19  21706033.239 7     -2273.570 7        41.900 7
G22  23771202.153 5     -2372.200 5        29.800 5
G24  21241202.335 6     -1537.076 6        38.300 6
G25  23810478.562 6      3233.708 6        37.100 6
G32  25942788.395 3        73.100 3        22.300 3
> 2025 11 17 03 13 42.4344932  0 14                      
R14  21214693.787 7      3268.676 7        45.800 7
R22  22855415.339 6     -3995.080 6        38.900 6
R13  19352630.366 6      -438.852 6        35.600 6
R12  21905085.538 5     -3162.553 5        30.200 5
R24  20377790.762 5      2653.550 5        29.500 5
R23  19809483.493 6     -2083.179 6        40.900 6
G03  25345769.702 3      -972.200 3        21.900 3
G06  21044974.381 7      -752.277 7        42.900 7
G11  21284834.429 4      2141.500 4        23.500 4
G12  21510677.381 8      2203.714 8        49.100 8
G19  21706469.437 7     -2269.849 7        43.400 7
G22  23771662.334 5     -2367.945 5        31.700 5
G24  21241504.226 7     -1535.498 7        42.500 7
G25  23809863.088 5      3236.389 5        34.900 5
> 2025 11 17 03 13 43.4344932  0 13                      
R14  21214083.109 7      3259.023 7        45.200 7
R22  22856169.616 5     -4006.249 5        34.000 5
R13  19352720.904 5      -448.766 5        31.400 5
R12  21905667.136 5     -3172.150 5        29.800 5
R24  20377279.916 5      2646.077 5        30.400 5
R23  19809871.425 6     -2093.145 6        38.600 6
G06  21045113.485 7      -762.436 7        41.700 7
G11  21284337.673 5      2127.094 5        32.900 5
G12  21510262.768 7      2194.649 7        46.100 7
G19  21706907.134 7     -2279.740 7        41.700 7
G22  23772103.329 5     -2376.649 5        32.100 5
G24  21241796.224 6     -1543.498 6        36.300 6
G25  23809293.483 6      3227.154 6        35.700 6
> 2025 11 17 03 13 44.4344932  0 15                      
R14  21213467.036 6      3253.582 6        40.900 6
R22  22856918.498 6     -4010.787 6        37.700 6
R13  19352791.355 5      -454.639 5        34.300 5
R12  21906276.913 4     -3181.300 4        29.000 4
R24  20376778.063 4      2640.800 4        25.700 4
R23  19810258.757 7     -2099.432 7        41.600 7
G06  21045261.582 7      -768.385 7        44.000 7
G11  21283950.041 4      2123.700 4        26.900 4
G12  21509834.365 7      2189.237 7        47.000 7
G14  24775546.160 3     -3021.900 3        20.200 3
G17  24061220.777 5     -2747.800 5        32.200 5
G19  21707350.527 6     -2285.785 6        37.000 6
G22  23772554.516 5     -2383.029 5        31.900 5
G24  21242096.016 6     -1549.945 6        36.300 6
G25  23808652.226 5      3223.881 5        31.700 5
> 2025 11 17 03 13 45.4344932  0 13                      
R14  21212866.252 7      3256.730 7        43.800 7
R22  22857673.975 6     -4008.077 6        41.000 6
R13  19352873.798 5      -452.484 5        33.200 5
R12  21906840.523 5     -3175.801 5        30.100 5
R24  20376310.387 5      2642.666 5        31.700 5
R23  19810650.585 7     -2096.912 7        43.600 7
G06  21045412.078 7      -766.051 7        43.300 7
G11  21283545.022 5      2123.923 5        32.500 5
G12  21509422.450 8      2192.240 8        48.200 8
G14  24776145.445 3     -3025.300 3        22.400 3
G19  21707780.130 7     -2282.477 7        42.900 7
G22  23773001.507 5     -2383.600 5        29.600 5
G24  21242393.111 6     -1547.300 6        36.900 6
> 2025 11 17 03 13 46.4344932  0 13                      
R14  21212253.176 7      3255.791 7        44.000 7
R22  22858420.458 6     -4008.488 6        40.800 6
R13  19352936.454 5      -454.226 5        31.200 5
R12  21907445.504 5     -3177.447 5        31.500 5
R24  20375832.518 5      2640.916 5        31.700 5
R23  19811043.613 7     -2098.288 7        43.800 7
G06  21045556.578 7      -767.566 7        43.700 7
G11  21283148.097 5      2122.662 5        32.300 5
G12  21509005.139 8      2191.208 8        48.600 8
G17  24062277.245 5     -2744.800 5        29.500 5
G19  21708218.127 7     -2283.658 7        42.800 7
G22  23773448.797 5     -2381.291 5        30.900 5
G24  21242693.802 6     -1548.959 6        36.300 6
> 2025 11 17 03 13 47.4344932  0 13                      
R14  21211640.700 7      3266.119 7        43.300 7
R22  22859167.541 6     -3998.845 6        40.100 6
R13  19353038.983 4      -444.350 4        28.500 4
R12  21908055.582 5     -3166.858 5        32.700 5
R24  20375324.370 4      2648.400 4        28.300 4
R23  19811435.442 7     -2088.250 7        43.000 7
G06  21045694.482 6      -757.938 6        40.300 6
G11  21282722.391 4      2128.100 4        27.300 4
G12  21508589.027 7      2201.590 7        46.800 7
G17  24062790.190 5     -2736.221 5        31.500 5
G19  21708648.928 7     -2273.240 7        42.600 7
