NMEA,$GPGSV,4,1,14,06,59,075,46,11,54,165,38,12,45,313,51,17,19,056,41,1*69,1763349137815
NMEA,$GPGSV,4,2,14,19,40,047,47,22,21,104,32,24,53,240,48,25,13,302,40,1*66,1763349137815
NMEA,$GPGSV,4,3,14,03,00,000,,14,05,112,,20,08,153,,21,00,000,,1*69,1763349137815
NMEA,$GPGSV,4,4,14,29,00,000,,32,00,000,,1*6B,1763349137815
NMEA,$GLGSV,2,1,07,78,35,326,40,86,17,032,47,77,73,087,38,87,61,030,43,1*70,1763349137815
NMEA,$GLGSV,2,2,07,76,27,126,,69,00,000,,88,48,213,,1*4D,1763349137815
NMEA,$GNGSA,A,3,06,11,12,17,19,22,24,25,,,,,1.3,1.0,0.8,1*30,1763349137817
NMEA,$GNGSA,A,3,78,86,87,,,,,,,,,,1.3,1.0,0.8,2*37,1763349137817
NMEA,$GNVTG,,T,,M,0.0,N,0.0,K,A*3D,1763349137817
NMEA,$GNDTM,P90,,0000.000025,S,00000.000001,E,0.981,W84*58,1763349137817
NMEA,$GNRMC,031217.00,A,3725.664961,N,12210.009312,W,0.0,,171125,15.0,E,A,V*5E,1763349137817
NMEA,$GNGNS,031217.00,3725.664961,N,12210.009312,W,AA,11,1.0,39.2,-27.9,,,V*2E,1763349137817
NMEA,$GNGGA,031217.00,3725.664961,N,12210.009312,W,1,11,1.0,39.2,M,-27.9,M,,*7E,1763349137817
NMEA,$PSMSG,tech=0x1,sensor=0x0,accu=6.432000,h_rel=4,speed=0.000000,time=1763349137000,SV_used=11,l5=0,e5=0*00,1763349137818
NMEA,$GPGSV,4,1,14,06,59,075,46,11,54,165,35,12,45,313,50,17,19,056,40,1*64,1763349138817
NMEA,$GPGSV,4,2,14,19,40,047,47,22,21,104,31,24,53,240,47,25,13,302,40,1*6A,1763349138817
NMEA,$GPGSV,4,3,14,03,00,000,,14,05,112,,20,08,153,,21,00,000,,1*69,1763349138817
NMEA,$GPGSV,4,4,14,29,00,000,,32,00,000,,1*6B,1763349138817
NMEA,$GLGSV,2,1,07,78,35,326,40,86,17,032,46,77,73,087,36,76,27,126,27,1*77,1763349138817
NMEA,$GLGSV,2,2,07,88,48,213,31,87,61,030,43,69,00,000,,1*42,1763349138817
NMEA,$GNGSA,A,3,06,11,12,17,19,22,24,25,,,,,1.2,0.8,0.8,1*38,1763349138827
NMEA,$GNGSA,A,3,78,86,87,88,,,,,,,,,1.2,0.8,0.8,2*3F,1763349138827
NMEA,$GNVTG,,T,,M,0.0,N,0.0,K,A*3D,1763349138827
NMEA,$GNDTM,P90,,0000.000025,S,00000.000001,E,0.981,W84*58,1763349138827
NMEA,$GNRMC,031218.00,A,3725.665880,N,12210.009459,W,0.0,,171125,15.0,E,A,V*56,1763349138827
NMEA,$GNGNS,031218.00,3725.665880,N,12210.009459,W,AA,12,0.8,33.4,-27.9,,,V*20,1763349138827
NMEA,$GNGGA,031218.00,3725.665880,N,12210.009459,W,1,12,0.8,33.4,M,-27.9,M,,*70,1763349138827
NMEA,$PSMSG,tech=0x1,sensor=0x0,accu=5.360000,h_rel=4,speed=0.000000,time=1763349138000,SV_used=12,l5=0,e5=0*00,1763349138833
NMEA,$GPGSV,4,1,14,06,59,075,46,11,54,165,32,12,45,313,44,17,19,056,37,1*66,1763349139818
NMEA,$GPGSV,4,2,14,19,40,047,47,20,08,153,27,22,21,104,32,24,53,240,44,1*62,1763349139818
NMEA,$GPGSV,4,3,14,25,13,302,34,03,00,000,,14,05,112,,21,00,000,,1*67,1763349139818
NMEA,$GPGSV,4,4,14,29,00,000,,32,00,000,,1*6B,1763349139818
NMEA,$GLGSV,2,1,07,78,35,326,43,86,17,032,38,77,73,087,31,76,27,126,28,1*75,1763349139818
NMEA,$GLGSV,2,2,07,88,48,213,27,87,61,030,41,69,00,000,,1*47,1763349139818
NMEA,$GNGSA,A,3,06,11,12,17,19,22,24,25,,,,,1.2,0.8,0.8,1*38,1763349139822
NMEA,$GNGSA,A,3,78,86,87,88,,,,,,,,,1.2,0.8,0.8,2*3F,1763349139822
NMEA,$GNVTG,,T,,M,0.0,N,0.0,K,A*3D,1763349139822
NMEA,$GNDTM,P90,,0000.000025,S,00000.000001,E,0.981,W84*58,1763349139822
NMEA,$GNRMC,031219.00,A,3725.665503,N,12210.009862,W,0.0,,171125,15.0,E,A,V*55,1763349139822
NMEA,$GNGNS,031219.00,3725.665503,N,12210.009862,W,AA,12,0.8,32.4,-27.9,,,V*22,1763349139822
NMEA,$GNGGA,031219.00,3725.665503,N,12210.009862,W,1,12,0.8,32.4,M,-27.9,M,,*72,1763349139822
NMEA,$PSMSG,tech=0x1,sensor=0x0,accu=5.360000,h_rel=4,speed=0.000000,time=1763349139000,SV_used=12,l5=0,e5=0*00,1763349139826
NMEA,$GPGSV,4,1,14,06,59,075,43,11,54,165,31,12,45,313,46,17,19,056,35,1*60,1763349140819
NMEA,$GPGSV,4,2,14,19,40,047,49,20,08,153,27,22,21,104,33,24,53,240,48,1*61,1763349140819
NMEA,$GPGSV,4,3,14,25,13,302,33,03,00,000,,14,05,112,,21,00,000,,1*60,1763349140819
NMEA,$GPGSV,4,4,14,29,00,000,,32,00,000,,1*6B,1763349140819
NMEA,$GLGSV,2,1,07,78,35,326,44,86,17,032,38,77,73,087,33,76,27,126,27,1*7F,1763349140819
NMEA,$GLGSV,2,2,07,88,48,213,27,87,61,030,42,69,00,000,,1*44,1763349140819
NMEA,$GNGSA,A,3,06,11,12,17,19,22,24,25,,,,,1.2,0.8,0.8,1*38,1763349140825
NMEA,$GNGSA,A,3,78,86,87,88,,,,,,,,,1.2,0.8,0.8,2*3F,1763349140825
NMEA,$GNVTG,,T,,M,0.0,N,0.0,K,A*3D,1763349140825
NMEA,$GNDTM,P90,,0000.000025,S,00000.000001,E,0.981,W84*58,1763349140825
NMEA,$GNRMC,031220.00,A,3725.665836,N,12210.010447,W,0.0,,171125,15.0,E,A,V*57,1763349140825
NMEA,$GNGNS,031220.00,3725.665836,N,12210.010447,W,AA,12,0.8,33.2,-27.9,,,V*27,1763349140825
NMEA,$GNGGA,031220.00,3725.665836,N,12210.010447,W,1,12,0.8,33.2,M,-27.9,M,,*77,1763349140825
NMEA,$PSMSG,tech=0x1,sensor=0x0,accu=6.432000,h_rel=4,speed=0.000000,time=1763349140000,SV_used=12,l5=0,e5=0*00,1763349140827
NMEA,$GPGSV,4,1,14,06,59,075,44,11,54,165,33,12,45,313,47,17,19,056,35,1*64,1763349141819
NMEA,$GPGSV,4,2,14,19,40,047,43,20,08,153,26,22,21,104,33,24,53,240,45,1*67,1763349141819
NMEA,$GPGSV,4,3,14,25,13,302,35,03,00,000,,14,05,112,,21,00,000,,1*66,1763349141819
NMEA,$GPGSV,4,4,14,29,00,000,,32,00,000,,1*6B,1763349141819
NMEA,$GLGSV,2,1,07,78,35,326,43,86,17,032,38,77,73,087,34,76,27,126,27,1*7F,1763349141819
NMEA,$GLGSV,2,2,07,88,48,213,36,87,61,030,41,69,00,000,,1*47,1763349141819
NMEA,$GNGSA,A,3,06,11,12,17,19,22,24,25,,,,,1.2,0.8,0.8,1*38,1763349141834
NMEA,$GNGSA,A,3,78,86,87,88,,,,,,,,,1.2,0.8,0.8,2*3F,1763349141834
NMEA,$GNVTG,,T,,M,0.0,N,0.0,K,A*3D,1763349141834
NMEA,$GNDTM,P90,,0000.000025,S,00000.000001,E,0.981,W84*58,1763349141834
NMEA,$GNRMC,031221.00,A,3725.666421,N,12210.010613,W,0.0,,171125,15.0,E,A,V*5C,1763349141834
NMEA,$GNGNS,031221.00,3725.666421,N,12210.010613,W,AA,12,0.8,32.7,-27.9,,,V*28,1763349141834
NMEA,$GNGGA,031221.00,3725.666421,N,12210.010613,W,1,12,0.8,32.7,M,-27.9,M,,*78,1763349141834
NMEA,$PSMSG,tech=0x1,sensor=0x0,accu=6.432000,h_rel=4,speed=0.000000,time=1763349141000,SV_used=12,l5=0,e5=0*00,1763349141837
NMEA,$GPGSV,4,1,14,06,59,075,44,11,54,165,32,12,45,313,44,19,40,047,44,1*62,1763349142820
NMEA,$GPGSV,4,2,14,20,08,153,26,22,21,104,35,24,53,240,47,25,13,302,39,1*65,1763349142820
NMEA,$GPGSV,4,3,14,03,00,000,,14,05,112,,17,19,056,,21,00,000,,1*69,1763349142820
NMEA,$GPGSV,4,4,14,29,00,000,,32,00,000,,1*6B,1763349142820
NMEA,$GLGSV,2,1,07,78,35,326,46,86,17,032,39,77,73,087,33,76,27,126,26,1*7D,1763349142820
NMEA,$GLGSV,2,2,07,88,48,213,36,87,61,030,39,69,00,000,,1*48,1763349142820
NMEA,$GNGSA,A,3,06,11,12,17,19,22,24,25,,,,,1.2,0.8,0.8,1*38,1763349142832
NMEA,$GNGSA,A,3,78,86,87,88,,,,,,,,,1.2,0.8,0.8,2*3F,1763349142832
NMEA,$GNVTG,,T,,M,0.0,N,0.0,K,A*3D,1763349142832
NMEA,$GNDTM,P90,,0000.000025,S,00000.000001,E,0.981,W84*58,1763349142832
NMEA,$GNRMC,031222.00,A,3725.667657,N,12210.011319,W,0.0,,171125,15.0,E,A,V*53,1763349142832
NMEA,$GNGNS,031222.00,3725.667657,N,12210.011319,W,AA,12,0.8,33.2,-27.9,,,V*23,1763349142832
NMEA,$GNGGA,031222.00,3725.667657,N,12210.011319,W,1,12,0.8,33.2,M,-27.9,M,,*73,1763349142832
NMEA,$PSMSG,tech=0x1,sensor=0x0,accu=6.432000,h_rel=4,speed=0.000000,time=1763349142000,SV_used=12,l5=0,e5=0*00,1763349142836
NMEA,$GPGSV,4,1,14,06,59,075,45,11,54,165,28,12,45,313,45,19,40,047,45,1*68,1763349143820
NMEA,$GPGSV,4,2,14,20,08,153,25,22,21,104,27,24,53,240,48,25,13,302,37,1*64,1763349143820
NMEA,$GPGSV,4,3,14,03,00,000,,14,05,112,,17,19,056,,21,00,000,,1*69,1763349143820
NMEA,$GPGSV,4,4,14,29,00,000,,32,00,000,,1*6B,1763349143820
NMEA,$GLGSV,2,1,07,78,35,326,46,86,17,032,38,77,73,087,33,76,27,126,26,1*7C,1763349143820
NMEA,$GLGSV,2,2,07,88,48,213,34,87,61,030,41,69,00,000,,1*45,1763349143820
NMEA,$GNGSA,A,3,06,11,12,17,19,22,24,25,,,,,1.2,0.8,0.8,1*38,1763349143826
NMEA,$GNGSA,A,3,78,86,87,88,,,,,,,,,1.2,0.8,0.8,2*3F,1763349143826
NMEA,$GNVTG,,T,,M,0.0,N,0.0,K,A*3D,1763349143826
NMEA,$GNDTM,P90,,0000.000025,S,00000.000001,E,0.981,W84*58,1763349143826
NMEA,$GNRMC,031223.00,A,3725.668870,N,12210.011866,W,0.0,,171125,15.0,E,A,V*55,1763349143826
NMEA,$GNGNS,031223.00,3725.668870,N,12210.011866,W,AA,12,0.8,33.5,-27.9,,,V*22,1763349143826
NMEA,$GNGGA,031223.00,3725.668870,N,12210.011866,W,1,12,0.8,33.5,M,-27.9,M,,*72,1763349143826
NMEA,$PSMSG,tech=0x1,sensor=0x0,accu=6.432000,h_rel=3,speed=0.000000,time=1763349143000,SV_used=12,l5=0,e5=0*00,1763349143829
NMEA,$GPGSV,4,1,14,06,59,075,46,11,54,165,27,12,45,313,45,19,40,047,44,1*65,1763349144820
NMEA,$GPGSV,4,2,14,20,08,153,25,22,21,104,30,24,53,240,49,25,13,302,39,1*6D,1763349144820
NMEA,$GPGSV,4,3,14,03,00,000,,14,05,112,,17,19,056,,21,00,000,,1*69,1763349144820
NMEA,$GPGSV,4,4,14,29,00,000,,32,00,000,,1*6B,1763349144820
NMEA,$GLGSV,2,1,07,78,35,326,46,86,17,032,41,77,73,087,33,76,27,126,25,1*71,1763349144820
NMEA,$GLGSV,2,2,07,88,48,213,36,87,61,030,41,69,00,000,,1*47,1763349144820
NMEA,$GNGSA,A,3,06,11,12,17,19,22,24,25,,,,,1.2,0.8,0.8,1*38,1763349144827
NMEA,$GNGSA,A,3,78,86,87,88,,,,,,,,,1.2,0.8,0.8,2*3F,1763349144827
NMEA,$GNVTG,,T,,M,0.0,N,0.0,K,A*3D,1763349144827
NMEA,$GNDTM,P90,,0000.000025,S,00000.000001,E,0.981,W84*58,1763349144827
NMEA,$GNRMC,031224.00,A,3725.669691,N,12210.012187,W,0.0,,171125,15.0,E,A,V*57,1763349144827
NMEA,$GNGNS,031224.00,3725.669691,N,12210.012187,W,AA,12,0.8,33.6,-27.9,,,V*23,1763349144827
NMEA,$GNGGA,031224.00,3725.669691,N,12210.012187,W,1,12,0.8,33.6,M,-27.9,M,,*73,1763349144827
NMEA,$PSMSG,tech=0x1,sensor=0x0,accu=6.432000,h_rel=3,speed=0.000000,time=1763349144000,SV_used=12,l5=0,e5=0*00,1763349144831
NMEA,$GPGSV,4,1,14,06,59,075,46,11,54,165,29,12,45,313,45,19,40,047,44,1*6B,1763349145821
NMEA,$GPGSV,4,2,14,20,08,153,24,22,21,104,31,24,53,240,48,25,13,302,39,1*6C,1763349145821
NMEA,$GPGSV,4,3,14,32,00,000,23,03,00,000,,14,05,112,,17,19,056,,1*6A,1763349145821
NMEA,$GPGSV,4,4,14,21,00,000,,29,00,000,,1*69,1763349145821
NMEA,$GLGSV,2,1,07,78,35,326,46,86,17,032,40,77,73,087,34,76,27,126,25,1*77,1763349145821
NMEA,$GLGSV,2,2,07,88,48,213,38,87,61,030,40,69,00,000,,1*48,1763349145821
NMEA,$GNGSA,A,3,06,11,12,17,19,22,24,25,,,,,1.2,0.8,0.8,1*38,1763349145830
NMEA,$GNGSA,A,3,78,86,87,88,,,,,,,,,1.2,0.8,0.8,2*3F,1763349145830
NMEA,$GNVTG,,T,,M,0.0,N,0.0,K,A*3D,1763349145830
NMEA,$GNDTM,P90,,0000.000025,S,00000.000001,E,0.981,W84*58,1763349145830
NMEA,$GNRMC,031225.00,A,3725.670698,N,12210.012588,W,0.0,,171125,15.0,E,A,V*5C,1763349145830
NMEA,$GNGNS,031225.00,3725.670698,N,12210.012588,W,AA,12,0.8,35.0,-27.9,,,V*28,1763349145830
NMEA,$GNGGA,031225.00,3725.670698,N,12210.012588,W,1,12,0.8,35.0,M,-27.9,M,,*78,1763349145830
NMEA,$PSMSG,tech=0x1,sensor=0x0,accu=6.432000,h_rel=4,speed=0.000000,time=1763349145000,SV_used=12,l5=0,e5=0*00,1763349145837
NMEA,$GPGSV,4,1,14,06,59,075,45,11,54,165,29,12,45,313,44,19,40,047,42,1*6F,1763349146821
NMEA,$GPGSV,4,2,14,20,08,153,24,22,21,104,33,24,53,240,47,25,13,302,39,1*61,1763349146821
NMEA,$GPGSV,4,3,14,32,00,000,23,03,00,000,,14,05,112,,17,19,056,,1*6A,1763349146821
NMEA,$GPGSV,4,4,14,21,00,000,,29,00,000,,1*69,1763349146821
NMEA,$GLGSV,2,1,07,78,35,326,46,86,17,032,39,77,73,087,34,76,27,126,25,1*79,1763349146821
NMEA,$GLGSV,2,2,07,88,48,213,39,87,61,030,41,69,00,000,,1*48,1763349146821
NMEA,$GNGSA,A,3,06,11,12,19,22,24,25,,,,,,1.2,0.9,0.8,1*3F,1763349146826
NMEA,$GNGSA,A,3,78,86,87,88,,,,,,,,,1.2,0.9,0.8,2*3E,1763349146826
NMEA,$GNVTG,,T,,M,0.0,N,0.0,K,A*3D,1763349146826
NMEA,$GNDTM,P90,,0000.000025,S,00000.000001,E,0.981,W84*58,1763349146826
NMEA,$GNRMC,031226.00,A,3725.671769,N,12210.012925,W,0.0,,171125,15.0,E,A,V*5A,1763349146826
NMEA,$GNGNS,031226.00,3725.671769,N,12210.012925,W,AA,11,0.9,35.5,-27.9,,,V*29,1763349146826
NMEA,$GNGGA,031226.00,3725.671769,N,12210.012925,W,1,11,0.9,35.5,M,-27.9,M,,*79,1763349146826
NMEA,$PSMSG,tech=0x1,sensor=0x0,accu=6.432000,h_rel=4,speed=0.000000,time=1763349146000,SV_used=11,l5=0,e5=0*00,1763349146830
NMEA,$GPGSV,4,1,14,06,59,075,45,11,54,165,29,12,45,313,45,19,40,047,44,1*68,1763349147825
NMEA,$GPGSV,4,2,14,20,08,153,24,22,21,104,34,24,53,240,49,25,13,302,41,1*67,1763349147825
NMEA,$GPGSV,4,3,14,32,00,000,23,03,00,000,,14,05,112,,17,19,056,,1*6A,1763349147825
NMEA,$GPGSV,4,4,14,21,00,000,,29,00,000,,1*69,1763349147825
NMEA,$GLGSV,2,1,07,78,35,326,49,86,17,032,41,77,73,087,34,76,27,126,25,1*79,1763349147825
NMEA,$GLGSV,2,2,07,88,48,213,40,87,61,030,43,69,00,000,,1*44,1763349147825
NMEA,$GNGSA,A,3,06,11,12,19,22,24,25,,,,,,1.2,0.9,0.8,1*3F,1763349147832
NMEA,$GNGSA,A,3,78,86,87,88,,,,,,,,,1.2,0.9,0.8,2*3E,1763349147832
NMEA,$GNVTG,,T,,M,0.0,N,0.0,K,A*3D,1763349147832
NMEA,$GNDTM,P90,,0000.000025,S,00000.000001,E,0.981,W84*58,1763349147832
NMEA,$GNRMC,031227.00,A,3725.672583,N,12210.013069,W,0.0,,171125,15.0,E,A,V*5E,1763349147832
NMEA,$GNGNS,031227.00,3725.672583,N,12210.013069,W,AA,11,0.9,37.7,-27.9,,,V*2D,1763349147832
NMEA,$GNGGA,031227.00,3725.672583,N,12210.013069,W,1,11,0.9,37.7,M,-27.9,M,,*7D,1763349147832
NMEA,$PSMSG,tech=0x1,sensor=0x0,accu=6.432000,h_rel=4,speed=0.000000,time=1763349147000,SV_used=11,l5=0,e5=0*00,1763349147834
NMEA,$GPGSV,4,1,14,06,59,075,47,11,54,165,31,12,45,313,46,19,40,047,44,1*60,1763349148823
NMEA,$GPGSV,4,2,14,20,08,153,24,22,21,104,35,24,53,240,50,25,13,302,40,1*6F,1763349148823
NMEA,$GPGSV,4,3,14,32,00,000,23,03,00,000,,14,05,112,,17,19,056,,1*6A,1763349148823
NMEA,$GPGSV,4,4,14,21,00,000,,29,00,000,,1*69,1763349148823
NMEA,$GLGSV,2,1,07,78,35,326,49,86,17,032,40,77,73,087,34,76,27,126,25,1*78,1763349148823
NMEA,$GLGSV,2,2,07,88,48,213,41,87,61,030,43,69,00,000,,1*45,1763349148823
NMEA,$GNGSA,A,3,06,11,12,19,22,24,25,,,,,,1.2,0.9,0.8,1*3F,1763349148831
NMEA,$GNGSA,A,3,78,86,87,88,,,,,,,,,1.2,0.9,0.8,2*3E,1763349148831
NMEA,$GNVTG,,T,,M,0.0,N,0.0,K,A*3D,1763349148831
NMEA,$GNDTM,P90,,0000.000025,S,00000.000001,E,0.981,W84*58,1763349148831
NMEA,$GNRMC,031228.00,A,3725.673087,N,12210.013312,W,0.0,,171125,15.0,E,A,V*5E,1763349148831
NMEA,$GNGNS,031228.00,3725.673087,N,12210.013312,W,AA,11,0.9,37.1,-27.9,,,V*2B,1763349148831
NMEA,$GNGGA,031228.00,3725.673087,N,12210.013312,W,1,11,0.9,37.1,M,-27.9,M,,*7B,1763349148831
NMEA,$PSMSG,tech=0x1,sensor=0x0,accu=6.432000,h_rel=4,speed=0.000000,time=1763349148000,SV_used=11,l5=0,e5=0*00,1763349148834
NMEA,$GPGSV,4,1,14,06,59,075,47,11,54,165,35,12,45,313,44,17,19,056,33,1*64,1763349149816
NMEA,$GPGSV,4,2,14,19,40,047,44,20,08,153,24,22,21,104,33,24,53,240,49,1*6E,1763349149816
NMEA,$GPGSV,4,3,14,25,13,302,40,32,00,000,30,03,00,000,,14,05,112,,1*65,1763349149816
NMEA,$GPGSV,4,4,14,21,00,000,,29,00,000,,1*69,1763349149816
NMEA,$GLGSV,2,1,07,78,35,326,49,86,17,032,37,77,73,087,33,76,27,126,25,1*7F,1763349149816
NMEA,$GLGSV,2,2,07,88,48,213,41,87,61,030,41,69,00,000,,1*47,1763349149816
NMEA,$GNGSA,A,3,06,11,12,17,19,22,24,25,,,,,1.2,0.8,0.8,1*38,1763349149826
NMEA,$GNGSA,A,3,78,86,87,88,,,,,,,,,1.2,0.8,0.8,2*3F,1763349149826
NMEA,$GNVTG,,T,,M,0.0,N,0.0,K,A*3D,1763349149826
NMEA,$GNDTM,P90,,0000.000025,S,00000.000001,E,0.981,W84*58,1763349149826
NMEA,$GNRMC,031229.00,A,3725.673576,N,12210.013382,W,0.0,,171125,15.0,E,A,V*5D,1763349149826
NMEA,$GNGNS,031229.00,3725.673576,N,12210.013382,W,AA,12,0.8,40.0,-27.9,,,V*2B,1763349149826
NMEA,$GNGGA,031229.00,3725.673576,N,12210.013382,W,1,12,0.8,40.0,M,-27.9,M,,*7B,1763349149826
NMEA,$PSMSG,tech=0x1,sensor=0x0,accu=5.360000,h_rel=4,speed=0.000000,time=1763349149000,SV_used=12,l5=0,e5=0*00,1763349149833
NMEA,$GPGSV,4,1,14,06,59,075,45,11,54,165,30,12,45,313,43,17,19,056,34,1*63,1763349150823
NMEA,$GPGSV,4,2,14,19,40,047,44,20,08,153,24,22,21,104,37,24,53,240,49,1*6A,1763349150823
NMEA,$GPGSV,4,3,14,25,13,302,40,32,00,000,28,03,00,000,,14,05,112,,1*6C,1763349150823
NMEA,$GPGSV,4,4,14,21,00,000,,29,00,000,,1*69,1763349150823
NMEA,$GLGSV,2,1,07,78,35,326,49,86,17,032,39,77,73,087,32,76,27,126,25,1*70,1763349150823
NMEA,$GLGSV,2,2,07,88,48,213,41,87,61,030,42,69,00,000,,1*44,1763349150823
NMEA,$GNGSA,A,3,06,11,12,17,19,22,24,25,,,,,1.2,0.8,0.8,1*38,1763349150830
NMEA,$GNGSA,A,3,78,86,87,88,,,,,,,,,1.2,0.8,0.8,2*3F,1763349150830
NMEA,$GNVTG,,T,,M,0.0,N,0.0,K,A*3D,1763349150830
NMEA,$GNDTM,P90,,0000.000025,S,00000.000001,E,0.981,W84*58,1763349150830
NMEA,$GNRMC,031230.00,A,3725.673738,N,12210.013494,W,0.0,,171125,15.0,E,A,V*5D,1763349150830
NMEA,$GNGNS,031230.00,3725.673738,N,12210.013494,W,AA,12,0.8,40.3,-27.9,,,V*28,1763349150830
NMEA,$GNGGA,031230.00,3725.673738,N,12210.013494,W,1,12,0.8,40.3,M,-27.9,M,,*78,1763349150830
NMEA,$PSMSG,tech=0x1,sensor=0x0,accu=5.360000,h_rel=4,speed=0.000000,time=1763349150000,SV_used=12,l5=0,e5=0*00,1763349150834
NMEA,$GPGSV,4,1,14,06,59,075,45,11,54,165,32,12,45,313,42,17,19,056,33,1*67,1763349151820
NMEA,$GPGSV,4,2,14,19,40,047,45,20,08,153,24,22,21,104,37,24,53,240,49,1*6B,1763349151820
NMEA,$GPGSV,4,3,14,25,13,302,40,32,00,000,29,03,00,000,,14,05,112,,1*6D,1763349151820
NMEA,$GPGSV,4,4,14,21,00,000,,29,00,000,,1*69,1763349151820
NMEA,$GLGSV,2,1,07,78,35,326,49,86,17,032,39,77,73,087,34,76,27,126,29,1*7A,1763349151820
NMEA,$GLGSV,2,2,07,88,48,213,40,87,61,030,41,69,00,000,,1*46,1763349151820
NMEA,$GNGSA,A,3,06,11,12,17,19,22,24,25,,,,,1.1,0.8,0.8,1*3B,1763349151833
NMEA,$GNGSA,A,3,76,78,86,87,88,,,,,,,,1.1,0.8,0.8,2*3D,1763349151833
NMEA,$GNVTG,,T,,M,0.0,N,0.0,K,A*3D,1763349151833
NMEA,$GNDTM,P90,,0000.000025,S,00000.000001,E,0.981,W84*58,1763349151833
NMEA,$GNRMC,031231.00,A,3725.673792,N,12210.013532,W,0.0,,171125,15.0,E,A,V*51,1763349151833
NMEA,$GNGNS,031231.00,3725.673792,N,12210.013532,W,AA,13,0.8,40.9,-27.9,,,V*2F,1763349151833
NMEA,$GNGGA,031231.00,3725.673792,N,12210.013532,W,1,12,0.8,40.9,M,-27.9,M,,*7E,1763349151833
NMEA,$PSMSG,tech=0x1,sensor=0x0,accu=5.360000,h_rel=4,speed=0.000000,time=1763349151000,SV_used=13,l5=0,e5=0*00,1763349151836
NMEA,$GPGSV,4,1,14,06,59,075,44,11,54,165,34,12,45,313,40,17,19,056,33,1*62,1763349152821
NMEA,$GPGSV,4,2,14,19,40,047,45,20,08,153,24,22,21,104,35,24,53,240,50,1*61,1763349152821
NMEA,$GPGSV,4,3,14,25,13,302,40,32,00,000,30,03,00,000,,14,05,112,,1*65,1763349152821
NMEA,$GPGSV,4,4,14,21,00,000,,29,00,000,,1*69,1763349152821
NMEA,$GLGSV,2,1,07,78,35,326,48,86,17,032,39,77,73,087,36,76,27,126,29,1*79,1763349152821
NMEA,$GLGSV,2,2,07,88,48,213,40,87,61,030,41,69,00,000,,1*46,1763349152821
NMEA,$GNGSA,A,3,06,11,12,17,19,22,24,25,,,,,1.1,0.8,0.8,1*3B,1763349152827
NMEA,$GNGSA,A,3,76,78,86,87,88,,,,,,,,1.1,0.8,0.8,2*3D,1763349152827
NMEA,$GNVTG,,T,,M,0.0,N,0.0,K,A*3D,1763349152827
NMEA,$GNDTM,P90,,0000.000025,S,00000.000001,E,0.981,W84*58,1763349152827
NMEA,$GNRMC,031232.00,A,3725.673747,N,12210.013573,W,0.0,,171125,15.0,E,A,V*5F,1763349152827
NMEA,$GNGNS,031232.00,3725.673747,N,12210.013573,W,AA,13,0.8,40.8,-27.9,,,V*20,1763349152827
NMEA,$GNGGA,031232.00,3725.673747,N,12210.013573,W,1,12,0.8,40.8,M,-27.9,M,,*71,1763349152827
NMEA,$PSMSG,tech=0x1,sensor=0x0,accu=4.288000,h_rel=4,speed=0.000000,time=1763349152000,SV_used=13,l5=0,e5=0*00,1763349152830
NMEA,$GPGSV,4,1,14,06,59,075,44,11,54,165,33,12,45,313,41,17,19,056,32,1*65,1763349153822
NMEA,$GPGSV,4,2,14,19,40,047,43,20,08,153,25,22,21,104,34,24,53,240,47,1*61,1763349153822
NMEA,$GPGSV,4,3,14,25,13,302,39,32,00,000,28,03,00,000,,14,05,112,,1*62,1763349153822
NMEA,$GPGSV,4,4,14,21,00,000,,29,00,000,,1*69,1763349153822
NMEA,$GLGSV,2,1,07,78,35,326,47,86,17,032,38,77,73,087,36,76,27,126,27,1*79,1763349153822
NMEA,$GLGSV,2,2,07,88,48,213,37,87,61,030,40,69,00,000,,1*47,1763349153822
NMEA,$GNGSA,A,3,06,11,12,17,19,22,24,25,,,,,1.1,0.8,0.8,1*3B,1763349153830
NMEA,$GNGSA,A,3,76,78,86,87,88,,,,,,,,1.1,0.8,0.8,2*3D,1763349153830
NMEA,$GNVTG,,T,,M,0.0,N,0.0,K,A*3D,1763349153830
NMEA,$GNDTM,P90,,0000.000025,S,00000.000001,E,0.981,W84*58,1763349153830
NMEA,$GNRMC,031233.00,A,3725.673759,N,12210.013567,W,0.0,,171125,15.0,E,A,V*54,1763349153830
NMEA,$GNGNS,031233.00,3725.673759,N,12210.013567,W,AA,13,0.8,40.9,-27.9,,,V*2A,1763349153830
NMEA,$GNGGA,031233.00,3725.673759,N,12210.013567,W,1,12,0.8,40.9,M,-27.9,M,,*7B,1763349153830
NMEA,$PSMSG,tech=0x1,sensor=0x0,accu=4.288000,h_rel=4,speed=0.000000,time=1763349153000,SV_used=13,l5=0,e5=0*00,1763349153832
NMEA,$GPGSV,4,1,14,06,59,075,44,11,54,165,34,12,45,313,44,17,19,056,33,1*66,1763349154820
NMEA,$GPGSV,4,2,14,19,40,047,42,20,08,153,29,22,21,104,30,24,53,240,48,1*67,1763349154820
NMEA,$GPGSV,4,3,14,25,13,302,38,32,00,000,28,03,00,000,,14,05,112,,1*63,1763349154820
NMEA,$GPGSV,4,4,14,21,00,000,,29,00,000,,1*69,1763349154820
NMEA,$GLGSV,2,1,07,78,35,326,48,86,17,032,37,77,73,087,34,76,27,126,31,1*7C,1763349154820
NMEA,$GLGSV,2,2,07,88,48,213,35,87,61,030,41,69,00,000,,1*44,1763349154820
NMEA,$GNGSA,A,3,06,11,12,17,19,22,24,25,,,,,1.1,0.8,0.8,1*3B,1763349154828
NMEA,$GNGSA,A,3,76,78,86,87,88,,,,,,,,1.1,0.8,0.8,2*3D,1763349154828
NMEA,$GNVTG,,T,,M,0.0,N,0.0,K,A*3D,1763349154828
NMEA,$GNDTM,P90,,0000.000025,S,00000.000001,E,0.981,W84*58,1763349154828
NMEA,$GNRMC,031234.00,A,3725.673736,N,12210.013559,W,0.0,,171125,15.0,E,A,V*57,1763349154828
NMEA,$GNGNS,031234.00,3725.673736,N,12210.013559,W,AA,13,0.8,40.9,-27.9,,,V*29,1763349154828
NMEA,$GNGGA,031234.00,3725.673736,N,12210.013559,W,1,12,0.8,40.9,M,-27.9,M,,*78,1763349154828
NMEA,$PSMSG,tech=0x1,sensor=0x0,accu=4.288000,h_rel=4,speed=0.000000,time=1763349154000,SV_used=13,l5=0,e5=0*00,1763349154831
NMEA,$GPGSV,4,1,14,06,59,075,44,11,54,165,37,12,45,313,43,17,19,056,33,1*62,1763349155820
NMEA,$GPGSV,4,2,14,19,40,047,41,20,08,153,28,22,21,104,31,24,53,240,47,1*6B,1763349155820
NMEA,$GPGSV,4,3,14,25,13,302,37,32,00,000,28,03,00,000,,14,05,112,,1*6C,1763349155820
NMEA,$GPGSV,4,4,14,21,00,000,,29,00,000,,1*69,1763349155820
NMEA,$GLGSV,2,1,07,78,35,326,46,86,17,032,36,77,73,087,34,76,27,126,30,1*72,1763349155820
NMEA,$GLGSV,2,2,07,88,48,213,37,87,61,030,39,69,00,000,,1*49,1763349155820
NMEA,$GNGSA,A,3,06,11,12,17,19,22,24,25,,,,,1.1,0.8,0.8,1*3B,1763349155831
NMEA,$GNGSA,A,3,76,78,86,87,88,,,,,,,,1.1,0.8,0.8,2*3D,1763349155831
NMEA,$GNVTG,,T,,M,0.0,N,0.0,K,A*3D,1763349155831
NMEA,$GNDTM,P90,,0000.000025,S,00000.000001,E,0.981,W84*58,1763349155831
NMEA,$GNRMC,031235.00,A,3725.673726,N,12210.013557,W,0.0,,171125,15.0,E,A,V*59,1763349155831
NMEA,$GNGNS,031235.00,3725.673726,N,12210.013557,W,AA,13,0.8,40.9,-27.9,,,V*27,1763349155831
NMEA,$GNGGA,031235.00,3725.673726,N,12210.013557,W,1,12,0.8,40.9,M,-27.9,M,,*76,1763349155831
NMEA,$PSMSG,tech=0x1,sensor=0x0,accu=4.288000,h_rel=4,speed=0.000000,time=1763349155000,SV_used=13,l5=0,e5=0*00,1763349155840
NMEA,$GPGSV,4,1,14,06,59,075,43,11,54,165,32,12,45,313,42,17,19,056,30,1*62,1763349156825
NMEA,$GPGSV,4,2,14,19,40,047,43,20,08,153,28,22,21,104,35,24,53,240,47,1*6D,1763349156825
NMEA,$GPGSV,4,3,14,25,13,302,39,32,00,000,28,03,00,000,,14,05,112,,1*62,1763349156825
NMEA,$GPGSV,4,4,14,21,00,000,,29,00,000,,1*69,1763349156825
NMEA,$GLGSV,2,1,07,78,35,326,47,86,17,032,34,77,73,087,35,76,27,126,30,1*70,1763349156825
NMEA,$GLGSV,2,2,07,88,48,213,37,87,61,030,40,69,00,000,,1*47,1763349156825
NMEA,$GNGSA,A,3,06,11,12,17,19,22,24,25,,,,,1.1,0.8,0.8,1*3B,1763349156838
NMEA,$GNGSA,A,3,76,78,86,87,88,,,,,,,,1.1,0.8,0.8,2*3D,1763349156838
NMEA,$GNVTG,,T,,M,0.0,N,0.0,K,A*3D,1763349156838
NMEA,$GNDTM,P90,,0000.000025,S,00000.000001,E,0.981,W84*58,1763349156838
NMEA,$GNRMC,031236.00,A,3725.673717,N,12210.013560,W,0.0,,171125,15.0,E,A,V*5C,1763349156838
NMEA,$GNGNS,031236.00,3725.673717,N,12210.013560,W,AA,13,0.8,40.9,-27.9,,,V*22,1763349156838
NMEA,$GNGGA,031236.00,3725.673717,N,12210.013560,W,1,12,0.8,40.9,M,-27.9,M,,*73,1763349156838
NMEA,$PSMSG,tech=0x1,sensor=0x0,accu=4.288000,h_rel=4,speed=0.000000,time=1763349156000,SV_used=13,l5=0,e5=0*00,1763349156845
NMEA,$GPGSV,4,1,14,06,59,075,45,11,54,165,31,12,45,313,41,17,19,056,32,1*66,1763349157824
NMEA,$GPGSV,4,2,14,19,40,047,43,20,08,153,28,22,21,104,34,24,53,240,48,1*63,1763349157824
NMEA,$GPGSV,4,3,14,25,13,302,38,32,00,000,24,03,00,000,,14,05,112,,1*6F,1763349157824
NMEA,$GPGSV,4,4,14,21,00,000,,29,00,000,,1*69,1763349157824
NMEA,$GLGSV,2,1,07,78,35,326,47,86,17,032,36,77,73,087,35,76,27,126,26,1*75,1763349157824
NMEA,$GLGSV,2,2,07,88,48,213,39,87,61,030,40,69,00,000,,1*49,1763349157824
NMEA,$GNGSA,A,3,06,11,12,17,19,22,24,25,,,,,1.1,0.8,0.8,1*3B,1763349157836
NMEA,$GNGSA,A,3,76,78,86,87,88,,,,,,,,1.1,0.8,0.8,2*3D,1763349157836
NMEA,$GNVTG,,T,,M,0.0,N,0.0,K,A*3D,1763349157836
NMEA,$GNDTM,P90,,0000.000025,S,00000.000001,E,0.981,W84*58,1763349157836
NMEA,$GNRMC,031237.00,A,3725.673708,N,12210.013563,W,0.0,,171125,15.0,E,A,V*50,1763349157836
NMEA,$GNGNS,031237.00,3725.673708,N,12210.013563,W,AA,13,0.8,40.9,-27.9,,,V*2E,1763349157836
NMEA,$GNGGA,031237.00,3725.673708,N,12210.013563,W,1,12,0.8,40.9,M,-27.9,M,,*7F,1763349157836
NMEA,$PSMSG,tech=0x1,sensor=0x0,accu=4.288000,h_rel=4,speed=0.000000,time=1763349157000,SV_used=13,l5=0,e5=0*00,1763349157841
NMEA,$GPGSV,4,1,14,06,59,075,45,11,54,165,31,12,45,313,41,17,19,056,33,1*67,1763349158821
NMEA,$GPGSV,4,2,14,19,40,047,43,20,08,153,28,22,21,104,34,24,53,240,49,1*62,1763349158821
NMEA,$GPGSV,4,3,14,25,13,302,39,32,00,000,27,03,00,000,,14,05,112,,1*6D,1763349158821
NMEA,$GPGSV,4,4,14,21,00,000,,29,00,000,,1*69,1763349158821
NMEA,$GLGSV,2,1,07,78,35,326,47,86,17,032,34,77,73,087,35,76,27,126,28,1*79,1763349158821
NMEA,$GLGSV,2,2,07,88,48,213,38,87,61,030,39,69,00,000,,1*46,1763349158821
NMEA,$GNGSA,A,3,06,11,12,17,19,22,24,25,,,,,1.1,0.8,0.8,1*3B,1763349158832
NMEA,$GNGSA,A,3,76,78,86,87,88,,,,,,,,1.1,0.8,0.8,2*3D,1763349158832
NMEA,$GNVTG,,T,,M,0.0,N,0.0,K,A*3D,1763349158832
NMEA,$GNDTM,P90,,0000.000025,S,00000.000001,E,0.981,W84*58,1763349158832
NMEA,$GNRMC,031238.00,A,3725.673705,N,12210.013568,W,0.0,,171125,15.0,E,A,V*59,1763349158832
NMEA,$GNGNS,031238.00,3725.673705,N,12210.013568,W,AA,13,0.8,40.9,-27.9,,,V*27,1763349158832
NMEA,$GNGGA,031238.00,3725.673705,N,12210.013568,W,1,12,0.8,40.9,M,-27.9,M,,*76,1763349158832
NMEA,$PSMSG,tech=0x1,sensor=0x0,accu=4.288000,h_rel=4,speed=0.000000,time=1763349158000,SV_used=13,l5=0,e5=0*00,1763349158835
NMEA,$GPGSV,4,1,14,06,59,075,45,11,54,165,31,12,45,313,40,17,19,056,30,1*65,1763349159820
NMEA,$GPGSV,4,2,14,19,40,047,44,20,08,153,29,22,21,104,36,24,53,240,50,1*6E,1763349159820
NMEA,$GPGSV,4,3,14,25,13,302,39,32,00,000,32,03,00,000,,14,05,112,,1*69,1763349159820
NMEA,$GPGSV,4,4,14,21,00,000,,29,00,000,,1*69,1763349159820
NMEA,$GLGSV,2,1,07,78,35,326,48,86,17,032,35,77,73,087,36,76,27,126,26,1*7A,1763349159820
NMEA,$GLGSV,2,2,07,88,48,213,39,87,61,030,39,69,00,000,,1*47,1763349159820
NMEA,$GNGSA,A,3,06,11,12,17,19,22,24,25,,,,,1.1,0.8,0.8,1*3B,1763349159828
NMEA,$GNGSA,A,3,76,78,86,87,88,,,,,,,,1.1,0.8,0.8,2*3D,1763349159828
NMEA,$GNVTG,,T,,M,0.0,N,0.0,K,A*3D,1763349159828
NMEA,$GNDTM,P90,,0000.000025,S,00000.000001,E,0.981,W84*58,1763349159828
NMEA,$GNRMC,031239.00,A,3725.673699,N,12210.013571,W,0.0,,171125,15.0,E,A,V*54,1763349159828
NMEA,$GNGNS,031239.00,3725.673699,N,12210.013571,W,AA,13,0.8,40.9,-27.9,,,V*2A,1763349159828
NMEA,$GNGGA,031239.00,3725.673699,N,12210.013571,W,1,12,0.8,40.9,M,-27.9,M,,*7B,1763349159828
NMEA,$PSMSG,tech=0x1,sensor=0x0,accu=4.288000,h_rel=4,speed=0.000000,time=1763349159000,SV_used=13,l5=0,e5=0*00,1763349159833
NMEA,$GPGSV,4,1,14,06,59,075,46,11,54,165,34,12,45,313,41,14,05,112,21,1*6D,1763349160825
NMEA,$GPGSV,4,2,14,19,40,047,43,20,08,153,29,22,21,104,34,24,53,240,49,1*63,1763349160825
NMEA,$GPGSV,4,3,14,25,13,302,38,32,00,000,32,03,00,000,,17,19,056,,1*67,1763349160825
NMEA,$GPGSV,4,4,14,21,00,000,,29,00,000,,1*69,1763349160825
NMEA,$GLGSV,2,1,07,78,35,326,47,86,17,032,35,77,73,087,36,76,27,126,32,1*70,1763349160825
NMEA,$GLGSV,2,2,07,88,48,213,39,87,61,030,37,69,00,000,,1*49,1763349160825
NMEA,$GNGSA,A,3,06,11,12,17,19,22,24,25,,,,,1.1,0.8,0.8,1*3B,1763349160831
NMEA,$GNGSA,A,3,76,78,86,87,88,,,,,,,,1.1,0.8,0.8,2*3D,1763349160831
NMEA,$GNVTG,,T,,M,0.0,N,0.0,K,A*3D,1763349160831
NMEA,$GNDTM,P90,,0000.000025,S,00000.000001,E,0.981,W84*58,1763349160831
NMEA,$GNRMC,031240.00,A,3725.673791,N,12210.013625,W,0.0,,171125,15.0,E,A,V*51,1763349160831
NMEA,$GNGNS,031240.00,3725.673791,N,12210.013625,W,AA,13,0.8,41.0,-27.9,,,V*27,1763349160831
NMEA,$GNGGA,031240.00,3725.673791,N,12210.013625,W,1,12,0.8,41.0,M,-27.9,M,,*76,1763349160831
NMEA,$PSMSG,tech=0x1,sensor=0x0,accu=3.216000,h_rel=4,speed=0.000000,time=1763349160000,SV_used=13,l5=0,e5=0*00,1763349160833
NMEA,$GPGSV,4,1,14,06,59,075,46,11,54,165,34,12,45,313,41,14,05,112,22,1*6E,1763349161822
NMEA,$GPGSV,4,2,14,17,19,056,31,19,40,047,42,20,08,153,28,22,21,104,31,1*62,1763349161822
NMEA,$GPGSV,4,3,14,24,53,240,49,25,13,302,38,32,00,000,32,03,00,000,,1*61,1763349161822
NMEA,$GPGSV,4,4,14,21,00,000,,29,00,000,,1*69,1763349161822
NMEA,$GLGSV,2,1,07,78,35,326,46,86,17,032,35,77,73,087,35,76,27,126,32,1*72,1763349161822
NMEA,$GLGSV,2,2,07,88,48,213,40,87,61,030,38,69,00,000,,1*48,1763349161822
NMEA,$GNGSA,A,3,06,11,12,17,19,22,24,25,,,,,1.1,0.8,0.8,1*3B,1763349161832
NMEA,$GNGSA,A,3,76,78,86,87,88,,,,,,,,1.1,0.8,0.8,2*3D,1763349161832
NMEA,$GNVTG,,T,,M,0.0,N,0.0,K,A*3D,1763349161832
NMEA,$GNDTM,P90,,0000.000025,S,00000.000001,E,0.981,W84*58,1763349161832
NMEA,$GNRMC,031241.00,A,3725.673846,N,12210.013660,W,0.0,,171125,15.0,E,A,V*54,1763349161832
NMEA,$GNGNS,031241.00,3725.673846,N,12210.013660,W,AA,13,0.8,41.1,-27.9,,,V*23,1763349161832
NMEA,$GNGGA,031241.00,3725.673846,N,12210.013660,W,1,12,0.8,41.1,M,-27.9,M,,*72,1763349161832
NMEA,$PSMSG,tech=0x1,sensor=0x0,accu=3.216000,h_rel=4,speed=0.000000,time=1763349161000,SV_used=13,l5=0,e5=0*00,1763349161837
NMEA,$GPGSV,4,1,14,06,59,075,46,11,54,165,32,12,45,313,41,14,05,112,22,1*68,1763349162821
NMEA,$GPGSV,4,2,14,19,40,047,41,20,08,153,28,22,21,104,32,24,53,240,49,1*66,1763349162821
NMEA,$GPGSV,4,3,14,25,13,302,38,32,00,000,32,03,00,000,,17,19,056,,1*67,1763349162821
NMEA,$GPGSV,4,4,14,21,00,000,,29,00,000,,1*69,1763349162821
NMEA,$GLGSV,2,1,07,78,35,326,48,86,17,032,35,77,73,087,36,76,27,126,29,1*75,1763349162821
NMEA,$GLGSV,2,2,07,88,48,213,39,87,61,030,36,69,00,000,,1*48,1763349162821
NMEA,$GNGSA,A,3,06,11,12,17,19,22,24,25,,,,,1.1,0.8,0.8,1*3B,1763349162831
NMEA,$GNGSA,A,3,76,78,86,87,88,,,,,,,,1.1,0.8,0.8,2*3D,1763349162831
NMEA,$GNVTG,,T,,M,0.0,N,0.0,K,A*3D,1763349162831
NMEA,$GNDTM,P90,,0000.000025,S,00000.000001,E,0.981,W84*58,1763349162831
NMEA,$GNRMC,031242.00,A,3725.673845,N,12210.013665,W,0.0,,171125,15.0,E,A,V*51,1763349162831
NMEA,$GNGNS,031242.00,3725.673845,N,12210.013665,W,AA,13,0.8,41.1,-27.9,,,V*26,1763349162831
NMEA,$GNGGA,031242.00,3725.673845,N,12210.013665,W,1,12,0.8,41.1,M,-27.9,M,,*77,1763349162831
NMEA,$PSMSG,tech=0x1,sensor=0x0,accu=3.216000,h_rel=4,speed=0.000000,time=1763349162000,SV_used=13,l5=0,e5=0*00,1763349162833
NMEA,$GPGSV,4,1,14,06,59,075,46,11,54,165,29,12,45,313,42,14,05,112,22,1*61,1763349163824
NMEA,$GPGSV,4,2,14,17,19,056,30,19,40,047,40,20,08,153,26,22,21,104,35,1*6B,1763349163824
NMEA,$GPGSV,4,3,14,24,53,240,50,25,13,302,39,32,00,000,32,03,00,000,,1*68,1763349163824
NMEA,$GPGSV,4,4,14,21,00,000,,29,00,000,,1*69,1763349163824
NMEA,$GLGSV,2,1,07,78,35,326,48,86,17,032,36,77,73,087,35,76,27,126,32,1*7F,1763349163824
NMEA,$GLGSV,2,2,07,88,48,213,39,87,61,030,36,69,00,000,,1*48,1763349163824
NMEA,$GNGSA,A,3,06,11,12,17,19,22,24,25,,,,,1.1,0.8,0.8,1*3B,1763349163831
NMEA,$GNGSA,A,3,76,78,86,87,88,,,,,,,,1.1,0.8,0.8,2*3D,1763349163831
NMEA,$GNVTG,,T,,M,0.0,N,0.0,K,A*3D,1763349163831
NMEA,$GNDTM,P90,,0000.000025,S,00000.000001,E,0.981,W84*58,1763349163831
NMEA,$GNRMC,031243.00,A,3725.673846,N,12210.013666,W,0.0,,171125,15.0,E,A,V*50,1763349163831
NMEA,$GNGNS,031243.00,3725.673846,N,12210.013666,W,AA,13,0.8,41.1,-27.9,,,V*27,1763349163831
NMEA,$GNGGA,031243.00,3725.673846,N,12210.013666,W,1,12,0.8,41.1,M,-27.9,M,,*76,1763349163831
NMEA,$PSMSG,tech=0x1,sensor=0x0,accu=3.216000,h_rel=4,speed=0.000000,time=1763349163000,SV_used=13,l5=0,e5=0*00,1763349163833
NMEA,$GPGSV,4,1,14,06,59,075,46,11,54,165,30,12,45,313,42,14,05,112,22,1*69,1763349164821
NMEA,$GPGSV,4,2,14,19,40,047,41,20,08,153,30,22,21,104,38,24,53,240,50,1*6D,1763349164821
NMEA,$GPGSV,4,3,14,25,13,302,40,32,00,000,24,03,00,000,,17,19,056,,1*6F,1763349164821
NMEA,$GPGSV,4,4,14,21,00,000,,29,00,000,,1*69,1763349164821
NMEA,$GLGSV,2,1,07,78,35,326,48,86,17,032,36,77,73,087,36,76,27,126,32,1*7C,1763349164821
NMEA,$GLGSV,2,2,07,88,48,213,38,87,61,030,37,69,00,000,,1*48,1763349164821
NMEA,$GNGSA,A,3,06,11,12,17,19,22,24,25,,,,,1.1,0.8,0.8,1*3B,1763349164832
NMEA,$GNGSA,A,3,76,78,86,87,88,,,,,,,,1.1,0.8,0.8,2*3D,1763349164832
NMEA,$GNVTG,,T,,M,0.0,N,0.0,K,A*3D,1763349164832
NMEA,$GNDTM,P90,,0000.000025,S,00000.000001,E,0.981,W84*58,1763349164832
NMEA,$GNRMC,031244.00,A,3725.673852,N,12210.013668,W,0.0,,171125,15.0,E,A,V*5C,1763349164832
NMEA,$GNGNS,031244.00,3725.673852,N,12210.013668,W,AA,13,0.8,41.1,-27.9,,,V*2B,1763349164832
NMEA,$GNGGA,031244.00,3725.673852,N,12210.013668,W,1,12,0.8,41.1,M,-27.9,M,,*7A,1763349164832
NMEA,$PSMSG,tech=0x1,sensor=0x0,accu=3.216000,h_rel=4,speed=0.000000,time=1763349164000,SV_used=13,l5=0,e5=0*00,1763349164843
NMEA,$GPGSV,4,1,14,06,59,075,45,11,54,165,33,12,45,313,40,14,05,112,22,1*6B,1763349165825
NMEA,$GPGSV,4,2,14,19,40,047,40,20,08,153,30,22,21,104,39,24,53,240,50,1*6D,1763349165825
NMEA,$GPGSV,4,3,14,25,13,302,39,32,00,000,24,03,00,000,,17,19,056,,1*61,1763349165825
NMEA,$GPGSV,4,4,14,21,00,000,,29,00,000,,1*69,1763349165825
NMEA,$GLGSV,2,1,07,78,35,326,48,86,17,032,37,77,73,087,36,76,27,126,29,1*77,1763349165825
NMEA,$GLGSV,2,2,07,88,48,213,35,87,61,030,36,69,00,000,,1*44,1763349165825
NMEA,$GNGSA,A,3,06,11,12,17,19,22,24,25,,,,,1.1,0.8,0.8,1*3B,1763349165831
NMEA,$GNGSA,A,3,76,78,86,87,88,,,,,,,,1.1,0.8,0.8,2*3D,1763349165831
NMEA,$GNVTG,,T,,M,0.0,N,0.0,K,A*3D,1763349165831
NMEA,$GNDTM,P90,,0000.000025,S,00000.000001,E,0.981,W84*58,1763349165831
NMEA,$GNRMC,031245.00,A,3725.673857,N,12210.013672,W,0.0,,171125,15.0,E,A,V*53,1763349165831
NMEA,$GNGNS,031245.00,3725.673857,N,12210.013672,W,AA,13,0.8,41.1,-27.9,,,V*24,1763349165831
NMEA,$GNGGA,031245.00,3725.673857,N,12210.013672,W,1,12,0.8,41.1,M,-27.9,M,,*75,1763349165831
NMEA,$PSMSG,tech=0x1,sensor=0x0,accu=3.216000,h_rel=4,speed=0.000000,time=1763349165000,SV_used=13,l5=0,e5=0*00,1763349165834
NMEA,$GPGSV,4,1,14,06,59,075,47,11,54,165,36,12,45,313,44,14,05,112,24,1*6E,1763349166823
NMEA,$GPGSV,4,2,14,19,40,047,39,20,08,153,30,22,21,104,36,24,53,240,50,1*6C,1763349166823
NMEA,$GPGSV,4,3,14,25,13,302,38,32,00,000,24,03,00,000,,17,19,056,,1*60,1763349166823
NMEA,$GPGSV,4,4,14,21,00,000,,29,00,000,,1*69,1763349166823
NMEA,$GLGSV,2,1,07,78,35,326,48,86,17,032,37,77,73,087,37,76,27,126,27,1*78,1763349166823
NMEA,$GLGSV,2,2,07,88,48,213,33,87,61,030,36,69,00,000,,1*42,1763349166823
NMEA,$GNGSA,A,3,06,11,12,17,19,22,24,25,,,,,1.1,0.8,0.8,1*3B,1763349166833
NMEA,$GNGSA,A,3,76,78,86,87,88,,,,,,,,1.1,0.8,0.8,2*3D,1763349166833
NMEA,$GNVTG,,T,,M,0.0,N,0.0,K,A*3D,1763349166833
NMEA,$GNDTM,P90,,0000.000025,S,00000.000001,E,0.981,W84*58,1763349166833
NMEA,$GNRMC,031246.00,A,3725.673953,N,12210.013723,W,0.0,,171125,15.0,E,A,V*50,1763349166833
NMEA,$GNGNS,031246.00,3725.673953,N,12210.013723,W,AA,13,0.8,41.3,-27.9,,,V*25,1763349166833
NMEA,$GNGGA,031246.00,3725.673953,N,12210.013723,W,1,12,0.8,41.3,M,-27.9,M,,*74,1763349166833
NMEA,$PSMSG,tech=0x1,sensor=0x0,accu=3.216000,h_rel=4,speed=0.000000,time=1763349166000,SV_used=13,l5=0,e5=0*00,1763349166836
NMEA,$GPGSV,4,1,14,06,59,075,48,11,54,165,37,12,45,313,44,14,05,112,24,1*60,1763349167823
NMEA,$GPGSV,4,2,14,19,40,047,36,20,08,153,30,22,21,104,37,24,53,240,51,1*63,1763349167823
NMEA,$GPGSV,4,3,14,25,13,302,39,32,00,000,24,03,00,000,,17,19,056,,1*61,1763349167823
NMEA,$GPGSV,4,4,14,21,00,000,,29,00,000,,1*69,1763349167823
NMEA,$GLGSV,2,1,07,78,35,326,48,86,17,032,37,77,73,087,37,76,27,126,29,1*76,1763349167823
NMEA,$GLGSV,2,2,07,88,48,213,32,87,61,030,38,69,00,000,,1*4D,1763349167823
NMEA,$GNGSA,A,3,06,11,12,17,19,22,24,25,,,,,1.1,0.8,0.8,1*3B,1763349167830
NMEA,$GNGSA,A,3,76,78,86,87,88,,,,,,,,1.1,0.8,0.8,2*3D,1763349167830
NMEA,$GNVTG,,T,,M,0.0,N,0.0,K,A*3D,1763349167830
NMEA,$GNDTM,P90,,0000.000025,S,00000.000001,E,0.981,W84*58,1763349167830
NMEA,$GNRMC,031247.00,A,3725.673951,N,12210.013726,W,0.0,,171125,15.0,E,A,V*56,1763349167830
NMEA,$GNGNS,031247.00,3725.673951,N,12210.013726,W,AA,13,0.8,41.3,-27.9,,,V*23,1763349167830
NMEA,$GNGGA,031247.00,3725.673951,N,12210.013726,W,1,12,0.8,41.3,M,-27.9,M,,*72,1763349167830
NMEA,$PSMSG,tech=0x1,sensor=0x0,accu=3.216000,h_rel=4,speed=0.000000,time=1763349167000,SV_used=13,l5=0,e5=0*00,1763349167834
NMEA,$GPGSV,4,1,14,06,59,075,47,11,54,165,35,12,45,313,46,14,05,112,28,1*63,1763349168822
NMEA,$GPGSV,4,2,14,19,40,047,39,20,08,153,30,22,21,104,38,24,53,240,50,1*62,1763349168822
NMEA,$GPGSV,4,3,14,25,13,302,38,32,00,000,24,03,00,000,,17,19,056,,1*60,1763349168822
NMEA,$GPGSV,4,4,14,21,00,000,,29,00,000,,1*69,1763349168822
NMEA,$GLGSV,2,1,07,78,35,326,48,86,17,032,37,77,73,087,37,76,27,126,29,1*76,1763349168822
NMEA,$GLGSV,2,2,07,88,48,213,29,87,61,030,37,69,00,000,,1*48,1763349168822
NMEA,$GNGSA,A,3,06,11,12,17,19,22,24,25,,,,,1.1,0.8,0.8,1*3B,1763349168830
NMEA,$GNGSA,A,3,76,78,86,87,88,,,,,,,,1.1,0.8,0.8,2*3D,1763349168830
NMEA,$GNVTG,,T,,M,0.0,N,0.0,K,A*3D,1763349168830
NMEA,$GNDTM,P90,,0000.000025,S,00000.000001,E,0.981,W84*58,1763349168830
NMEA,$GNRMC,031248.00,A,3725.673947,N,12210.013728,W,0.0,,171125,15.0,E,A,V*50,1763349168830
NMEA,$GNGNS,031248.00,3725.673947,N,12210.013728,W,AA,13,0.8,41.3,-27.9,,,V*25,1763349168830
NMEA,$GNGGA,031248.00,3725.673947,N,12210.013728,W,1,12,0.8,41.3,M,-27.9,M,,*74,1763349168830
NMEA,$PSMSG,tech=0x1,sensor=0x0,accu=3.216000,h_rel=4,speed=0.000000,time=1763349168000,SV_used=13,l5=0,e5=0*00,1763349168833
NMEA,$GPGSV,4,1,14,06,59,075,48,11,54,165,37,12,46,313,46,14,05,112,30,1*64,1763349169821
NMEA,$GPGSV,4,2,14,19,40,047,37,20,08,153,30,22,21,104,34,24,52,240,50,1*61,1763349169821
NMEA,$GPGSV,4,3,14,25,13,302,39,32,00,000,24,03,00,000,,17,19,056,,1*61,1763349169821
NMEA,$GPGSV,4,4,14,21,00,000,,29,00,000,,1*69,1763349169821
NMEA,$GLGSV,2,1,07,78,35,326,48,86,17,032,35,77,73,087,36,76,27,126,26,1*7A,1763349169821
NMEA,$GLGSV,2,2,07,88,48,213,29,87,61,030,39,69,00,000,,1*46,1763349169821
NMEA,$GNGSA,A,3,06,11,12,19,22,24,25,,,,,,1.1,0.8,0.8,1*3D,1763349169827
NMEA,$GNGSA,A,3,76,78,86,87,88,,,,,,,,1.1,0.8,0.8,2*3D,1763349169827
NMEA,$GNVTG,,T,,M,0.0,N,0.0,K,A*3D,1763349169827
NMEA,$GNDTM,P90,,0000.000025,S,00000.000001,E,0.981,W84*58,1763349169827
NMEA,$GNRMC,031249.00,A,3725.673941,N,12210.013728,W,0.0,,171125,15.0,E,A,V*57,1763349169827
NMEA,$GNGNS,031249.00,3725.673941,N,12210.013728,W,AA,12,0.8,41.2,-27.9,,,V*22,1763349169827
NMEA,$GNGGA,031249.00,3725.673941,N,12210.013728,W,1,12,0.8,41.2,M,-27.9,M,,*72,1763349169827
NMEA,$PSMSG,tech=0x1,sensor=0x0,accu=3.216000,h_rel=4,speed=0.000000,time=1763349169000,SV_used=12,l5=0,e5=0*00,1763349169833
NMEA,$GPGSV,4,1,14,06,59,075,46,11,54,165,35,12,46,313,47,14,05,112,31,1*68,1763349170823
NMEA,$GPGSV,4,2,14,19,40,047,40,20,08,153,30,22,21,104,31,24,52,240,50,1*64,1763349170823
NMEA,$GPGSV,4,3,14,25,13,302,40,32,00,000,24,03,00,000,,17,19,056,,1*6F,1763349170823
NMEA,$GPGSV,4,4,14,21,00,000,,29,00,000,,1*69,1763349170823
NMEA,$GLGSV,2,1,07,78,35,326,49,86,17,032,31,77,73,087,37,76,27,126,27,1*7F,1763349170823
NMEA,$GLGSV,2,2,07,88,48,213,29,87,61,030,39,69,00,000,,1*46,1763349170823
NMEA,$GNGSA,A,3,06,11,12,14,19,22,24,25,,,,,1.1,0.8,0.8,1*38,1763349170832
NMEA,$GNGSA,A,3,76,78,86,87,88,,,,,,,,1.1,0.8,0.8,2*3D,1763349170832
NMEA,$GNVTG,,T,,M,0.0,N,0.0,K,A*3D,1763349170832
NMEA,$GNDTM,P90,,0000.000025,S,00000.000001,E,0.981,W84*58,1763349170832
NMEA,$GNRMC,031250.00,A,3725.673930,N,12210.013730,W,0.0,,171125,15.0,E,A,V*50,1763349170832
NMEA,$GNGNS,031250.00,3725.673930,N,12210.013730,W,AA,13,0.8,41.2,-27.9,,,V*24,1763349170832
NMEA,$GNGGA,031250.00,3725.673930,N,12210.013730,W,1,12,0.8,41.2,M,-27.9,M,,*75,1763349170832
NMEA,$PSMSG,tech=0x1,sensor=0x0,accu=3.216000,h_rel=4,speed=0.000000,time=1763349170000,SV_used=13,l5=0,e5=0*00,1763349170834
NMEA,$GPGSV,4,1,14,06,59,075,45,11,54,165,34,12,46,313,47,14,05,112,31,1*6A,1763349171817
NMEA,$GPGSV,4,2,14,19,40,047,39,20,08,153,30,22,21,104,36,24,52,240,50,1*6D,1763349171817
NMEA,$GPGSV,4,3,14,25,13,302,39,32,00,000,24,03,00,000,,17,19,056,,1*61,1763349171817
NMEA,$GPGSV,4,4,14,21,00,000,,29,00,000,,1*69,1763349171817
NMEA,$GLGSV,2,1,07,78,35,326,49,86,17,032,33,77,73,087,36,76,27,126,29,1*72,1763349171817
NMEA,$GLGSV,2,2,07,88,48,213,26,87,61,030,38,69,00,000,,1*48,1763349171817
NMEA,$GNGSA,A,3,06,11,12,14,19,22,24,25,,,,,1.1,0.8,0.8,1*38,1763349171821
NMEA,$GNGSA,A,3,76,78,86,87,88,,,,,,,,1.1,0.8,0.8,2*3D,1763349171821
NMEA,$GNVTG,,T,,M,0.0,N,0.0,K,A*3D,1763349171821
NMEA,$GNDTM,P90,,0000.000025,S,00000.000001,E,0.981,W84*58,1763349171821
NMEA,$GNRMC,031251.00,A,3725.673987,N,12210.013762,W,0.0,,171125,15.0,E,A,V*5A,1763349171821
NMEA,$GNGNS,031251.00,3725.673987,N,12210.013762,W,AA,13,0.8,41.3,-27.9,,,V*2F,1763349171821
NMEA,$GNGGA,031251.00,3725.673987,N,12210.013762,W,1,12,0.8,41.3,M,-27.9,M,,*7E,1763349171821
NMEA,$PSMSG,tech=0x1,sensor=0x0,accu=3.216000,h_rel=4,speed=0.000000,time=1763349171000,SV_used=13,l5=0,e5=0*00,1763349171822
NMEA,$GPGSV,4,1,14,06,59,075,44,11,54,165,34,12,46,313,45,14,05,112,30,1*68,1763349172823
NMEA,$GPGSV,4,2,14,19,40,047,38,20,08,153,30,22,21,104,29,24,52,240,48,1*6B,1763349172823
NMEA,$GPGSV,4,3,14,25,13,302,37,32,00,000,24,03,00,000,,17,19,056,,1*6F,1763349172823
NMEA,$GPGSV,4,4,14,21,00,000,,29,00,000,,1*69,1763349172823
NMEA,$GLGSV,2,1,07,78,35,326,46,86,17,032,34,77,73,087,32,76,27,126,30,1*76,1763349172823
NMEA,$GLGSV,2,2,07,88,48,213,26,87,61,030,37,69,00,000,,1*47,1763349172823
NMEA,$GNGSA,A,3,06,11,12,14,19,22,24,25,,,,,1.1,0.8,0.8,1*38,1763349172833
NMEA,$GNGSA,A,3,76,78,86,87,88,,,,,,,,1.1,0.8,0.8,2*3D,1763349172833
NMEA,$GNVTG,,T,,M,0.0,N,0.0,K,A*3D,1763349172833
NMEA,$GNDTM,P90,,0000.000025,S,00000.000001,E,0.981,W84*58,1763349172833
NMEA,$GNRMC,031252.00,A,3725.673977,N,12210.013759,W,0.0,,171125,15.0,E,A,V*5E,1763349172833
NMEA,$GNGNS,031252.00,3725.673977,N,12210.013759,W,AA,13,0.8,41.3,-27.9,,,V*2B,1763349172833
NMEA,$GNGGA,031252.00,3725.673977,N,12210.013759,W,1,12,0.8,41.3,M,-27.9,M,,*7A,1763349172833
NMEA,$PSMSG,tech=0x1,sensor=0x0,accu=3.216000,h_rel=4,speed=0.000000,time=1763349172000,SV_used=13,l5=0,e5=0*00,1763349172836
NMEA,$GPGSV,4,1,14,06,59,075,43,11,54,165,31,12,46,313,45,14,05,112,29,1*62,1763349173823
NMEA,$GPGSV,4,2,14,19,40,047,36,20,08,153,30,22,21,104,30,24,52,240,47,1*62,1763349173823
NMEA,$GPGSV,4,3,14,25,13,302,37,32,00,000,24,03,00,000,,17,19,056,,1*6F,1763349173823
NMEA,$GPGSV,4,4,14,21,00,000,,29,00,000,,1*69,1763349173823
NMEA,$GLGSV,2,1,07,78,35,326,46,86,17,032,33,77,73,087,31,76,27,126,27,1*74,1763349173823
NMEA,$GLGSV,2,2,07,88,48,213,24,87,61,030,34,69,00,000,,1*46,1763349173823
NMEA,$GNGSA,A,3,06,11,12,14,19,22,24,25,,,,,1.1,0.8,0.8,1*38,1763349173830
NMEA,$GNGSA,A,3,76,78,86,87,88,,,,,,,,1.1,0.8,0.8,2*3D,1763349173830
NMEA,$GNVTG,,T,,M,0.0,N,0.0,K,A*3D,1763349173830
NMEA,$GNDTM,P90,,0000.000025,S,00000.000001,E,0.981,W84*58,1763349173830
NMEA,$GNRMC,031253.00,A,3725.674038,N,12210.013797,W,0.0,,171125,15.0,E,A,V*58,1763349173830
NMEA,$GNGNS,031253.00,3725.674038,N,12210.013797,W,AA,13,0.8,41.4,-27.9,,,V*2A,1763349173830
NMEA,$GNGGA,031253.00,3725.674038,N,12210.013797,W,1,12,0.8,41.4,M,-27.9,M,,*7B,1763349173830
NMEA,$PSMSG,tech=0x1,sensor=0x0,accu=3.216000,h_rel=4,speed=0.000000,time=1763349173000,SV_used=13,l5=0,e5=0*00,1763349173832
NMEA,$GPGSV,4,1,14,06,59,075,48,11,54,165,30,12,46,313,49,14,05,112,29,1*64,1763349174823
NMEA,$GPGSV,4,2,14,19,40,047,44,20,08,153,30,22,21,104,40,24,52,240,51,1*67,1763349174823
NMEA,$GPGSV,4,3,14,25,13,302,38,32,00,000,24,03,00,000,,17,19,056,,1*60,1763349174823
NMEA,$GPGSV,4,4,14,21,00,000,,29,00,000,,1*69,1763349174823
NMEA,$GLGSV,2,1,07,78,35,326,44,86,17,032,44,77,73,087,35,76,27,126,27,1*72,1763349174823
NMEA,$GLGSV,2,2,07,88,48,213,32,87,61,030,42,69,00,000,,1*40,1763349174823
NMEA,$GNGSA,A,3,06,11,12,14,19,22,24,25,,,,,1.1,0.8,0.8,1*38,1763349174830
NMEA,$GNGSA,A,3,76,78,86,87,88,,,,,,,,1.1,0.8,0.8,2*3D,1763349174830
NMEA,$GNVTG,,T,,M,0.0,N,0.0,K,A*3D,1763349174830
NMEA,$GNDTM,P90,,0000.000025,S,00000.000001,E,0.981,W84*58,1763349174830
NMEA,$GNRMC,031254.00,A,3725.674036,N,12210.013797,W,0.0,,171125,15.0,E,A,V*51,1763349174830
NMEA,$GNGNS,031254.00,3725.674036,N,12210.013797,W,AA,13,0.8,41.4,-27.9,,,V*23,1763349174830
NMEA,$GNGGA,031254.00,3725.674036,N,12210.013797,W,1,12,0.8,41.4,M,-27.9,M,,*72,1763349174830
NMEA,$PSMSG,tech=0x1,sensor=0x0,accu=3.216000,h_rel=4,speed=0.000000,time=1763349174000,SV_used=13,l5=0,e5=0*00,1763349174832
NMEA,$GPGSV,4,1,14,06,59,075,50,12,46,313,51,14,05,112,29,19,40,047,45,1*6A,1763349175823
NMEA,$GPGSV,4,2,14,20,08,153,30,22,21,104,40,24,52,240,53,25,13,302,39,1*64,1763349175823
NMEA,$GPGSV,4,3,14,32,00,000,24,03,00,000,,11,54,165,,17,19,056,,1*6C,1763349175823
NMEA,$GPGSV,4,4,14,21,00,000,,29,00,000,,1*69,1763349175823
NMEA,$GLGSV,2,1,07,78,35,326,47,86,17,032,48,77,73,087,38,76,27,126,26,1*71,1763349175823
NMEA,$GLGSV,2,2,07,88,48,213,34,87,61,030,43,69,00,000,,1*47,1763349175823
NMEA,$GNGSA,A,3,06,11,12,14,19,22,24,25,,,,,1.1,0.8,0.8,1*38,1763349175829
NMEA,$GNGSA,A,3,76,78,86,87,88,,,,,,,,1.1,0.8,0.8,2*3D,1763349175829
NMEA,$GNVTG,,T,,M,0.0,N,0.0,K,A*3D,1763349175829
NMEA,$GNDTM,P90,,0000.000025,S,00000.000001,E,0.981,W84*58,1763349175829
NMEA,$GNRMC,031255.00,A,3725.674023,N,12210.013792,W,0.0,,171125,15.0,E,A,V*51,1763349175829
NMEA,$GNGNS,031255.00,3725.674023,N,12210.013792,W,AA,13,0.8,41.3,-27.9,,,V*24,1763349175829
NMEA,$GNGGA,031255.00,3725.674023,N,12210.013792,W,1,12,0.8,41.3,M,-27.9,M,,*75,1763349175829
NMEA,$PSMSG,tech=0x1,sensor=0x0,accu=3.216000,h_rel=4,speed=0.000000,time=1763349175000,SV_used=13,l5=0,e5=0*00,1763349175831
NMEA,$GPGSV,4,1,14,06,59,075,49,12,46,313,51,14,05,112,29,19,40,047,45,1*62,1763349176819
NMEA,$GPGSV,4,2,14,20,08,153,30,22,21,104,39,24,52,240,52,25,13,302,38,1*6A,1763349176819
NMEA,$GPGSV,4,3,14,32,00,000,24,03,00,000,,11,54,165,,17,19,056,,1*6C,1763349176819
NMEA,$GPGSV,4,4,14,21,00,000,,29,00,000,,1*69,1763349176819
NMEA,$GLGSV,2,1,07,78,35,326,46,86,17,032,48,77,73,087,38,76,27,126,30,1*77,1763349176819
NMEA,$GLGSV,2,2,07,88,48,213,32,87,61,030,44,69,00,000,,1*46,1763349176819
NMEA,$GNGSA,A,3,06,11,12,14,19,22,24,25,,,,,1.1,0.8,0.8,1*38,1763349176827
NMEA,$GNGSA,A,3,76,78,86,87,88,,,,,,,,1.1,0.8,0.8,2*3D,1763349176827
NMEA,$GNVTG,,T,,M,0.0,N,0.0,K,A*3D,1763349176827
NMEA,$GNDTM,P90,,0000.000025,S,00000.000001,E,0.981,W84*58,1763349176827
NMEA,$GNRMC,031256.00,A,3725.674021,N,12210.013794,W,0.0,,171125,15.0,E,A,V*56,1763349176827
NMEA,$GNGNS,031256.00,3725.674021,N,12210.013794,W,AA,13,0.8,41.3,-27.9,,,V*23,1763349176827
NMEA,$GNGGA,031256.00,3725.674021,N,12210.013794,W,1,12,0.8,41.3,M,-27.9,M,,*72,1763349176827
NMEA,$PSMSG,tech=0x1,sensor=0x0,accu=3.216000,h_rel=4,speed=0.000000,time=1763349176000,SV_used=13,l5=0,e5=0*00,1763349176831
NMEA,$GPGSV,4,1,14,06,59,075,50,12,46,313,51,14,05,112,29,19,40,047,44,1*6B,1763349177820
NMEA,$GPGSV,4,2,14,20,08,153,28,22,21,104,41,24,52,240,53,25,13,302,40,1*62,1763349177820
NMEA,$GPGSV,4,3,14,32,00,000,24,03,00,000,,11,54,165,,17,19,056,,1*6C,1763349177820
NMEA,$GPGSV,4,4,14,21,00,000,,29,00,000,,1*69,1763349177820
NMEA,$GLGSV,2,1,07,78,35,326,46,86,17,032,47,77,73,087,39,76,27,126,29,1*71,1763349177820
NMEA,$GLGSV,2,2,07,88,48,213,32,87,61,030,45,69,00,000,,1*47,1763349177820
NMEA,$GNGSA,A,3,06,11,12,19,22,24,25,,,,,,1.1,0.8,0.8,1*3D,1763349177831
NMEA,$GNGSA,A,3,76,78,86,87,88,,,,,,,,1.1,0.8,0.8,2*3D,1763349177831
NMEA,$GNVTG,,T,,M,0.0,N,0.0,K,A*3D,1763349177831
NMEA,$GNDTM,P90,,0000.000025,S,00000.000001,E,0.981,W84*58,1763349177831
NMEA,$GNRMC,031257.00,A,3725.674010,N,12210.013790,W,0.0,,171125,15.0,E,A,V*51,1763349177831
NMEA,$GNGNS,031257.00,3725.674010,N,12210.013790,W,AA,12,0.8,41.2,-27.9,,,V*24,1763349177831
NMEA,$GNGGA,031257.00,3725.674010,N,12210.013790,W,1,12,0.8,41.2,M,-27.9,M,,*74,1763349177831
NMEA,$PSMSG,tech=0x1,sensor=0x0,accu=3.216000,h_rel=4,speed=0.000000,time=1763349177000,SV_used=12,l5=0,e5=0*00,1763349177835
NMEA,$GPGSV,4,1,14,06,59,075,48,11,54,165,33,12,46,313,47,14,05,112,29,1*69,1763349178820
NMEA,$GPGSV,4,2,14,19,40,047,47,20,08,153,31,22,21,104,37,24,52,240,44,1*61,1763349178820
NMEA,$GPGSV,4,3,14,25,13,302,42,32,00,000,24,03,00,000,,17,19,056,,1*6D,1763349178820
NMEA,$GPGSV,4,4,14,21,00,000,,29,00,000,,1*69,1763349178820
NMEA,$GLGSV,2,1,07,78,35,326,47,86,17,032,33,77,73,087,35,76,27,126,29,1*7F,1763349178820
NMEA,$GLGSV,2,2,07,88,48,213,32,87,61,030,38,69,00,000,,1*4D,1763349178820
NMEA,$GNGSA,A,3,06,11,12,19,20,22,24,25,,,,,1.1,0.8,0.8,1*3F,1763349178827
NMEA,$GNGSA,A,3,76,78,86,87,88,,,,,,,,1.1,0.8,0.8,2*3D,1763349178827
NMEA,$GNVTG,,T,,M,0.0,N,0.0,K,A*3D,1763349178827
NMEA,$GNDTM,P90,,0000.000025,S,00000.000001,E,0.981,W84*58,1763349178827
NMEA,$GNRMC,031258.00,A,3725.673993,N,12210.013787,W,0.0,,171125,15.0,E,A,V*5D,1763349178827
NMEA,$GNGNS,031258.00,3725.673993,N,12210.013787,W,AA,13,0.8,41.2,-27.9,,,V*29,1763349178827
NMEA,$GNGGA,031258.00,3725.673993,N,12210.013787,W,1,12,0.8,41.2,M,-27.9,M,,*78,1763349178827
NMEA,$PSMSG,tech=0x1,sensor=0x0,accu=3.216000,h_rel=4,speed=0.000000,time=1763349178000,SV_used=13,l5=0,e5=0*00,1763349178831
NMEA,$GPGSV,4,1,14,06,59,075,47,11,54,165,33,12,46,313,46,14,05,112,29,1*67,1763349179825
NMEA,$GPGSV,4,2,14,19,40,047,43,20,08,153,28,22,21,104,36,24,52,240,44,1*6C,1763349179825
NMEA,$GPGSV,4,3,14,25,13,302,41,32,00,000,22,03,00,000,,17,19,056,,1*68,1763349179825
NMEA,$GPGSV,4,4,14,21,00,000,,29,00,000,,1*69,1763349179825
NMEA,$GLGSV,2,1,07,78,35,326,46,86,17,032,34,77,73,087,36,76,27,126,29,1*7A,1763349179825
NMEA,$GLGSV,2,2,07,88,48,213,34,87,61,030,36,69,00,000,,1*45,1763349179825
NMEA,$GNGSA,A,3,06,11,12,19,20,22,24,25,,,,,1.1,0.8,0.8,1*3F,1763349179831
NMEA,$GNGSA,A,3,76,78,86,87,88,,,,,,,,1.1,0.8,0.8,2*3D,1763349179831
NMEA,$GNVTG,,T,,M,0.0,N,0.0,K,A*3D,1763349179831
NMEA,$GNDTM,P90,,0000.000025,S,00000.000001,E,0.981,W84*58,1763349179831
NMEA,$GNRMC,031259.00,A,3725.673979,N,12210.013782,W,0.0,,171125,15.0,E,A,V*5D,1763349179831
NMEA,$GNGNS,031259.00,3725.673979,N,12210.013782,W,AA,13,0.8,41.2,-27.9,,,V*29,1763349179831
NMEA,$GNGGA,031259.00,3725.673979,N,12210.013782,W,1,12,0.8,41.2,M,-27.9,M,,*78,1763349179831
NMEA,$PSMSG,tech=0x1,sensor=0x0,accu=3.216000,h_rel=4,speed=0.000000,time=1763349179000,SV_used=13,l5=0,e5=0*00,1763349179833
NMEA,$GPGSV,4,1,14,06,59,075,46,11,54,165,24,12,46,313,46,14,05,112,29,1*60,1763349180822
NMEA,$GPGSV,4,2,14,19,40,047,44,20,08,153,32,22,21,104,35,24,52,240,43,1*64,1763349180822
NMEA,$GPGSV,4,3,14,25,13,302,41,32,00,000,29,03,00,000,,17,19,056,,1*63,1763349180822
NMEA,$GPGSV,4,4,14,21,00,000,,29,00,000,,1*69,1763349180822
NMEA,$GLGSV,2,1,07,78,35,326,46,86,17,032,35,77,73,087,35,76,27,126,27,1*76,1763349180822
NMEA,$GLGSV,2,2,07,88,48,213,27,87,61,030,38,69,00,000,,1*49,1763349180822
NMEA,$GNGSA,A,3,06,11,12,19,20,22,24,25,,,,,1.1,0.8,0.8,1*3F,1763349180831
NMEA,$GNGSA,A,3,76,78,86,87,88,,,,,,,,1.1,0.8,0.8,2*3D,1763349180831
NMEA,$GNVTG,,T,,M,0.0,N,0.0,K,A*3D,1763349180831
NMEA,$GNDTM,P90,,0000.000025,S,00000.000001,E,0.981,W84*58,1763349180831
NMEA,$GNRMC,031300.00,A,3725.673971,N,12210.013782,W,0.0,,171125,15.0,E,A,V*58,1763349180831
NMEA,$GNGNS,031300.00,3725.673971,N,12210.013782,W,AA,13,0.8,41.2,-27.9,,,V*2C,1763349180831
NMEA,$GNGGA,031300.00,3725.673971,N,12210.013782,W,1,12,0.8,41.2,M,-27.9,M,,*7D,1763349180831
NMEA,$PSMSG,tech=0x1,sensor=0x0,accu=3.216000,h_rel=4,speed=0.000000,time=1763349180000,SV_used=13,l5=0,e5=0*00,1763349180833
NMEA,$GPGSV,4,1,14,06,59,075,47,11,54,165,27,12,46,313,47,14,05,112,29,1*63,1763349181819
NMEA,$GPGSV,4,2,14,19,40,047,45,20,08,153,32,22,21,104,34,24,52,240,43,1*64,1763349181819
NMEA,$GPGSV,4,3,14,25,13,302,41,32,00,000,31,03,00,000,,17,19,056,,1*6A,1763349181819
NMEA,$GPGSV,4,4,14,21,00,000,,29,00,000,,1*69,1763349181819
NMEA,$GLGSV,2,1,07,78,35,326,46,86,17,032,37,77,73,087,35,76,27,126,29,1*7A,1763349181819
NMEA,$GLGSV,2,2,07,88,48,213,28,87,61,030,38,69,00,000,,1*46,1763349181819
NMEA,$GNGSA,A,3,06,11,12,19,20,22,24,25,,,,,1.1,0.8,0.8,1*3F,1763349181823
NMEA,$GNGSA,A,3,76,78,86,87,88,,,,,,,,1.1,0.8,0.8,2*3D,1763349181823
NMEA,$GNVTG,,T,,M,0.0,N,0.0,K,A*3D,1763349181823
NMEA,$GNDTM,P90,,0000.000025,S,00000.000001,E,0.981,W84*58,1763349181823
NMEA,$GNRMC,031301.00,A,3725.674024,N,12210.013830,W,0.0,,171125,15.0,E,A,V*51,1763349181823
NMEA,$GNGNS,031301.00,3725.674024,N,12210.013830,W,AA,13,0.8,41.3,-27.9,,,V*24,1763349181823
NMEA,$GNGGA,031301.00,3725.674024,N,12210.013830,W,1,12,0.8,41.3,M,-27.9,M,,*75,1763349181823
NMEA,$PSMSG,tech=0x1,sensor=0x0,accu=3.216000,h_rel=4,speed=0.000000,time=1763349181000,SV_used=13,l5=0,e5=0*00,1763349181825
NMEA,$GPGSV,4,1,14,06,59,075,47,11,54,165,27,12,46,313,47,14,05,112,29,1*63,1763349182823
NMEA,$GPGSV,4,2,14,17,19,056,32,19,40,047,47,20,08,153,35,22,21,104,35,1*6C,1763349182823
NMEA,$GPGSV,4,3,14,24,52,240,44,25,13,302,40,32,00,000,31,03,00,000,,1*61,1763349182823
NMEA,$GPGSV,4,4,14,21,00,000,,29,00,000,,1*69,1763349182823
NMEA,$GLGSV,2,1,07,78,35,326,47,86,17,032,39,77,73,087,35,76,27,126,30,1*7D,1763349182823
NMEA,$GLGSV,2,2,07,88,48,213,32,87,61,030,40,69,00,000,,1*42,1763349182823
NMEA,$GNGSA,A,3,06,11,12,17,19,20,22,24,25,,,,1.0,0.7,0.8,1*37,1763349182829
NMEA,$GNGSA,A,3,76,78,86,87,88,,,,,,,,1.0,0.7,0.8,2*33,1763349182829
NMEA,$GNVTG,,T,,M,0.0,N,0.0,K,A*3D,1763349182829
NMEA,$GNDTM,P90,,0000.000025,S,00000.000001,E,0.981,W84*58,1763349182829
NMEA,$GNRMC,031302.00,A,3725.674018,N,12210.013833,W,0.0,,171125,15.0,E,A,V*5E,1763349182829
NMEA,$GNGNS,031302.00,3725.674018,N,12210.013833,W,AA,14,0.7,41.3,-27.9,,,V*23,1763349182829
NMEA,$GNGGA,031302.00,3725.674018,N,12210.013833,W,1,12,0.7,41.3,M,-27.9,M,,*75,1763349182829
NMEA,$PSMSG,tech=0x1,sensor=0x0,accu=3.216000,h_rel=4,speed=0.000000,time=1763349182000,SV_used=14,l5=0,e5=0*00,1763349182831
NMEA,$GPGSV,4,1,14,06,59,075,46,11,54,165,31,12,46,313,47,14,05,112,29,1*65,1763349183822
NMEA,$GPGSV,4,2,14,17,19,056,33,19,40,047,48,20,08,153,33,22,21,104,34,1*65,1763349183822
NMEA,$GPGSV,4,3,14,24,52,240,44,25,13,302,38,32,00,000,31,03,00,000,,1*6E,1763349183822
NMEA,$GPGSV,4,4,14,21,00,000,,29,00,000,,1*69,1763349183822
NMEA,$GLGSV,2,1,07,78,35,326,47,86,17,032,37,77,73,087,37,76,27,126,29,1*79,1763349183822
NMEA,$GLGSV,2,2,07,88,48,213,32,87,61,030,40,69,00,000,,1*42,1763349183822
NMEA,$GNGSA,A,3,06,11,12,17,19,20,22,24,25,,,,1.0,0.7,0.8,1*37,1763349183830
NMEA,$GNGSA,A,3,76,78,86,87,88,,,,,,,,1.0,0.7,0.8,2*33,1763349183830
NMEA,$GNVTG,,T,,M,0.0,N,0.0,K,A*3D,1763349183830
NMEA,$GNDTM,P90,,0000.000025,S,00000.000001,E,0.981,W84*58,1763349183830
NMEA,$GNRMC,031303.00,A,3725.674018,N,12210.013838,W,0.0,,171125,15.0,E,A,V*54,1763349183830
NMEA,$GNGNS,031303.00,3725.674018,N,12210.013838,W,AA,14,0.7,41.3,-27.9,,,V*29,1763349183830
NMEA,$GNGGA,031303.00,3725.674018,N,12210.013838,W,1,12,0.7,41.3,M,-27.9,M,,*7F,1763349183830
NMEA,$PSMSG,tech=0x1,sensor=0x0,accu=3.216000,h_rel=4,speed=0.000000,time=1763349183000,SV_used=14,l5=0,e5=0*00,1763349183833
NMEA,$GPGSV,4,1,14,06,59,075,46,11,54,165,35,12,46,313,47,14,05,112,29,1*61,1763349184823
NMEA,$GPGSV,4,2,14,17,19,056,33,19,40,047,47,20,08,153,33,22,21,104,34,1*6A,1763349184823
NMEA,$GPGSV,4,3,14,24,52,240,44,25,13,302,38,32,00,000,31,03,00,000,,1*6E,1763349184823
NMEA,$GPGSV,4,4,14,21,00,000,,29,00,000,,1*69,1763349184823
NMEA,$GLGSV,2,1,07,78,35,326,48,86,17,032,38,77,73,087,38,76,27,126,26,1*79,1763349184823
NMEA,$GLGSV,2,2,07,88,48,213,36,87,61,030,41,69,00,000,,1*47,1763349184823
NMEA,$GNGSA,A,3,06,11,12,17,19,20,22,24,25,,,,1.0,0.7,0.8,1*37,1763349184830
NMEA,$GNGSA,A,3,76,78,86,87,88,,,,,,,,1.0,0.7,0.8,2*33,1763349184830
NMEA,$GNVTG,,T,,M,0.0,N,0.0,K,A*3D,1763349184830
NMEA,$GNDTM,P90,,0000.000025,S,00000.000001,E,0.981,W84*58,1763349184830
NMEA,$GNRMC,031304.00,A,3725.674019,N,12210.013839,W,0.0,,171125,15.0,E,A,V*53,1763349184830
NMEA,$GNGNS,031304.00,3725.674019,N,12210.013839,W,AA,14,0.7,41.3,-27.9,,,V*2E,1763349184830
NMEA,$GNGGA,031304.00,3725.674019,N,12210.013839,W,1,12,0.7,41.3,M,-27.9,M,,*78,1763349184830
NMEA,$PSMSG,tech=0x1,sensor=0x0,accu=3.216000,h_rel=4,speed=0.000000,time=1763349184000,SV_used=14,l5=0,e5=0*00,1763349184832
NMEA,$GPGSV,4,1,14,06,59,075,48,11,54,165,34,12,46,313,48,14,05,112,29,1*61,1763349185822
NMEA,$GPGSV,4,2,14,17,19,056,33,19,40,047,46,20,08,153,32,22,21,104,31,1*6F,1763349185822
NMEA,$GPGSV,4,3,14,24,52,240,45,25,13,302,40,32,00,000,26,03,00,000,,1*66,1763349185822
NMEA,$GPGSV,4,4,14,21,00,000,,29,00,000,,1*69,1763349185822
NMEA,$GLGSV,2,1,07,78,35,326,48,86,17,032,39,77,73,087,38,76,27,126,29,1*77,1763349185822
NMEA,$GLGSV,2,2,07,88,49,213,34,87,61,030,40,69,00,000,,1*45,1763349185822
NMEA,$GNGSA,A,3,06,11,12,17,19,20,22,24,25,,,,1.0,0.7,0.8,1*37,1763349185829
NMEA,$GNGSA,A,3,76,78,86,87,88,,,,,,,,1.0,0.7,0.8,2*33,1763349185829
NMEA,$GNVTG,,T,,M,0.0,N,0.0,K,A*3D,1763349185829
NMEA,$GNDTM,P90,,0000.000025,S,00000.000001,E,0.981,W84*58,1763349185829
NMEA,$GNRMC,031305.00,A,3725.674018,N,12210.013842,W,0.0,,171125,15.0,E,A,V*5F,1763349185829
NMEA,$GNGNS,031305.00,3725.674018,N,12210.013842,W,AA,14,0.7,41.3,-27.9,,,V*22,1763349185829
NMEA,$GNGGA,031305.00,3725.674018,N,12210.013842,W,1,12,0.7,41.3,M,-27.9,M,,*74,1763349185829
NMEA,$PSMSG,tech=0x1,sensor=0x0,accu=3.216000,h_rel=4,speed=0.000000,time=1763349185000,SV_used=14,l5=0,e5=0*00,1763349185832
NMEA,$GPGSV,4,1,14,06,59,075,47,11,54,165,35,12,46,313,48,14,05,112,29,1*6F,1763349186877
NMEA,$GPGSV,4,2,14,17,19,056,34,19,40,047,45,20,08,153,31,22,21,104,35,1*6C,1763349186877
NMEA,$GPGSV,4,3,14,24,52,240,45,25,13,302,39,32,00,000,28,03,00,000,,1*66,1763349186877
NMEA,$GPGSV,4,4,14,21,00,000,,29,00,000,,1*69,1763349186877
NMEA,$GLGSV,2,1,07,78,35,326,48,86,17,032,36,77,73,087,37,76,27,126,33,1*7C,1763349186877
NMEA,$GLGSV,2,2,07,88,49,213,38,87,61,030,38,69,00,000,,1*46,1763349186877
NMEA,$GNGSA,A,3,06,11,12,17,19,20,22,24,25,,,,1.0,0.7,0.8,1*37,1763349186891
NMEA,$GNGSA,A,3,76,78,86,87,88,,,,,,,,1.0,0.7,0.8,2*33,1763349186891
NMEA,$GNVTG,,T,,M,0.0,N,0.0,K,A*3D,1763349186891
NMEA,$GNDTM,P90,,0000.000025,S,00000.000001,E,0.981,W84*58,1763349186891
NMEA,$GNRMC,031306.00,A,3725.674024,N,12210.013847,W,0.0,,171125,15.0,E,A,V*56,1763349186891
NMEA,$GNGNS,031306.00,3725.674024,N,12210.013847,W,AA,14,0.7,41.4,-27.9,,,V*2C,1763349186891
NMEA,$GNGGA,031306.00,3725.674024,N,12210.013847,W,1,12,0.7,41.4,M,-27.9,M,,*7A,1763349186891
NMEA,$PSMSG,tech=0x1,sensor=0x0,accu=3.216000,h_rel=4,speed=0.000000,time=1763349186000,SV_used=14,l5=0,e5=0*00,1763349186892
NMEA,$GPGSV,4,1,14,06,59,075,47,11,54,165,34,12,46,313,48,14,05,112,29,1*6E,1763349187827
NMEA,$GPGSV,4,2,14,17,19,056,34,19,40,047,46,20,08,153,28,22,21,104,35,1*67,1763349187827
NMEA,$GPGSV,4,3,14,24,52,240,45,25,13,302,38,32,00,000,28,03,00,000,,1*67,1763349187827
NMEA,$GPGSV,4,4,14,21,00,000,,29,00,000,,1*69,1763349187827
NMEA,$GLGSV,2,1,07,78,35,326,49,86,17,032,38,77,73,087,38,76,27,126,29,1*77,1763349187827
NMEA,$GLGSV,2,2,07,88,49,213,36,87,61,030,37,69,00,000,,1*47,1763349187827
NMEA,$GNGSA,A,3,06,11,12,17,19,20,22,24,25,,,,1.0,0.7,0.8,1*37,1763349187844
NMEA,$GNGSA,A,3,76,78,86,87,88,,,,,,,,1.0,0.7,0.8,2*33,1763349187844
NMEA,$GNVTG,,T,,M,0.0,N,0.0,K,A*3D,1763349187844
NMEA,$GNDTM,P90,,0000.000025,S,00000.000001,E,0.981,W84*58,1763349187844
NMEA,$GNRMC,031307.00,A,3725.674031,N,12210.013854,W,0.0,,171125,15.0,E,A,V*51,1763349187844
NMEA,$GNGNS,031307.00,3725.674031,N,12210.013854,W,AA,14,0.7,41.4,-27.9,,,V*2B,1763349187844
NMEA,$GNGGA,031307.00,3725.674031,N,12210.013854,W,1,12,0.7,41.4,M,-27.9,M,,*7D,1763349187844
NMEA,$PSMSG,tech=0x1,sensor=0x0,accu=3.216000,h_rel=4,speed=0.000000,time=1763349187000,SV_used=14,l5=0,e5=0*00,1763349187845
NMEA,$GPGSV,4,1,14,06,59,075,48,11,54,165,34,12,46,313,48,14,05,112,29,1*61,1763349188824
NMEA,$GPGSV,4,2,14,19,40,047,46,20,08,153,28,22,21,104,39,24,52,240,45,1*67,1763349188824
NMEA,$GPGSV,4,3,14,25,13,302,37,32,00,000,27,03,00,000,,17,19,056,,1*6C,1763349188824
NMEA,$GPGSV,4,4,14,21,00,000,,29,00,000,,1*69,1763349188824
NMEA,$GLGSV,2,1,07,78,35,326,50,86,17,032,40,77,73,087,38,76,27,126,32,1*7A,1763349188824
NMEA,$GLGSV,2,2,07,88,49,213,38,87,61,030,37,69,00,000,,1*49,1763349188824
NMEA,$GNGSA,A,3,06,11,12,17,19,20,22,24,25,,,,1.0,0.7,0.8,1*37,1763349188832
NMEA,$GNGSA,A,3,76,78,86,87,88,,,,,,,,1.0,0.7,0.8,2*33,1763349188832
NMEA,$GNVTG,,T,,M,0.0,N,0.0,K,A*3D,1763349188832
