NMEA,$GPGSV,3,1,11,01,17,077,48,02,11,046,33,07,25,119,34,13,55,267,38,1*69,1763337420809
NMEA,$GPGSV,3,2,11,14,65,021,45,15,28,293,40,17,68,165,49,19,46,189,41,1*6B,1763337420809
NMEA,$GPGSV,3,3,11,22,69,333,46,30,53,115,50,24,00,000,,1*59,1763337420809
NMEA,$GLGSV,3,1,10,86,28,142,38,77,11,288,27,76,47,326,49,75,39,053,47,1*71,1763337420809
NMEA,$GLGSV,3,2,10,65,21,216,22,84,08,023,35,85,38,066,41,67,14,329,25,1*76,1763337420809
NMEA,$GLGSV,3,3,10,74,00,000,,87,00,000,,1*75,1763337420809
NMEA,$GNGSA,A,3,01,02,07,13,14,15,17,19,22,30,,,1.1,0.8,0.8,1*3B,1763337420818
NMEA,$GNGSA,A,3,75,76,84,85,86,,,,,,,,1.1,0.8,0.8,2*3E,1763337420818
NMEA,$GNVTG,,T,,M,0.0,N,0.0,K,A*3D,1763337420818
NMEA,$GNDTM,P90,,0000.000025,S,00000.000001,E,0.981,W84*58,1763337420818
NMEA,$GNRMC,235700.00,A,3725.698544,N,12210.006870,W,0.0,,161125,15.0,E,A,V*52,1763337420818
NMEA,$GNGNS,235700.00,3725.698544,N,12210.006870,W,AA,15,0.8,24.8,-27.9,,,V*28,1763337420818
NMEA,$GNGGA,235700.00,3725.698544,N,12210.006870,W,1,12,0.8,24.8,M,-27.9,M,,*7F,1763337420818
NMEA,$PSMSG,tech=0x1,sensor=0x0,accu=3.216000,h_rel=4,speed=0.000000,time=1763337420000,SV_used=15,l5=0,e5=0*00,1763337420819
NMEA,$GPGSV,3,1,11,01,17,077,46,02,11,046,32,07,25,119,35,13,55,267,39,1*66,1763337421811
NMEA,$GPGSV,3,2,11,14,65,021,46,15,28,293,32,17,68,165,49,19,46,189,43,1*6F,1763337421811
NMEA,$GPGSV,3,3,11,22,69,333,45,30,53,115,48,24,00,000,,1*53,1763337421811
NMEA,$GLGSV,3,1,10,86,28,142,40,77,11,288,27,76,47,326,46,75,39,053,49,1*7F,1763337421811
NMEA,$GLGSV,3,2,10,65,21,216,28,84,08,023,38,85,38,066,44,67,14,329,25,1*74,1763337421811
NMEA,$GLGSV,3,3,10,74,00,000,,87,00,000,,1*75,1763337421811
NMEA,$GNGSA,A,3,01,02,07,13,14,15,17,19,22,30,,,1.1,0.8,0.8,1*3B,1763337421818
NMEA,$GNGSA,A,3,75,76,84,85,86,,,,,,,,1.1,0.8,0.8,2*3E,1763337421818
NMEA,$GNVTG,,T,,M,0.0,N,0.0,K,A*3D,1763337421818
NMEA,$GNDTM,P90,,0000.000025,S,00000.000001,E,0.981,W84*58,1763337421818
NMEA,$GNRMC,235701.00,A,3725.698562,N,12210.006968,W,0.0,,161125,15.0,E,A,V*5F,1763337421818
NMEA,$GNGNS,235701.00,3725.698562,N,12210.006968,W,AA,15,0.8,24.8,-27.9,,,V*25,1763337421818
NMEA,$GNGGA,235701.00,3725.698562,N,12210.006968,W,1,12,0.8,24.8,M,-27.9,M,,*72,1763337421818
NMEA,$PSMSG,tech=0x1,sensor=0x0,accu=3.216000,h_rel=4,speed=0.000000,time=1763337421000,SV_used=15,l5=0,e5=0*00,1763337421820
NMEA,$GPGSV,3,1,11,01,17,077,47,02,11,046,36,07,25,119,30,13,55,267,38,1*67,1763337422810
NMEA,$GPGSV,3,2,11,14,65,021,41,15,28,293,43,17,68,165,51,19,46,189,45,1*61,1763337422810
NMEA,$GPGSV,3,3,11,22,69,333,46,30,53,115,48,24,00,000,,1*50,1763337422810
NMEA,$GLGSV,3,1,10,86,28,142,40,77,11,288,24,76,47,326,47,75,39,053,47,1*73,1763337422810
NMEA,$GLGSV,3,2,10,65,21,216,28,84,08,023,39,85,38,066,45,67,14,329,23,1*72,1763337422810
NMEA,$GLGSV,3,3,10,74,00,000,,87,00,000,,1*75,1763337422810
NMEA,$GNGSA,A,3,01,02,07,13,14,15,17,19,22,30,,,1.1,0.8,0.8,1*3B,1763337422817
NMEA,$GNGSA,A,3,75,76,84,85,86,,,,,,,,1.1,0.8,0.8,2*3E,1763337422817
NMEA,$GNVTG,,T,,M,0.0,N,0.0,K,A*3D,1763337422817
NMEA,$GNDTM,P90,,0000.000025,S,00000.000001,E,0.981,W84*58,1763337422817
NMEA,$GNRMC,235702.00,A,3725.698578,N,12210.007005,W,0.0,,161125,15.0,E,A,V*54,1763337422817
NMEA,$GNGNS,235702.00,3725.698578,N,12210.007005,W,AA,15,0.8,24.9,-27.9,,,V*2F,1763337422817
NMEA,$GNGGA,235702.00,3725.698578,N,12210.007005,W,1,12,0.8,24.9,M,-27.9,M,,*78,1763337422817
NMEA,$PSMSG,tech=0x1,sensor=0x0,accu=3.216000,h_rel=4,speed=0.000000,time=1763337422000,SV_used=15,l5=0,e5=0*00,1763337422819
NMEA,$GPGSV,3,1,11,01,17,077,47,02,11,046,39,07,25,119,30,13,55,267,43,1*64,1763337423810
NMEA,$GPGSV,3,2,11,14,65,021,40,15,28,293,45,17,68,165,52,19,46,189,46,1*66,1763337423810
NMEA,$GPGSV,3,3,11,22,69,333,47,30,53,115,50,24,00,000,,1*58,1763337423810
NMEA,$GLGSV,3,1,10,86,28,142,40,77,11,288,24,76,47,326,47,75,39,053,46,1*72,1763337423810
NMEA,$GLGSV,3,2,10,65,21,216,28,84,08,023,38,85,38,066,44,67,14,329,28,1*79,1763337423810
NMEA,$GLGSV,3,3,10,74,00,000,,87,00,000,,1*75,1763337423810
NMEA,$GNGSA,A,3,01,02,07,13,14,15,17,19,22,30,,,1.1,0.8,0.8,1*3B,1763337423817
NMEA,$GNGSA,A,3,75,76,84,85,86,,,,,,,,1.1,0.8,0.8,2*3E,1763337423817
NMEA,$GNVTG,,T,,M,0.0,N,0.0,K,A*3D,1763337423817
NMEA,$GNDTM,P90,,0000.000025,S,00000.000001,E,0.981,W84*58,1763337423817
NMEA,$GNRMC,235703.00,A,3725.698584,N,12210.007017,W,0.0,,161125,15.0,E,A,V*55,1763337423817
NMEA,$GNGNS,235703.00,3725.698584,N,12210.007017,W,AA,15,0.8,25.0,-27.9,,,V*26,1763337423817
NMEA,$GNGGA,235703.00,3725.698584,N,12210.007017,W,1,12,0.8,25.0,M,-27.9,M,,*71,1763337423817
NMEA,$PSMSG,tech=0x1,sensor=0x0,accu=3.216000,h_rel=4,speed=0.000000,time=1763337423000,SV_used=15,l5=0,e5=0*00,1763337423820
NMEA,$GPGSV,3,1,11,01,17,077,46,02,11,046,38,07,25,119,26,13,55,267,42,1*62,1763337424814
NMEA,$GPGSV,3,2,11,14,65,021,39,15,28,293,44,17,68,165,51,19,46,189,46,1*6A,1763337424814
NMEA,$GPGSV,3,3,11,22,69,333,46,30,53,115,49,24,00,000,,1*51,1763337424814
NMEA,$GLGSV,3,1,10,86,28,142,39,77,11,288,24,76,47,326,47,75,39,053,46,1*7C,1763337424814
NMEA,$GLGSV,3,2,10,65,21,216,23,84,08,023,37,85,38,066,45,67,14,329,28,1*7C,1763337424814
NMEA,$GLGSV,3,3,10,74,00,000,,87,00,000,,1*75,1763337424814
NMEA,$GNGSA,A,3,01,02,07,13,14,15,17,19,22,30,,,1.1,0.8,0.8,1*3B,1763337424827
NMEA,$GNGSA,A,3,75,76,84,85,86,,,,,,,,1.1,0.8,0.8,2*3E,1763337424827
NMEA,$GNVTG,,T,,M,0.0,N,0.0,K,A*3D,1763337424827
NMEA,$GNDTM,P90,,0000.000025,S,00000.000001,E,0.981,W84*58,1763337424827
NMEA,$GNRMC,235704.00,A,3725.698589,N,12210.007020,W,0.0,,161125,15.0,E,A,V*5B,1763337424827
NMEA,$GNGNS,235704.00,3725.698589,N,12210.007020,W,AA,15,0.8,25.0,-27.9,,,V*28,1763337424827
NMEA,$GNGGA,235704.00,3725.698589,N,12210.007020,W,1,12,0.8,25.0,M,-27.9,M,,*7F,1763337424827
NMEA,$PSMSG,tech=0x1,sensor=0x0,accu=3.216000,h_rel=4,speed=0.000000,time=1763337424000,SV_used=15,l5=0,e5=0*00,1763337424829
NMEA,$GPGSV,3,1,11,01,17,077,47,02,11,046,40,07,25,119,26,13,55,267,45,1*6B,1763337425811
NMEA,$GPGSV,3,2,11,14,65,021,39,15,28,293,44,17,68,165,51,19,46,189,46,1*6A,1763337425811
NMEA,$GPGSV,3,3,11,22,69,333,46,30,53,115,51,24,00,000,,1*58,1763337425811
NMEA,$GLGSV,3,1,10,86,28,142,39,77,11,288,24,76,47,326,47,75,39,053,46,1*7C,1763337425811
NMEA,$GLGSV,3,2,10,65,21,216,24,84,08,023,39,85,38,066,43,67,14,329,32,1*78,1763337425811
NMEA,$GLGSV,3,3,10,74,00,000,,87,00,000,,1*75,1763337425811
NMEA,$GNGSA,A,3,01,02,07,13,14,15,17,19,22,30,,,1.1,0.8,0.8,1*3B,1763337425819
NMEA,$GNGSA,A,3,75,76,84,85,86,,,,,,,,1.1,0.8,0.8,2*3E,1763337425819
NMEA,$GNVTG,,T,,M,0.0,N,0.0,K,A*3D,1763337425819
NMEA,$GNDTM,P90,,0000.000025,S,00000.000001,E,0.981,W84*58,1763337425819
NMEA,$GNRMC,235705.00,A,3725.698590,N,12210.007019,W,0.0,,161125,15.0,E,A,V*58,1763337425819
NMEA,$GNGNS,235705.00,3725.698590,N,12210.007019,W,AA,15,0.8,25.0,-27.9,,,V*2B,1763337425819
NMEA,$GNGGA,235705.00,3725.698590,N,12210.007019,W,1,12,0.8,25.0,M,-27.9,M,,*7C,1763337425819
NMEA,$PSMSG,tech=0x1,sensor=0x0,accu=3.216000,h_rel=4,speed=0.000000,time=1763337425000,SV_used=15,l5=0,e5=0*00,1763337425826
NMEA,$GPGSV,3,1,11,01,17,077,48,02,11,046,39,07,25,119,26,13,55,267,46,1*69,1763337426809
NMEA,$GPGSV,3,2,11,14,65,021,39,15,28,293,44,17,68,165,51,19,46,189,46,1*6A,1763337426809
NMEA,$GPGSV,3,3,11,22,69,333,47,30,53,115,51,24,00,000,,1*59,1763337426809
NMEA,$GLGSV,3,1,10,86,28,142,39,77,11,288,24,76,47,326,47,75,39,053,47,1*7D,1763337426809
NMEA,$GLGSV,3,2,10,65,21,216,24,84,08,023,38,85,38,066,44,67,14,329,31,1*7D,1763337426809
NMEA,$GLGSV,3,3,10,74,00,000,,87,00,000,,1*75,1763337426809
NMEA,$GNGSA,A,3,01,02,07,13,14,15,17,19,22,30,,,1.1,0.8,0.8,1*3B,1763337426817
NMEA,$GNGSA,A,3,75,76,84,85,86,,,,,,,,1.1,0.8,0.8,2*3E,1763337426817
NMEA,$GNVTG,,T,,M,0.0,N,0.0,K,A*3D,1763337426817
NMEA,$GNDTM,P90,,0000.000025,S,00000.000001,E,0.981,W84*58,1763337426817
NMEA,$GNRMC,235706.00,A,3725.698592,N,12210.007016,W,0.0,,161125,15.0,E,A,V*56,1763337426817
NMEA,$GNGNS,235706.00,3725.698592,N,12210.007016,W,AA,15,0.8,25.0,-27.9,,,V*25,1763337426817
NMEA,$GNGGA,235706.00,3725.698592,N,12210.007016,W,1,12,0.8,25.0,M,-27.9,M,,*72,1763337426817
NMEA,$PSMSG,tech=0x1,sensor=0x0,accu=3.216000,h_rel=4,speed=0.000000,time=1763337426000,SV_used=15,l5=0,e5=0*00,1763337426819
NMEA,$GPGSV,3,1,11,01,17,077,48,02,11,046,39,07,25,119,26,13,55,267,46,1*69,1763337427812
NMEA,$GPGSV,3,2,11,14,65,021,38,15,28,293,44,17,68,165,51,19,46,189,46,1*6B,1763337427812
NMEA,$GPGSV,3,3,11,22,69,333,46,30,53,115,51,24,00,000,,1*58,1763337427812
NMEA,$GLGSV,3,1,10,86,28,142,38,77,11,288,24,76,47,326,47,75,39,053,45,1*7E,1763337427812
NMEA,$GLGSV,3,2,10,65,21,216,24,84,08,023,38,85,38,066,44,67,14,329,33,1*7F,1763337427812
NMEA,$GLGSV,3,3,10,74,00,000,,87,00,000,,1*75,1763337427812
NMEA,$GNGSA,A,3,01,02,13,14,15,17,19,22,30,,,,1.1,0.8,0.8,1*3C,1763337427817
NMEA,$GNGSA,A,3,75,76,84,85,86,,,,,,,,1.1,0.8,0.8,2*3E,1763337427817
NMEA,$GNVTG,,T,,M,0.0,N,0.0,K,A*3D,1763337427817
NMEA,$GNDTM,P90,,0000.000025,S,00000.000001,E,0.981,W84*58,1763337427817
NMEA,$GNRMC,235707.00,A,3725.698592,N,12210.007011,W,0.0,,161125,15.0,E,A,V*50,1763337427817
NMEA,$GNGNS,235707.00,3725.698592,N,12210.007011,W,AA,14,0.8,25.1,-27.9,,,V*23,1763337427817
NMEA,$GNGGA,235707.00,3725.698592,N,12210.007011,W,1,12,0.8,25.1,M,-27.9,M,,*75,1763337427817
NMEA,$PSMSG,tech=0x1,sensor=0x0,accu=3.216000,h_rel=4,speed=0.000000,time=1763337427000,SV_used=14,l5=0,e5=0*00,1763337427819
NMEA,$GPGSV,3,1,11,01,17,077,47,02,11,046,36,07,25,119,27,13,55,267,44,1*6A,1763337428814
NMEA,$GPGSV,3,2,11,14,65,021,40,15,28,293,43,17,68,165,50,19,46,189,46,1*62,1763337428814
NMEA,$GPGSV,3,3,11,22,69,333,46,30,53,115,50,24,00,000,,1*59,1763337428814
NMEA,$GLGSV,3,1,10,86,28,142,39,77,11,288,24,76,47,326,46,75,39,053,46,1*7D,1763337428814
NMEA,$GLGSV,3,2,10,65,21,216,27,84,08,023,38,85,38,066,43,67,14,329,31,1*79,1763337428814
NMEA,$GLGSV,3,3,10,74,00,000,,87,00,000,,1*75,1763337428814
NMEA,$GNGSA,A,3,01,02,13,14,15,17,19,22,30,,,,1.1,0.8,0.8,1*3C,1763337428823
NMEA,$GNGSA,A,3,75,76,84,85,86,,,,,,,,1.1,0.8,0.8,2*3E,1763337428823
NMEA,$GNVTG,,T,,M,0.0,N,0.0,K,A*3D,1763337428823
NMEA,$GNDTM,P90,,0000.000025,S,00000.000001,E,0.981,W84*58,1763337428823
NMEA,$GNRMC,235708.00,A,3725.698593,N,12210.007003,W,0.0,,161125,15.0,E,A,V*5D,1763337428823
NMEA,$GNGNS,235708.00,3725.698593,N,12210.007003,W,AA,14,0.8,25.1,-27.9,,,V*2E,1763337428823
NMEA,$GNGGA,235708.00,3725.698593,N,12210.007003,W,1,12,0.8,25.1,M,-27.9,M,,*78,1763337428823
NMEA,$PSMSG,tech=0x1,sensor=0x0,accu=3.216000,h_rel=4,speed=0.000000,time=1763337428000,SV_used=14,l5=0,e5=0*00,1763337428826
NMEA,$GPGSV,3,1,11,01,17,077,48,02,11,046,30,07,25,119,33,13,55,267,46,1*64,1763337429810
NMEA,$GPGSV,3,2,11,14,65,021,43,15,28,293,40,17,68,165,46,19,46,189,41,1*62,1763337429810
NMEA,$GPGSV,3,3,11,22,69,333,42,30,53,115,48,24,00,000,,1*54,1763337429810
NMEA,$GLGSV,3,1,10,86,28,142,36,77,11,288,24,76,47,326,37,75,39,053,45,1*77,1763337429810
NMEA,$GLGSV,3,2,10,65,21,216,28,84,08,023,38,85,38,066,48,67,14,329,32,1*7E,1763337429810
NMEA,$GLGSV,3,3,10,74,00,000,,87,00,000,,1*75,1763337429810
NMEA,$GNGSA,A,3,01,02,07,13,14,15,17,19,22,30,,,1.1,0.8,0.8,1*3B,1763337429818
NMEA,$GNGSA,A,3,75,76,84,85,86,,,,,,,,1.1,0.8,0.8,2*3E,1763337429818
NMEA,$GNVTG,,T,,M,0.0,N,0.0,K,A*3D,1763337429818
NMEA,$GNDTM,P90,,0000.000025,S,00000.000001,E,0.981,W84*58,1763337429818
NMEA,$GNRMC,235709.00,A,3725.698589,N,12210.006997,W,0.0,,161125,15.0,E,A,V*52,1763337429818
NMEA,$GNGNS,235709.00,3725.698589,N,12210.006997,W,AA,15,0.8,25.1,-27.9,,,V*20,1763337429818
NMEA,$GNGGA,235709.00,3725.698589,N,12210.006997,W,1,12,0.8,25.1,M,-27.9,M,,*77,1763337429818
NMEA,$PSMSG,tech=0x1,sensor=0x0,accu=3.216000,h_rel=4,speed=0.000000,time=1763337429000,SV_used=15,l5=0,e5=0*00,1763337429821
NMEA,$GPGSV,3,1,11,01,17,077,47,02,11,046,31,07,25,119,39,13,55,267,46,1*60,1763337430811
NMEA,$GPGSV,3,2,11,14,65,021,45,15,28,293,34,17,68,165,49,19,46,189,42,1*6B,1763337430811
NMEA,$GPGSV,3,3,11,22,69,333,42,30,53,115,50,24,00,000,,1*5D,1763337430811
NMEA,$GLGSV,3,1,10,86,28,142,42,77,11,288,24,76,47,326,40,75,39,053,46,1*77,1763337430811
NMEA,$GLGSV,3,2,10,65,21,216,32,84,08,023,39,85,38,066,46,67,14,329,29,1*70,1763337430811
NMEA,$GLGSV,3,3,10,74,00,000,,87,00,000,,1*75,1763337430811
NMEA,$GNGSA,A,3,01,02,07,13,14,15,17,19,22,30,,,1.0,0.7,0.7,1*3A,1763337430818
NMEA,$GNGSA,A,3,65,75,76,84,85,86,,,,,,,1.0,0.7,0.7,2*3C,1763337430818
NMEA,$GNVTG,,T,,M,0.0,N,0.0,K,A*3D,1763337430818
NMEA,$GNDTM,P90,,0000.000025,S,00000.000001,E,0.981,W84*58,1763337430818
NMEA,$GNRMC,235710.00,A,3725.698606,N,12210.006994,W,0.0,,161125,15.0,E,A,V*5D,1763337430818
NMEA,$GNGNS,235710.00,3725.698606,N,12210.006994,W,AA,16,0.7,25.2,-27.9,,,V*20,1763337430818
NMEA,$GNGGA,235710.00,3725.698606,N,12210.006994,W,1,12,0.7,25.2,M,-27.9,M,,*74,1763337430818
NMEA,$PSMSG,tech=0x1,sensor=0x0,accu=3.216000,h_rel=4,speed=0.000000,time=1763337430000,SV_used=16,l5=0,e5=0*00,1763337430819
NMEA,$GPGSV,3,1,11,01,17,077,44,02,11,046,31,07,25,119,31,13,55,267,49,1*64,1763337431809
NMEA,$GPGSV,3,2,11,14,65,021,48,15,28,293,34,17,68,165,49,19,46,189,45,1*61,1763337431809
NMEA,$GPGSV,3,3,11,22,69,333,41,30,53,115,44,24,00,000,,1*5B,1763337431809
NMEA,$GLGSV,3,1,10,86,28,142,41,77,11,288,24,76,47,326,43,75,39,053,47,1*76,1763337431809
NMEA,$GLGSV,3,2,10,65,21,216,32,84,08,023,39,85,38,066,47,67,14,329,26,1*7E,1763337431809
NMEA,$GLGSV,3,3,10,74,00,000,,87,00,000,,1*75,1763337431809
NMEA,$GNGSA,A,3,01,02,07,13,14,15,17,19,22,30,,,1.0,0.7,0.7,1*3A,1763337431821
NMEA,$GNGSA,A,3,65,75,76,84,85,86,,,,,,,1.0,0.7,0.7,2*3C,1763337431821
NMEA,$GNVTG,,T,,M,0.0,N,0.0,K,A*3D,1763337431821
NMEA,$GNDTM,P90,,0000.000025,S,00000.000001,E,0.981,W84*58,1763337431821
NMEA,$GNRMC,235711.00,A,3725.698609,N,12210.006993,W,0.0,,161125,15.0,E,A,V*54,1763337431821
NMEA,$GNGNS,235711.00,3725.698609,N,12210.006993,W,AA,16,0.7,25.2,-27.9,,,V*29,1763337431821
NMEA,$GNGGA,235711.00,3725.698609,N,12210.006993,W,1,12,0.7,25.2,M,-27.9,M,,*7D,1763337431821
NMEA,$PSMSG,tech=0x1,sensor=0x0,accu=3.216000,h_rel=4,speed=0.000000,time=1763337431000,SV_used=16,l5=0,e5=0*00,1763337431823
NMEA,$GPGSV,3,1,11,01,17,077,45,02,11,046,33,07,25,119,36,13,55,267,48,1*61,1763337432810
NMEA,$GPGSV,3,2,11,14,65,021,45,15,28,293,30,17,68,165,49,19,46,189,45,1*68,1763337432810
NMEA,$GPGSV,3,3,11,22,69,333,44,30,53,115,48,24,00,000,,1*52,1763337432810
NMEA,$GLGSV,3,1,10,86,28,142,39,77,11,288,24,76,47,326,40,75,39,053,46,1*7B,1763337432810
NMEA,$GLGSV,3,2,10,65,21,216,31,84,08,023,36,85,38,066,44,67,14,329,29,1*7E,1763337432810
NMEA,$GLGSV,3,3,10,74,00,000,,87,00,000,,1*75,1763337432810
NMEA,$GNGSA,A,3,01,02,07,13,14,15,17,19,22,30,,,1.0,0.7,0.7,1*3A,1763337432816
NMEA,$GNGSA,A,3,65,75,76,84,85,86,,,,,,,1.0,0.7,0.7,2*3C,1763337432816
NMEA,$GNVTG,,T,,M,0.0,N,0.0,K,A*3D,1763337432816
NMEA,$GNDTM,P90,,0000.000025,S,00000.000001,E,0.981,W84*58,1763337432816
NMEA,$GNRMC,235712.00,A,3725.698610,N,12210.006993,W,0.0,,161125,15.0,E,A,V*5F,1763337432816
NMEA,$GNGNS,235712.00,3725.698610,N,12210.006993,W,AA,16,0.7,25.2,-27.9,,,V*22,1763337432816
NMEA,$GNGGA,235712.00,3725.698610,N,12210.006993,W,1,12,0.7,25.2,M,-27.9,M,,*76,1763337432816
NMEA,$PSMSG,tech=0x1,sensor=0x0,accu=3.216000,h_rel=4,speed=0.000000,time=1763337432000,SV_used=16,l5=0,e5=0*00,1763337432818
NMEA,$GPGSV,3,1,11,01,17,077,46,02,11,046,33,07,25,119,32,13,55,267,46,1*68,1763337433811
NMEA,$GPGSV,3,2,11,14,65,021,46,15,28,293,35,17,68,165,48,19,46,189,45,1*6F,1763337433811
NMEA,$GPGSV,3,3,11,22,69,333,46,30,53,115,49,24,00,000,,1*51,1763337433811
NMEA,$GLGSV,3,1,10,86,28,142,38,77,11,288,24,76,47,326,42,75,39,053,46,1*78,1763337433811
NMEA,$GLGSV,3,2,10,65,21,216,31,84,08,023,34,85,38,066,45,67,14,329,30,1*75,1763337433811
NMEA,$GLGSV,3,3,10,74,00,000,,87,00,000,,1*75,1763337433811
NMEA,$GNGSA,A,3,01,02,07,13,14,15,17,19,22,30,,,1.0,0.7,0.7,1*3A,1763337433817
NMEA,$GNGSA,A,3,65,75,76,84,85,86,,,,,,,1.0,0.7,0.7,2*3C,1763337433817
NMEA,$GNVTG,,T,,M,0.0,N,0.0,K,A*3D,1763337433817
NMEA,$GNDTM,P90,,0000.000025,S,00000.000001,E,0.981,W84*58,1763337433817
NMEA,$GNRMC,235713.00,A,3725.698610,N,12210.006992,W,0.0,,161125,15.0,E,A,V*5F,1763337433817
NMEA,$GNGNS,235713.00,3725.698610,N,12210.006992,W,AA,16,0.7,25.2,-27.9,,,V*22,1763337433817
NMEA,$GNGGA,235713.00,3725.698610,N,12210.006992,W,1,12,0.7,25.2,M,-27.9,M,,*76,1763337433817
NMEA,$PSMSG,tech=0x1,sensor=0x0,accu=3.216000,h_rel=4,speed=0.000000,time=1763337433000,SV_used=16,l5=0,e5=0*00,1763337433820
NMEA,$GPGSV,3,1,11,01,17,077,46,02,11,046,38,07,25,119,35,13,55,267,45,1*67,1763337434813
NMEA,$GPGSV,3,2,11,14,65,021,48,15,28,293,36,17,68,165,50,19,46,189,46,1*68,1763337434813
NMEA,$GPGSV,3,3,11,22,69,333,45,30,53,115,48,24,00,000,,1*53,1763337434813
NMEA,$GLGSV,3,1,10,86,28,142,38,77,11,288,24,76,47,326,41,75,39,053,44,1*79,1763337434813
NMEA,$GLGSV,3,2,10,65,21,216,27,84,08,023,35,85,38,066,39,67,14,329,31,1*79,1763337434813
NMEA,$GLGSV,3,3,10,74,00,000,,87,00,000,,1*75,1763337434813
NMEA,$GNGSA,A,3,01,02,07,13,14,15,17,19,22,30,,,1.0,0.7,0.7,1*3A,1763337434823
NMEA,$GNGSA,A,3,65,75,76,84,85,86,,,,,,,1.0,0.7,0.7,2*3C,1763337434823
NMEA,$GNVTG,,T,,M,0.0,N,0.0,K,A*3D,1763337434823
NMEA,$GNDTM,P90,,0000.000025,S,00000.000001,E,0.981,W84*58,1763337434823
NMEA,$GNRMC,235714.00,A,3725.698608,N,12210.006993,W,0.0,,161125,15.0,E,A,V*50,1763337434823
NMEA,$GNGNS,235714.00,3725.698608,N,12210.006993,W,AA,16,0.7,25.2,-27.9,,,V*2D,1763337434823
NMEA,$GNGGA,235714.00,3725.698608,N,12210.006993,W,1,12,0.7,25.2,M,-27.9,M,,*79,1763337434823
NMEA,$PSMSG,tech=0x1,sensor=0x0,accu=3.216000,h_rel=4,speed=0.000000,time=1763337434000,SV_used=16,l5=0,e5=0*00,1763337434828
NMEA,$GPGSV,3,1,11,01,17,077,45,02,11,046,38,07,25,119,35,13,55,267,45,1*64,1763337435810
NMEA,$GPGSV,3,2,11,14,65,021,48,15,28,293,36,17,68,165,50,19,46,189,45,1*6B,1763337435810
NMEA,$GPGSV,3,3,11,22,69,333,45,30,53,115,48,24,00,000,,1*53,1763337435810
NMEA,$GLGSV,3,1,10,86,28,142,37,77,11,288,24,76,47,326,41,75,39,053,44,1*76,1763337435810
NMEA,$GLGSV,3,2,10,65,21,216,29,84,08,023,34,85,38,066,38,67,14,329,31,1*77,1763337435810
NMEA,$GLGSV,3,3,10,74,00,000,,87,00,000,,1*75,1763337435810
NMEA,$GNGSA,A,3,01,02,07,13,14,15,17,19,22,30,,,1.0,0.7,0.7,1*3A,1763337435815
NMEA,$GNGSA,A,3,65,75,76,84,85,86,,,,,,,1.0,0.7,0.7,2*3C,1763337435815
NMEA,$GNVTG,,T,,M,0.0,N,0.0,K,A*3D,1763337435815
NMEA,$GNDTM,P90,,0000.000025,S,00000.000001,E,0.981,W84*58,1763337435815
NMEA,$GNRMC,235715.00,A,3725.698606,N,12210.006994,W,0.0,,161125,15.0,E,A,V*58,1763337435815
NMEA,$GNGNS,235715.00,3725.698606,N,12210.006994,W,AA,16,0.7,25.2,-27.9,,,V*25,1763337435815
NMEA,$GNGGA,235715.00,3725.698606,N,12210.006994,W,1,12,0.7,25.2,M,-27.9,M,,*71,1763337435815
NMEA,$PSMSG,tech=0x1,sensor=0x0,accu=3.216000,h_rel=4,speed=0.000000,time=1763337435000,SV_used=16,l5=0,e5=0*00,1763337435817
NMEA,$GPGSV,3,1,11,01,17,077,43,02,11,046,38,07,25,119,35,13,55,267,45,1*62,1763337436810
NMEA,$GPGSV,3,2,11,14,65,021,48,15,28,293,35,17,68,165,49,19,46,189,45,1*60,1763337436810
NMEA,$GPGSV,3,3,11,22,69,333,44,30,53,115,47,24,00,000,,1*5D,1763337436810
NMEA,$GLGSV,3,1,10,86,28,142,37,77,11,288,24,76,47,326,39,75,39,053,43,1*7E,1763337436810
NMEA,$GLGSV,3,2,10,65,21,216,25,84,08,023,32,85,38,066,39,67,14,329,31,1*7C,1763337436810
NMEA,$GLGSV,3,3,10,74,00,000,,87,00,000,,1*75,1763337436810
NMEA,$GNGSA,A,3,01,02,07,13,14,15,17,19,22,30,,,1.0,0.7,0.7,1*3A,1763337436815
NMEA,$GNGSA,A,3,65,75,76,84,85,86,,,,,,,1.0,0.7,0.7,2*3C,1763337436815
NMEA,$GNVTG,,T,,M,0.0,N,0.0,K,A*3D,1763337436815
NMEA,$GNDTM,P90,,0000.000025,S,00000.000001,E,0.981,W84*58,1763337436815
NMEA,$GNRMC,235716.00,A,3725.698603,N,12210.006999,W,0.0,,161125,15.0,E,A,V*53,1763337436815
NMEA,$GNGNS,235716.00,3725.698603,N,12210.006999,W,AA,16,0.7,25.2,-27.9,,,V*2E,1763337436815
NMEA,$GNGGA,235716.00,3725.698603,N,12210.006999,W,1,12,0.7,25.2,M,-27.9,M,,*7A,1763337436815
NMEA,$PSMSG,tech=0x1,sensor=0x0,accu=3.216000,h_rel=4,speed=0.000000,time=1763337436000,SV_used=16,l5=0,e5=0*00,1763337436817
NMEA,$GPGSV,3,1,11,01,17,077,43,02,11,046,38,07,25,119,33,13,55,267,45,1*64,1763337437810
NMEA,$GPGSV,3,2,11,14,65,021,48,15,28,293,36,17,68,165,49,19,46,189,44,1*62,1763337437810
NMEA,$GPGSV,3,3,11,22,69,333,44,30,53,115,47,24,00,000,,1*5D,1763337437810
NMEA,$GLGSV,3,1,10,86,28,142,37,77,11,288,24,76,47,326,39,75,39,053,43,1*7E,1763337437810
NMEA,$GLGSV,3,2,10,65,21,216,28,84,08,023,33,85,38,066,40,67,14,329,29,1*77,1763337437810
NMEA,$GLGSV,3,3,10,74,00,000,,87,00,000,,1*75,1763337437810
NMEA,$GNGSA,A,3,01,02,07,13,14,15,17,19,22,30,,,1.0,0.7,0.7,1*3A,1763337437815
NMEA,$GNGSA,A,3,65,75,76,84,85,86,,,,,,,1.0,0.7,0.7,2*3C,1763337437815
NMEA,$GNVTG,,T,,M,0.0,N,0.0,K,A*3D,1763337437815
NMEA,$GNDTM,P90,,0000.000025,S,00000.000001,E,0.981,W84*58,1763337437815
NMEA,$GNRMC,235717.00,A,3725.698601,N,12210.007002,W,0.0,,161125,15.0,E,A,V*5A,1763337437815
NMEA,$GNGNS,235717.00,3725.698601,N,12210.007002,W,AA,16,0.7,25.2,-27.9,,,V*27,1763337437815
NMEA,$GNGGA,235717.00,3725.698601,N,12210.007002,W,1,12,0.7,25.2,M,-27.9,M,,*73,1763337437815
NMEA,$PSMSG,tech=0x1,sensor=0x0,accu=3.216000,h_rel=4,speed=0.000000,time=1763337437000,SV_used=16,l5=0,e5=0*00,1763337437819
NMEA,$GPGSV,3,1,11,01,17,077,38,02,11,046,35,07,25,119,33,13,55,267,48,1*68,1763337438813
NMEA,$GPGSV,3,2,11,14,65,021,47,15,28,293,40,17,68,165,50,19,46,189,45,1*65,1763337438813
NMEA,$GPGSV,3,3,11,22,69,333,45,30,53,115,45,24,00,000,,1*5E,1763337438813
NMEA,$GLGSV,3,1,10,86,28,142,38,77,11,288,24,76,47,326,39,75,39,053,47,1*75,1763337438813
NMEA,$GLGSV,3,2,10,65,21,216,28,84,08,023,31,85,38,066,46,67,14,329,29,1*73,1763337438813
NMEA,$GLGSV,3,3,10,74,00,000,,87,00,000,,1*75,1763337438813
NMEA,$GNGSA,A,3,01,02,07,13,14,15,17,19,22,30,,,1.0,0.7,0.7,1*3A,1763337438817
NMEA,$GNGSA,A,3,65,75,76,84,85,86,,,,,,,1.0,0.7,0.7,2*3C,1763337438817
NMEA,$GNVTG,,T,,M,0.0,N,0.0,K,A*3D,1763337438817
NMEA,$GNDTM,P90,,0000.000025,S,00000.000001,E,0.981,W84*58,1763337438817
NMEA,$GNRMC,235718.00,A,3725.698599,N,12210.007003,W,0.0,,161125,15.0,E,A,V*56,1763337438817
NMEA,$GNGNS,235718.00,3725.698599,N,12210.007003,W,AA,16,0.7,25.2,-27.9,,,V*2B,1763337438817
NMEA,$GNGGA,235718.00,3725.698599,N,12210.007003,W,1,12,0.7,25.2,M,-27.9,M,,*7F,1763337438817
NMEA,$PSMSG,tech=0x1,sensor=0x0,accu=3.216000,h_rel=4,speed=0.000000,time=1763337438000,SV_used=16,l5=0,e5=0*00,1763337438818
NMEA,$GPGSV,3,1,11,01,17,077,40,02,11,046,36,07,25,119,35,13,55,267,48,1*62,1763337439817
NMEA,$GPGSV,3,2,11,14,65,021,48,15,28,293,41,17,68,165,50,19,46,189,46,1*68,1763337439817
NMEA,$GPGSV,3,3,11,22,69,333,45,30,53,115,47,24,00,000,,1*5C,1763337439817
NMEA,$GLGSV,3,1,10,86,28,142,39,77,11,288,24,76,47,326,38,75,39,053,47,1*75,1763337439817
NMEA,$GLGSV,3,2,10,65,21,216,23,84,08,023,34,85,38,066,45,67,14,329,23,1*74,1763337439817
NMEA,$GLGSV,3,3,10,74,00,000,,87,00,000,,1*75,1763337439817
NMEA,$GNGSA,A,3,01,02,07,13,14,15,17,19,22,30,,,1.0,0.7,0.7,1*3A,1763337439824
NMEA,$GNGSA,A,3,65,75,76,84,85,86,,,,,,,1.0,0.7,0.7,2*3C,1763337439824
NMEA,$GNVTG,,T,,M,0.0,N,0.0,K,A*3D,1763337439824
NMEA,$GNDTM,P90,,0000.000025,S,00000.000001,E,0.981,W84*58,1763337439824
NMEA,$GNRMC,235719.00,A,3725.698594,N,12210.007000,W,0.0,,161125,15.0,E,A,V*59,1763337439824
NMEA,$GNGNS,235719.00,3725.698594,N,12210.007000,W,AA,16,0.7,25.2,-27.9,,,V*24,1763337439824
NMEA,$GNGGA,235719.00,3725.698594,N,12210.007000,W,1,12,0.7,25.2,M,-27.9,M,,*70,1763337439824
NMEA,$PSMSG,tech=0x1,sensor=0x0,accu=3.216000,h_rel=4,speed=0.000000,time=1763337439000,SV_used=16,l5=0,e5=0*00,1763337439828
NMEA,$GPGSV,3,1,11,01,17,077,40,02,11,046,38,07,25,119,35,13,55,267,48,1*6C,1763337440808
NMEA,$GPGSV,3,2,11,14,65,021,48,15,28,293,40,17,68,165,50,19,46,189,45,1*6A,1763337440808
NMEA,$GPGSV,3,3,11,22,69,333,44,30,53,115,47,24,00,000,,1*5D,1763337440808
NMEA,$GLGSV,3,1,10,86,28,142,39,77,11,288,24,76,47,326,39,75,39,053,46,1*75,1763337440808
NMEA,$GLGSV,3,2,10,65,21,216,23,84,08,023,34,85,38,066,44,67,14,329,24,1*72,1763337440808
NMEA,$GLGSV,3,3,10,74,00,000,,87,00,000,,1*75,1763337440808
NMEA,$GNGSA,A,3,01,02,07,13,14,15,17,19,22,30,,,1.0,0.7,0.7,1*3A,1763337440820
NMEA,$GNGSA,A,3,65,75,76,84,85,86,,,,,,,1.0,0.7,0.7,2*3C,1763337440820
NMEA,$GNVTG,,T,,M,0.0,N,0.0,K,A*3D,1763337440820
NMEA,$GNDTM,P90,,0000.000025,S,00000.000001,E,0.981,W84*58,1763337440820
NMEA,$GNRMC,235720.00,A,3725.698592,N,12210.006997,W,0.0,,161125,15.0,E,A,V*53,1763337440820
NMEA,$GNGNS,235720.00,3725.698592,N,12210.006997,W,AA,16,0.7,25.2,-27.9,,,V*2E,1763337440820
NMEA,$GNGGA,235720.00,3725.698592,N,12210.006997,W,1,12,0.7,25.2,M,-27.9,M,,*7A,1763337440820
NMEA,$PSMSG,tech=0x1,sensor=0x0,accu=3.216000,h_rel=4,speed=0.000000,time=1763337440000,SV_used=16,l5=0,e5=0*00,1763337440823
NMEA,$GPGSV,3,1,11,01,17,077,39,02,11,046,36,07,25,119,36,13,55,267,48,1*6F,1763337441810
NMEA,$GPGSV,3,2,11,14,65,021,48,15,28,293,38,17,68,165,50,19,46,189,46,1*66,1763337441810
NMEA,$GPGSV,3,3,11,22,69,333,44,30,53,115,47,24,00,000,,1*5D,1763337441810
NMEA,$GLGSV,3,1,10,86,28,142,39,77,11,288,24,76,47,326,39,75,39,053,46,1*75,1763337441810
NMEA,$GLGSV,3,2,10,65,21,216,24,84,08,023,34,85,38,066,45,67,14,329,27,1*77,1763337441810
NMEA,$GLGSV,3,3,10,74,00,000,,87,00,000,,1*75,1763337441810
NMEA,$GNGSA,A,3,01,02,07,13,14,15,17,19,22,30,,,1.1,0.8,0.8,1*3B,1763337441818
NMEA,$GNGSA,A,3,75,76,84,85,86,,,,,,,,1.1,0.8,0.8,2*3E,1763337441818
NMEA,$GNVTG,,T,,M,0.0,N,0.0,K,A*3D,1763337441818
NMEA,$GNDTM,P90,,0000.000025,S,00000.000001,E,0.981,W84*58,1763337441818
NMEA,$GNRMC,235721.00,A,3725.698592,N,12210.006997,W,0.0,,161125,15.0,E,A,V*52,1763337441818
NMEA,$GNGNS,235721.00,3725.698592,N,12210.006997,W,AA,15,0.8,25.2,-27.9,,,V*23,1763337441818
NMEA,$GNGGA,235721.00,3725.698592,N,12210.006997,W,1,12,0.8,25.2,M,-27.9,M,,*74,1763337441818
NMEA,$PSMSG,tech=0x1,sensor=0x0,accu=3.216000,h_rel=4,speed=0.000000,time=1763337441000,SV_used=15,l5=0,e5=0*00,1763337441820
NMEA,$GPGSV,3,1,11,01,17,077,38,02,11,046,37,07,25,119,35,13,55,267,47,1*63,1763337442808
NMEA,$GPGSV,3,2,11,14,65,021,47,15,28,293,36,17,68,165,49,19,46,189,46,1*6F,1763337442808
NMEA,$GPGSV,3,3,11,22,69,333,43,30,53,115,46,24,00,000,,1*5B,1763337442808
NMEA,$GLGSV,3,1,10,86,28,142,38,77,11,288,24,76,47,326,36,75,39,053,45,1*78,1763337442808
NMEA,$GLGSV,3,2,10,65,21,216,24,84,08,023,33,85,38,066,44,67,14,329,27,1*71,1763337442808
NMEA,$GLGSV,3,3,10,74,00,000,,87,00,000,,1*75,1763337442808
NMEA,$GNGSA,A,3,01,02,07,13,14,15,17,19,22,30,,,1.1,0.8,0.8,1*3B,1763337442824
NMEA,$GNGSA,A,3,75,76,84,85,86,,,,,,,,1.1,0.8,0.8,2*3E,1763337442824
NMEA,$GNVTG,,T,,M,0.0,N,0.0,K,A*3D,1763337442824
NMEA,$GNDTM,P90,,0000.000025,S,00000.000001,E,0.981,W84*58,1763337442824
NMEA,$GNRMC,235722.00,A,3725.698590,N,12210.006999,W,0.0,,161125,15.0,E,A,V*5D,1763337442824
NMEA,$GNGNS,235722.00,3725.698590,N,12210.006999,W,AA,15,0.8,25.2,-27.9,,,V*2C,1763337442824
NMEA,$GNGGA,235722.00,3725.698590,N,12210.006999,W,1,12,0.8,25.2,M,-27.9,M,,*7B,1763337442824
NMEA,$PSMSG,tech=0x1,sensor=0x0,accu=3.216000,h_rel=4,speed=0.000000,time=1763337442000,SV_used=15,l5=0,e5=0*00,1763337442826
NMEA,$GPGSV,3,1,11,15,28,293,34,22,69,333,40,30,53,115,44,01,17,077,,1*68,1763337443807
NMEA,$GPGSV,3,2,11,02,11,046,,07,25,119,,13,55,267,,14,65,021,,1*68,1763337443807
NMEA,$GPGSV,3,3,11,17,68,165,,19,46,189,,24,00,000,,1*52,1763337443807
NMEA,$GLGSV,2,1,08,77,11,288,24,65,21,216,24,84,08,023,33,67,14,329,27,1*78,1763337443807
NMEA,$GLGSV,2,2,08,86,28,142,,76,47,326,,75,39,053,,85,38,066,,1*7E,1763337443807
NMEA,$GNGSA,A,3,01,02,07,13,14,15,17,19,22,30,,,1.1,0.8,0.8,1*3B,1763337443811
NMEA,$GNGSA,A,3,75,76,84,85,86,,,,,,,,1.1,0.8,0.8,2*3E,1763337443811
NMEA,$GNVTG,,T,,M,0.0,N,0.0,K,A*3D,1763337443811
NMEA,$GNDTM,P90,,0000.000025,S,00000.000001,E,0.981,W84*58,1763337443811
NMEA,$GNRMC,235723.00,A,3725.698589,N,12210.006999,W,0.0,,161125,15.0,E,A,V*54,1763337443811
NMEA,$GNGNS,235723.00,3725.698589,N,12210.006999,W,AA,15,0.8,25.2,-27.9,,,V*25,1763337443811
NMEA,$GNGGA,235723.00,3725.698589,N,12210.006999,W,1,12,0.8,25.2,M,-27.9,M,,*72,1763337443811
NMEA,$PSMSG,tech=0x1,sensor=0x0,accu=3.216000,h_rel=3,speed=0.000000,time=1763337443000,SV_used=15,l5=0,e5=0*00,1763337443815
NMEA,$GPGSV,3,1,11,15,28,293,40,22,69,333,37,30,53,115,49,01,17,077,,1*66,1763337444807
NMEA,$GPGSV,3,2,11,02,11,046,,07,25,119,,13,55,267,,14,65,021,,1*68,1763337444807
NMEA,$GPGSV,3,3,11,17,68,165,,19,46,189,,24,00,000,,1*52,1763337444807
NMEA,$GLGSV,3,1,10,77,11,288,24,65,21,216,24,67,14,329,27,74,00,000,,1*76,1763337444807
NMEA,$GLGSV,3,2,10,86,28,142,,76,47,326,,75,39,053,,84,08,023,,1*75,1763337444807
NMEA,$GLGSV,3,3,10,87,00,000,,85,38,066,,1*70,1763337444807
NMEA,$GNGSA,A,3,01,02,07,13,14,15,17,19,22,30,,,1.1,0.8,0.8,1*3B,1763337444810
NMEA,$GNGSA,A,3,75,76,84,85,86,,,,,,,,1.1,0.8,0.8,2*3E,1763337444810
NMEA,$GNVTG,,T,,M,0.0,N,0.0,K,A*3D,1763337444810
NMEA,$GNDTM,P90,,0000.000025,S,00000.000001,E,0.981,W84*58,1763337444810
NMEA,$GNRMC,235724.00,A,3725.698589,N,12210.006997,W,0.0,,161125,15.0,E,A,V*5D,1763337444810
NMEA,$GNGNS,235724.00,3725.698589,N,12210.006997,W,AA,15,0.8,25.2,-27.9,,,V*2C,1763337444810
NMEA,$GNGGA,235724.00,3725.698589,N,12210.006997,W,1,12,0.8,25.2,M,-27.9,M,,*7B,1763337444810
NMEA,$PSMSG,tech=0x1,sensor=0x0,accu=3.216000,h_rel=3,speed=0.000000,time=1763337444000,SV_used=15,l5=0,e5=0*00,1763337444811
NMEA,$GPGSV,3,1,11,01,17,077,48,02,11,046,39,07,25,119,35,13,55,267,46,1*6B,1763337445809
NMEA,$GPGSV,3,2,11,14,65,021,41,15,28,293,34,17,68,165,49,19,46,189,42,1*6F,1763337445809
NMEA,$GPGSV,3,3,11,22,69,333,36,30,53,115,51,24,00,000,,1*5F,1763337445809
NMEA,$GLGSV,3,1,10,77,11,288,24,76,47,326,48,65,21,216,24,84,08,023,35,1*76,1763337445809
NMEA,$GLGSV,3,2,10,67,14,329,27,74,00,000,,86,28,142,,75,39,053,,1*7F,1763337445809
NMEA,$GLGSV,3,3,10,87,00,000,,85,38,066,,1*70,1763337445809
NMEA,$GNGSA,A,3,01,02,07,13,14,15,17,19,22,30,,,1.1,0.8,0.8,1*3B,1763337445812
NMEA,$GNGSA,A,3,75,76,84,85,86,,,,,,,,1.1,0.8,0.8,2*3E,1763337445812
NMEA,$GNVTG,,T,,M,0.0,N,0.0,K,A*3D,1763337445812
NMEA,$GNDTM,P90,,0000.000025,S,00000.000001,E,0.981,W84*58,1763337445812
NMEA,$GNRMC,235725.00,A,3725.698587,N,12210.006998,W,0.0,,161125,15.0,E,A,V*5D,1763337445812
NMEA,$GNGNS,235725.00,3725.698587,N,12210.006998,W,AA,15,0.8,25.2,-27.9,,,V*2C,1763337445812
NMEA,$GNGGA,235725.00,3725.698587,N,12210.006998,W,1,12,0.8,25.2,M,-27.9,M,,*7B,1763337445812
NMEA,$PSMSG,tech=0x1,sensor=0x0,accu=4.288000,h_rel=4,speed=0.000000,time=1763337445000,SV_used=15,l5=0,e5=0*00,1763337445814
NMEA,$GPGSV,3,1,11,01,17,077,47,02,11,046,37,07,25,119,35,13,55,267,47,1*6B,1763337446812
NMEA,$GPGSV,3,2,11,14,65,021,42,15,28,293,34,17,68,165,48,19,46,189,43,1*6C,1763337446812
NMEA,$GPGSV,3,3,11,22,69,333,41,30,53,115,52,24,00,000,,1*5C,1763337446812
NMEA,$GLGSV,3,1,09,86,28,142,40,76,47,326,46,75,39,053,48,84,08,023,34,1*73,1763337446812
NMEA,$GLGSV,3,2,09,85,38,066,48,67,14,329,27,74,00,000,,65,21,216,,1*75,1763337446812
NMEA,$GLGSV,3,3,09,87,00,000,,1*4E,1763337446812
NMEA,$GNGSA,A,3,01,02,07,13,14,15,17,19,22,30,,,1.1,0.8,0.8,1*3B,1763337446824
NMEA,$GNGSA,A,3,75,76,84,85,86,,,,,,,,1.1,0.8,0.8,2*3E,1763337446824
NMEA,$GNVTG,,T,,M,0.0,N,0.0,K,A*3D,1763337446824
NMEA,$GNDTM,P90,,0000.000025,S,00000.000001,E,0.981,W84*58,1763337446824
NMEA,$GNRMC,235726.00,A,3725.698596,N,12210.006994,W,0.0,,161125,15.0,E,A,V*52,1763337446824
NMEA,$GNGNS,235726.00,3725.698596,N,12210.006994,W,AA,15,0.8,25.2,-27.9,,,V*23,1763337446824
NMEA,$GNGGA,235726.00,3725.698596,N,12210.006994,W,1,12,0.8,25.2,M,-27.9,M,,*74,1763337446824
NMEA,$PSMSG,tech=0x1,sensor=0x0,accu=3.216000,h_rel=4,speed=0.000000,time=1763337446000,SV_used=15,l5=0,e5=0*00,1763337446827
NMEA,$GPGSV,3,1,11,01,17,077,46,02,11,046,38,07,25,119,35,13,55,267,47,1*65,1763337447809
NMEA,$GPGSV,3,2,11,14,65,021,43,15,28,293,34,17,68,165,48,19,46,189,45,1*6B,1763337447809
NMEA,$GPGSV,3,3,11,22,69,333,41,30,53,115,52,24,00,000,,1*5C,1763337447809
NMEA,$GLGSV,3,1,10,86,28,142,35,76,47,326,47,75,39,053,48,65,21,216,34,1*78,1763337447809
NMEA,$GLGSV,3,2,10,84,08,023,34,85,38,066,47,67,14,329,27,74,00,000,,1*75,1763337447809
NMEA,$GLGSV,3,3,10,77,11,288,,87,00,000,,1*74,1763337447809
NMEA,$GNGSA,A,3,01,02,07,13,14,15,17,19,22,30,,,1.0,0.7,0.7,1*3A,1763337447818
NMEA,$GNGSA,A,3,65,75,76,84,85,86,,,,,,,1.0,0.7,0.7,2*3C,1763337447818
NMEA,$GNVTG,,T,,M,0.0,N,0.0,K,A*3D,1763337447818
NMEA,$GNDTM,P90,,0000.000025,S,00000.000001,E,0.981,W84*58,1763337447818
NMEA,$GNRMC,235727.00,A,3725.698601,N,12210.006994,W,0.0,,161125,15.0,E,A,V*5E,1763337447818
NMEA,$GNGNS,235727.00,3725.698601,N,12210.006994,W,AA,16,0.7,25.2,-27.9,,,V*23,1763337447818
NMEA,$GNGGA,235727.00,3725.698601,N,12210.006994,W,1,12,0.7,25.2,M,-27.9,M,,*77,1763337447818
NMEA,$PSMSG,tech=0x1,sensor=0x0,accu=3.216000,h_rel=4,speed=0.000000,time=1763337447000,SV_used=16,l5=0,e5=0*00,1763337447822
NMEA,$GPGSV,3,1,11,01,17,077,45,02,11,046,37,07,25,119,34,13,55,267,47,1*68,1763337448809
NMEA,$GPGSV,3,2,11,14,65,021,43,17,68,165,47,19,46,189,44,22,69,333,41,1*6D,1763337448809
NMEA,$GPGSV,3,3,11,30,53,115,51,15,28,293,,24,00,000,,1*50,1763337448809
NMEA,$GLGSV,2,1,08,86,28,142,35,76,47,326,45,75,39,053,48,65,21,216,33,1*75,1763337448809
NMEA,$GLGSV,2,2,08,84,08,023,35,85,38,066,47,67,14,329,27,77,11,288,,1*7D,1763337448809
NMEA,$GNGSA,A,3,01,02,07,13,14,15,17,19,22,30,,,1.0,0.7,0.7,1*3A,1763337448818
NMEA,$GNGSA,A,3,65,75,76,84,85,86,,,,,,,1.0,0.7,0.7,2*3C,1763337448818
NMEA,$GNVTG,,T,,M,0.0,N,0.0,K,A*3D,1763337448818
NMEA,$GNDTM,P90,,0000.000025,S,00000.000001,E,0.981,W84*58,1763337448818
NMEA,$GNRMC,235728.00,A,3725.698604,N,12210.006994,W,0.0,,161125,15.0,E,A,V*54,1763337448818
NMEA,$GNGNS,235728.00,3725.698604,N,12210.006994,W,AA,16,0.7,25.1,-27.9,,,V*2A,1763337448818
NMEA,$GNGGA,235728.00,3725.698604,N,12210.006994,W,1,12,0.7,25.1,M,-27.9,M,,*7E,1763337448818
NMEA,$PSMSG,tech=0x1,sensor=0x0,accu=3.216000,h_rel=4,speed=0.000000,time=1763337448000,SV_used=16,l5=0,e5=0*00,1763337448820
NMEA,$GPGSV,3,1,11,01,17,077,46,02,11,046,36,07,25,119,37,13,55,267,48,1*66,1763337449811
NMEA,$GPGSV,3,2,11,14,65,021,46,15,28,293,37,17,68,165,45,19,46,189,45,1*60,1763337449811
NMEA,$GPGSV,3,3,11,22,69,333,46,30,53,115,52,24,00,000,,1*5B,1763337449811
NMEA,$GLGSV,3,1,10,86,28,142,36,76,47,326,40,75,39,053,45,65,21,216,33,1*76,1763337449811
NMEA,$GLGSV,3,2,10,84,08,023,36,85,38,066,41,67,14,329,27,74,00,000,,1*71,1763337449811
NMEA,$GLGSV,3,3,10,77,11,288,,87,00,000,,1*74,1763337449811
NMEA,$GNGSA,A,3,01,02,07,13,14,15,17,19,22,30,,,1.0,0.7,0.7,1*3A,1763337449817
NMEA,$GNGSA,A,3,65,75,76,84,85,86,,,,,,,1.0,0.7,0.7,2*3C,1763337449817
NMEA,$GNVTG,,T,,M,0.0,N,0.0,K,A*3D,1763337449817
NMEA,$GNDTM,P90,,0000.000025,S,00000.000001,E,0.981,W84*58,1763337449817
NMEA,$GNRMC,235729.00,A,3725.698607,N,12210.006994,W,0.0,,161125,15.0,E,A,V*56,1763337449817
NMEA,$GNGNS,235729.00,3725.698607,N,12210.006994,W,AA,16,0.7,25.1,-27.9,,,V*28,1763337449817
NMEA,$GNGGA,235729.00,3725.698607,N,12210.006994,W,1,12,0.7,25.1,M,-27.9,M,,*7C,1763337449817
NMEA,$PSMSG,tech=0x1,sensor=0x0,accu=3.216000,h_rel=4,speed=0.000000,time=1763337449000,SV_used=16,l5=0,e5=0*00,1763337449820
NMEA,$GPGSV,3,1,11,01,17,077,46,02,11,046,37,07,25,119,37,13,55,267,41,1*6E,1763337450810
NMEA,$GPGSV,3,2,11,14,65,021,45,15,28,293,37,17,68,165,50,19,46,189,42,1*60,1763337450810
NMEA,$GPGSV,3,3,11,22,69,333,43,30,53,115,52,24,00,000,,1*5E,1763337450810
NMEA,$GLGSV,3,1,10,86,28,142,38,76,47,326,39,75,39,053,42,65,21,216,34,1*76,1763337450810
NMEA,$GLGSV,3,2,10,84,08,023,33,85,38,066,42,67,14,329,27,74,00,000,,1*77,1763337450810
NMEA,$GLGSV,3,3,10,77,11,288,,87,00,000,,1*74,1763337450810
NMEA,$GNGSA,A,3,01,02,07,13,14,15,17,19,22,30,,,1.0,0.7,0.7,1*3A,1763337450819
NMEA,$GNGSA,A,3,65,75,76,84,85,86,,,,,,,1.0,0.7,0.7,2*3C,1763337450819
NMEA,$GNVTG,,T,,M,0.0,N,0.0,K,A*3D,1763337450819
NMEA,$GNDTM,P90,,0000.000025,S,00000.000001,E,0.981,W84*58,1763337450819
NMEA,$GNRMC,235730.00,A,3725.698607,N,12210.006994,W,0.0,,161125,15.0,E,A,V*5E,1763337450819
NMEA,$GNGNS,235730.00,3725.698607,N,12210.006994,W,AA,16,0.7,25.1,-27.9,,,V*20,1763337450819
NMEA,$GNGGA,235730.00,3725.698607,N,12210.006994,W,1,12,0.7,25.1,M,-27.9,M,,*74,1763337450819
NMEA,$PSMSG,tech=0x1,sensor=0x0,accu=3.216000,h_rel=4,speed=0.000000,time=1763337450000,SV_used=16,l5=0,e5=0*00,1763337450822
NMEA,$GPGSV,3,1,11,01,17,077,46,02,11,046,41,07,25,119,40,13,55,267,41,1*6F,1763337451808
NMEA,$GPGSV,3,2,11,14,65,021,42,15,28,293,39,17,68,165,49,19,46,189,40,1*63,1763337451808
NMEA,$GPGSV,3,3,11,22,69,333,41,30,53,115,50,24,00,000,,1*5E,1763337451808
NMEA,$GLGSV,3,1,10,86,28,142,38,76,47,326,41,75,39,053,36,65,21,216,32,1*7C,1763337451808
NMEA,$GLGSV,3,2,10,84,08,023,34,85,38,066,42,67,14,329,27,74,00,000,,1*70,1763337451808
NMEA,$GLGSV,3,3,10,77,11,288,,87,00,000,,1*74,1763337451808
NMEA,$GNGSA,A,3,01,02,07,13,14,15,17,19,22,30,,,1.0,0.7,0.7,1*3A,1763337451816
NMEA,$GNGSA,A,3,65,75,76,84,85,86,,,,,,,1.0,0.7,0.7,2*3C,1763337451816
NMEA,$GNVTG,,T,,M,0.0,N,0.0,K,A*3D,1763337451816
NMEA,$GNDTM,P90,,0000.000025,S,00000.000001,E,0.981,W84*58,1763337451816
NMEA,$GNRMC,235731.00,A,3725.698605,N,12210.006994,W,0.0,,161125,15.0,E,A,V*5D,1763337451816
NMEA,$GNGNS,235731.00,3725.698605,N,12210.006994,W,AA,16,0.7,25.1,-27.9,,,V*23,1763337451816
NMEA,$GNGGA,235731.00,3725.698605,N,12210.006994,W,1,12,0.7,25.1,M,-27.9,M,,*77,1763337451816
NMEA,$PSMSG,tech=0x1,sensor=0x0,accu=3.216000,h_rel=4,speed=0.000000,time=1763337451000,SV_used=16,l5=0,e5=0*00,1763337451817
NMEA,$GPGSV,3,1,11,01,17,077,46,02,11,046,37,07,25,119,42,13,55,267,43,1*6E,1763337452808
NMEA,$GPGSV,3,2,11,14,65,021,47,15,28,293,39,17,68,165,43,19,46,189,45,1*69,1763337452808
NMEA,$GPGSV,3,3,11,22,69,333,43,30,53,115,53,24,00,000,,1*5F,1763337452808
NMEA,$GLGSV,3,1,10,86,28,142,38,76,47,326,37,75,39,053,40,65,21,216,32,1*7C,1763337452808
NMEA,$GLGSV,3,2,10,84,08,023,36,85,38,066,40,67,14,329,27,74,00,000,,1*70,1763337452808
NMEA,$GLGSV,3,3,10,77,11,288,,87,00,000,,1*74,1763337452808
NMEA,$GNGSA,A,3,01,02,07,13,14,15,17,19,22,30,,,1.0,0.7,0.7,1*3A,1763337452817
NMEA,$GNGSA,A,3,65,75,76,84,85,86,,,,,,,1.0,0.7,0.7,2*3C,1763337452817
NMEA,$GNVTG,,T,,M,0.0,N,0.0,K,A*3D,1763337452817
NMEA,$GNDTM,P90,,0000.000025,S,00000.000001,E,0.981,W84*58,1763337452817
NMEA,$GNRMC,235732.00,A,3725.698604,N,12210.006994,W,0.0,,161125,15.0,E,A,V*5F,1763337452817
NMEA,$GNGNS,235732.00,3725.698604,N,12210.006994,W,AA,16,0.7,25.1,-27.9,,,V*21,1763337452817
NMEA,$GNGGA,235732.00,3725.698604,N,12210.006994,W,1,12,0.7,25.1,M,-27.9,M,,*75,1763337452817
NMEA,$PSMSG,tech=0x1,sensor=0x0,accu=3.216000,h_rel=4,speed=0.000000,time=1763337452000,SV_used=16,l5=0,e5=0*00,1763337452819
NMEA,$GPGSV,3,1,11,01,17,077,46,02,11,046,36,07,25,119,38,13,55,267,45,1*64,1763337453809
NMEA,$GPGSV,3,2,11,14,65,021,46,15,28,293,45,17,68,165,49,19,46,189,47,1*6B,1763337453809
NMEA,$GPGSV,3,3,11,22,69,333,46,30,53,115,48,24,00,000,,1*50,1763337453809
NMEA,$GLGSV,3,1,10,86,28,142,42,76,47,326,31,75,39,053,43,65,21,216,34,1*72,1763337453809
NMEA,$GLGSV,3,2,10,84,08,023,36,85,38,066,46,67,14,329,27,74,00,000,,1*76,1763337453809
NMEA,$GLGSV,3,3,10,77,11,288,,87,00,000,,1*74,1763337453809
NMEA,$GNGSA,A,3,01,02,07,13,14,15,17,19,22,30,,,1.0,0.7,0.7,1*3A,1763337453811
NMEA,$GNGSA,A,3,65,75,76,84,85,86,,,,,,,1.0,0.7,0.7,2*3C,1763337453811
NMEA,$GNVTG,,T,,M,0.0,N,0.0,K,A*3D,1763337453811
NMEA,$GNDTM,P90,,0000.000025,S,00000.000001,E,0.981,W84*58,1763337453811
NMEA,$GNRMC,235733.00,A,3725.698601,N,12210.006998,W,0.0,,161125,15.0,E,A,V*57,1763337453811
NMEA,$GNGNS,235733.00,3725.698601,N,12210.006998,W,AA,16,0.7,25.1,-27.9,,,V*29,1763337453811
NMEA,$GNGGA,235733.00,3725.698601,N,12210.006998,W,1,12,0.7,25.1,M,-27.9,M,,*7D,1763337453811
NMEA,$PSMSG,tech=0x1,sensor=0x0,accu=3.216000,h_rel=4,speed=0.000000,time=1763337453000,SV_used=16,l5=0,e5=0*00,1763337453812
NMEA,$GPGSV,3,1,11,01,17,077,45,02,11,046,37,07,25,119,35,13,55,267,47,1*69,1763337454809
NMEA,$GPGSV,3,2,11,14,65,021,47,15,28,293,45,17,68,165,50,19,46,189,47,1*62,1763337454809
NMEA,$GPGSV,3,3,11,22,69,333,41,30,53,115,47,24,00,000,,1*58,1763337454809
NMEA,$GLGSV,3,1,10,86,28,142,41,76,47,326,35,75,39,053,46,65,21,216,25,1*70,1763337454809
NMEA,$GLGSV,3,2,10,84,08,023,37,85,38,066,45,67,14,329,27,74,00,000,,1*74,1763337454809
NMEA,$GLGSV,3,3,10,77,11,288,,87,00,000,,1*74,1763337454809
NMEA,$GNGSA,A,3,01,02,07,13,14,15,17,19,22,30,,,1.0,0.7,0.7,1*3A,1763337454817
NMEA,$GNGSA,A,3,65,75,76,84,85,86,,,,,,,1.0,0.7,0.7,2*3C,1763337454817
NMEA,$GNVTG,,T,,M,0.0,N,0.0,K,A*3D,1763337454817
NMEA,$GNDTM,P90,,0000.000025,S,00000.000001,E,0.981,W84*58,1763337454817
NMEA,$GNRMC,235734.00,A,3725.698603,N,12210.007000,W,0.0,,161125,15.0,E,A,V*5B,1763337454817
NMEA,$GNGNS,235734.00,3725.698603,N,12210.007000,W,AA,16,0.7,25.1,-27.9,,,V*25,1763337454817
NMEA,$GNGGA,235734.00,3725.698603,N,12210.007000,W,1,12,0.7,25.1,M,-27.9,M,,*71,1763337454817
NMEA,$PSMSG,tech=0x1,sensor=0x0,accu=3.216000,h_rel=4,speed=0.000000,time=1763337454000,SV_used=16,l5=0,e5=0*00,1763337454820
NMEA,$GPGSV,3,1,11,01,17,077,46,02,11,046,38,07,25,119,36,13,55,267,47,1*66,1763337455813
NMEA,$GPGSV,3,2,11,14,65,021,48,15,28,293,45,17,68,165,50,19,46,189,48,1*62,1763337455813
NMEA,$GPGSV,3,3,11,22,69,333,42,30,53,115,47,24,00,000,,1*5B,1763337455813
NMEA,$GLGSV,3,1,10,86,28,142,43,76,47,326,36,75,39,053,47,65,21,216,27,1*72,1763337455813
NMEA,$GLGSV,3,2,10,84,08,023,38,85,38,066,46,67,14,329,27,74,00,000,,1*78,1763337455813
NMEA,$GLGSV,3,3,10,77,11,288,,87,00,000,,1*74,1763337455813
NMEA,$GNGSA,A,3,01,02,07,13,14,15,17,19,22,30,,,1.0,0.7,0.7,1*3A,1763337455818
NMEA,$GNGSA,A,3,65,75,76,84,85,86,,,,,,,1.0,0.7,0.7,2*3C,1763337455818
NMEA,$GNVTG,,T,,M,0.0,N,0.0,K,A*3D,1763337455818
NMEA,$GNDTM,P90,,0000.000025,S,00000.000001,E,0.981,W84*58,1763337455818
NMEA,$GNRMC,235735.00,A,3725.698605,N,12210.007001,W,0.0,,161125,15.0,E,A,V*5D,1763337455818
NMEA,$GNGNS,235735.00,3725.698605,N,12210.007001,W,AA,16,0.7,25.1,-27.9,,,V*23,1763337455818
NMEA,$GNGGA,235735.00,3725.698605,N,12210.007001,W,1,12,0.7,25.1,M,-27.9,M,,*77,1763337455818
NMEA,$PSMSG,tech=0x1,sensor=0x0,accu=3.216000,h_rel=4,speed=0.000000,time=1763337455000,SV_used=16,l5=0,e5=0*00,1763337455820
NMEA,$GPGSV,3,1,11,01,17,077,45,02,11,046,37,07,25,119,36,13,55,267,46,1*6B,1763337456811
NMEA,$GPGSV,3,2,11,14,65,021,47,15,28,293,46,17,68,165,50,19,46,189,47,1*61,1763337456811
NMEA,$GPGSV,3,3,11,22,69,333,42,30,53,115,46,24,00,000,,1*5A,1763337456811
NMEA,$GLGSV,3,1,10,86,28,142,42,76,47,326,35,75,39,053,46,65,21,216,25,1*73,1763337456811
NMEA,$GLGSV,3,2,10,84,08,023,37,85,38,066,45,67,14,329,27,74,00,000,,1*74,1763337456811
NMEA,$GLGSV,3,3,10,77,11,288,,87,00,000,,1*74,1763337456811
NMEA,$GNGSA,A,3,01,02,07,13,14,15,17,19,22,30,,,1.0,0.7,0.7,1*3A,1763337456820
NMEA,$GNGSA,A,3,65,75,76,84,85,86,,,,,,,1.0,0.7,0.7,2*3C,1763337456820
NMEA,$GNVTG,,T,,M,0.0,N,0.0,K,A*3D,1763337456820
NMEA,$GNDTM,P90,,0000.000025,S,00000.000001,E,0.981,W84*58,1763337456820
NMEA,$GNRMC,235736.00,A,3725.698607,N,12210.007001,W,0.0,,161125,15.0,E,A,V*5C,1763337456820
NMEA,$GNGNS,235736.00,3725.698607,N,12210.007001,W,AA,16,0.7,25.1,-27.9,,,V*22,1763337456820
NMEA,$GNGGA,235736.00,3725.698607,N,12210.007001,W,1,12,0.7,25.1,M,-27.9,M,,*76,1763337456820
NMEA,$PSMSG,tech=0x1,sensor=0x0,accu=3.216000,h_rel=4,speed=0.000000,time=1763337456000,SV_used=16,l5=0,e5=0*00,1763337456822
NMEA,$GPGSV,3,1,11,01,17,077,46,02,11,046,38,07,25,119,35,13,55,267,46,1*64,1763337457813
NMEA,$GPGSV,3,2,11,14,65,021,48,15,28,293,47,17,68,165,51,19,46,189,49,1*60,1763337457813
NMEA,$GPGSV,3,3,11,22,69,333,44,30,53,115,47,24,00,000,,1*5D,1763337457813
NMEA,$GLGSV,3,1,10,86,28,142,43,76,47,326,35,75,39,053,47,65,21,216,30,1*77,1763337457813
NMEA,$GLGSV,3,2,10,84,08,023,38,85,38,066,45,67,14,329,27,74,00,000,,1*7B,1763337457813
NMEA,$GLGSV,3,3,10,77,11,288,,87,00,000,,1*74,1763337457813
NMEA,$GNGSA,A,3,01,02,07,13,14,15,17,19,22,30,,,1.0,0.7,0.7,1*3A,1763337457820
NMEA,$GNGSA,A,3,65,75,76,84,85,86,,,,,,,1.0,0.7,0.7,2*3C,1763337457820
NMEA,$GNVTG,,T,,M,0.0,N,0.0,K,A*3D,1763337457820
NMEA,$GNDTM,P90,,0000.000025,S,00000.000001,E,0.981,W84*58,1763337457820
NMEA,$GNRMC,235737.00,A,3725.698605,N,12210.006999,W,0.0,,161125,15.0,E,A,V*56,1763337457820
NMEA,$GNGNS,235737.00,3725.698605,N,12210.006999,W,AA,16,0.7,25.1,-27.9,,,V*28,1763337457820
NMEA,$GNGGA,235737.00,3725.698605,N,12210.006999,W,1,12,0.7,25.1,M,-27.9,M,,*7C,1763337457820
NMEA,$PSMSG,tech=0x1,sensor=0x0,accu=3.216000,h_rel=4,speed=0.000000,time=1763337457000,SV_used=16,l5=0,e5=0*00,1763337457822
NMEA,$GPGSV,3,1,11,01,17,077,47,02,11,046,38,07,25,119,38,13,55,267,47,1*69,1763337458812
NMEA,$GPGSV,3,2,11,14,65,021,48,15,28,293,48,17,68,165,52,19,46,189,50,1*64,1763337458812
NMEA,$GPGSV,3,3,11,22,69,333,46,30,53,115,48,24,00,000,,1*50,1763337458812
NMEA,$GLGSV,3,1,10,86,28,142,44,76,47,326,36,75,39,053,48,65,21,216,33,1*7F,1763337458812
NMEA,$GLGSV,3,2,10,84,08,023,39,85,38,066,46,67,14,329,27,74,00,000,,1*79,1763337458812
NMEA,$GLGSV,3,3,10,77,11,288,,87,00,000,,1*74,1763337458812
NMEA,$GNGSA,A,3,01,02,07,13,14,15,17,19,22,30,,,1.0,0.7,0.7,1*3A,1763337458817
NMEA,$GNGSA,A,3,65,75,76,84,85,86,,,,,,,1.0,0.7,0.7,2*3C,1763337458817
NMEA,$GNVTG,,T,,M,0.0,N,0.0,K,A*3D,1763337458817
NMEA,$GNDTM,P90,,0000.000025,S,00000.000001,E,0.981,W84*58,1763337458817
NMEA,$GNRMC,235738.00,A,3725.698602,N,12210.006997,W,0.0,,161125,15.0,E,A,V*50,1763337458817
NMEA,$GNGNS,235738.00,3725.698602,N,12210.006997,W,AA,16,0.7,25.2,-27.9,,,V*2D,1763337458817
NMEA,$GNGGA,235738.00,3725.698602,N,12210.006997,W,1,12,0.7,25.2,M,-27.9,M,,*79,1763337458817
NMEA,$PSMSG,tech=0x1,sensor=0x0,accu=3.216000,h_rel=4,speed=0.000000,time=1763337458000,SV_used=16,l5=0,e5=0*00,1763337458822
NMEA,$GPGSV,3,1,11,01,17,077,45,02,11,046,35,07,25,119,36,13,55,267,44,1*6B,1763337459813
NMEA,$GPGSV,3,2,11,14,65,021,46,15,28,293,46,17,68,165,50,19,46,189,47,1*60,1763337459813
NMEA,$GPGSV,3,3,11,22,69,333,44,30,53,115,44,24,00,000,,1*5E,1763337459813
NMEA,$GLGSV,3,1,10,86,28,142,40,76,47,326,31,75,39,053,46,65,21,216,31,1*70,1763337459813
NMEA,$GLGSV,3,2,10,84,08,023,37,85,38,066,44,67,14,329,27,74,00,000,,1*75,1763337459813
NMEA,$GLGSV,3,3,10,77,11,288,,87,00,000,,1*74,1763337459813
NMEA,$GNGSA,A,3,01,02,07,13,14,15,17,19,22,30,,,1.0,0.7,0.7,1*3A,1763337459822
NMEA,$GNGSA,A,3,65,75,76,84,85,86,,,,,,,1.0,0.7,0.7,2*3C,1763337459822
NMEA,$GNVTG,,T,,M,0.0,N,0.0,K,A*3D,1763337459822
NMEA,$GNDTM,P90,,0000.000025,S,00000.000001,E,0.981,W84*58,1763337459822
NMEA,$GNRMC,235739.00,A,3725.698601,N,12210.006998,W,0.0,,161125,15.0,E,A,V*5D,1763337459822
NMEA,$GNGNS,235739.00,3725.698601,N,12210.006998,W,AA,16,0.7,25.2,-27.9,,,V*20,1763337459822
NMEA,$GNGGA,235739.00,3725.698601,N,12210.006998,W,1,12,0.7,25.2,M,-27.9,M,,*74,1763337459822
NMEA,$PSMSG,tech=0x1,sensor=0x0,accu=3.216000,h_rel=4,speed=0.000000,time=1763337459000,SV_used=16,l5=0,e5=0*00,1763337459825
NMEA,$GPGSV,3,1,11,01,17,077,46,02,11,046,35,07,25,119,37,13,55,267,44,1*69,1763337460814
NMEA,$GPGSV,3,2,11,14,65,021,47,15,28,293,47,17,68,165,51,19,46,189,47,1*61,1763337460814
NMEA,$GPGSV,3,3,11,22,69,333,45,30,53,115,44,24,00,000,,1*5F,1763337460814
NMEA,$GLGSV,3,1,10,86,28,142,42,76,47,326,30,75,39,053,46,65,21,216,33,1*71,1763337460814
NMEA,$GLGSV,3,2,10,84,08,023,38,85,38,066,44,67,14,329,27,74,00,000,,1*7A,1763337460814
NMEA,$GLGSV,3,3,10,77,11,288,,87,00,000,,1*74,1763337460814
NMEA,$GNGSA,A,3,01,02,07,13,14,15,17,19,22,30,,,1.0,0.7,0.7,1*3A,1763337460822
NMEA,$GNGSA,A,3,65,75,76,84,85,86,,,,,,,1.0,0.7,0.7,2*3C,1763337460822
NMEA,$GNVTG,,T,,M,0.0,N,0.0,K,A*3D,1763337460822
NMEA,$GNDTM,P90,,0000.000025,S,00000.000001,E,0.981,W84*58,1763337460822
NMEA,$GNRMC,235740.00,A,3725.698598,N,12210.006998,W,0.0,,161125,15.0,E,A,V*50,1763337460822
NMEA,$GNGNS,235740.00,3725.698598,N,12210.006998,W,AA,16,0.7,25.2,-27.9,,,V*2D,1763337460822
NMEA,$GNGGA,235740.00,3725.698598,N,12210.006998,W,1,12,0.7,25.2,M,-27.9,M,,*79,1763337460822
NMEA,$PSMSG,tech=0x1,sensor=0x0,accu=3.216000,h_rel=4,speed=0.000000,time=1763337460000,SV_used=16,l5=0,e5=0*00,1763337460825
NMEA,$GPGSV,3,1,11,01,17,077,45,02,11,046,33,07,25,119,36,13,55,267,43,1*6A,1763337461814
NMEA,$GPGSV,3,2,11,14,65,021,46,15,28,293,46,17,68,165,51,19,46,189,46,1*60,1763337461814
NMEA,$GPGSV,3,3,11,22,69,333,45,30,53,115,43,24,00,000,,1*58,1763337461814
NMEA,$GLGSV,3,1,10,86,28,142,42,76,47,326,28,75,39,053,45,65,21,216,33,1*7B,1763337461814
NMEA,$GLGSV,3,2,10,84,08,023,37,85,38,066,42,67,14,329,27,74,00,000,,1*73,1763337461814
NMEA,$GLGSV,3,3,10,77,11,288,,87,00,000,,1*74,1763337461814
NMEA,$GNGSA,A,3,01,02,07,13,14,15,17,19,22,30,,,1.0,0.7,0.7,1*3A,1763337461826
NMEA,$GNGSA,A,3,65,75,76,84,85,86,,,,,,,1.0,0.7,0.7,2*3C,1763337461826
NMEA,$GNVTG,,T,,M,0.0,N,0.0,K,A*3D,1763337461826
NMEA,$GNDTM,P90,,0000.000025,S,00000.000001,E,0.981,W84*58,1763337461826
NMEA,$GNRMC,235741.00,A,3725.698597,N,12210.007000,W,0.0,,161125,15.0,E,A,V*57,1763337461826
NMEA,$GNGNS,235741.00,3725.698597,N,12210.007000,W,AA,16,0.7,25.2,-27.9,,,V*2A,1763337461826
NMEA,$GNGGA,235741.00,3725.698597,N,12210.007000,W,1,12,0.7,25.2,M,-27.9,M,,*7E,1763337461826
NMEA,$PSMSG,tech=0x1,sensor=0x0,accu=3.216000,h_rel=4,speed=0.000000,time=1763337461000,SV_used=16,l5=0,e5=0*00,1763337461829
NMEA,$GPGSV,3,1,11,01,17,077,47,02,11,046,36,07,25,119,38,13,55,267,45,1*65,1763337462813
NMEA,$GPGSV,3,2,11,14,65,021,47,15,28,293,48,17,68,165,54,19,46,189,48,1*64,1763337462813
NMEA,$GPGSV,3,3,11,22,69,333,46,30,53,115,45,24,00,000,,1*5D,1763337462813
NMEA,$GLGSV,3,1,10,86,28,142,43,76,47,326,31,75,39,053,47,65,21,216,34,1*77,1763337462813
NMEA,$GLGSV,3,2,10,84,08,023,39,85,38,066,44,67,14,329,27,74,00,000,,1*7B,1763337462813
NMEA,$GLGSV,3,3,10,77,11,288,,87,00,000,,1*74,1763337462813
NMEA,$GNGSA,A,3,01,02,07,13,14,15,17,19,22,30,,,1.0,0.7,0.7,1*3A,1763337462822
NMEA,$GNGSA,A,3,65,75,76,84,85,86,,,,,,,1.0,0.7,0.7,2*3C,1763337462822
NMEA,$GNVTG,,T,,M,0.0,N,0.0,K,A*3D,1763337462822
NMEA,$GNDTM,P90,,0000.000025,S,00000.000001,E,0.981,W84*58,1763337462822
NMEA,$GNRMC,235742.00,A,3725.698610,N,12210.007002,W,0.0,,161125,15.0,E,A,V*5A,1763337462822
NMEA,$GNGNS,235742.00,3725.698610,N,12210.007002,W,AA,16,0.7,25.2,-27.9,,,V*27,1763337462822
NMEA,$GNGGA,235742.00,3725.698610,N,12210.007002,W,1,12,0.7,25.2,M,-27.9,M,,*73,1763337462822
NMEA,$PSMSG,tech=0x1,sensor=0x0,accu=3.216000,h_rel=4,speed=0.000000,time=1763337462000,SV_used=16,l5=0,e5=0*00,1763337462824
NMEA,$GPGSV,3,1,11,01,17,077,45,02,11,046,34,07,25,119,34,13,55,267,43,1*6F,1763337463811
NMEA,$GPGSV,3,2,11,14,65,021,45,15,28,293,46,17,68,165,51,19,46,189,45,1*60,1763337463811
NMEA,$GPGSV,3,3,11,22,69,333,44,30,53,115,42,24,00,000,,1*58,1763337463811
NMEA,$GLGSV,3,1,10,86,28,142,40,76,47,326,31,75,39,053,45,65,21,216,32,1*70,1763337463811
NMEA,$GLGSV,3,2,10,84,08,023,36,85,38,066,41,67,14,329,24,74,00,000,,1*72,1763337463811
NMEA,$GLGSV,3,3,10,77,11,288,,87,00,000,,1*74,1763337463811
NMEA,$GNGSA,A,3,01,02,07,13,14,15,17,19,22,30,,,1.0,0.7,0.7,1*3A,1763337463818
NMEA,$GNGSA,A,3,65,75,76,84,85,86,,,,,,,1.0,0.7,0.7,2*3C,1763337463818
NMEA,$GNVTG,,T,,M,0.0,N,0.0,K,A*3D,1763337463818
NMEA,$GNDTM,P90,,0000.000025,S,00000.000001,E,0.981,W84*58,1763337463818
NMEA,$GNRMC,235743.00,A,3725.698616,N,12210.007006,W,0.0,,161125,15.0,E,A,V*59,1763337463818
NMEA,$GNGNS,235743.00,3725.698616,N,12210.007006,W,AA,16,0.7,25.2,-27.9,,,V*24,1763337463818
NMEA,$GNGGA,235743.00,3725.698616,N,12210.007006,W,1,12,0.7,25.2,M,-27.9,M,,*70,1763337463818
NMEA,$PSMSG,tech=0x1,sensor=0x0,accu=3.216000,h_rel=4,speed=0.000000,time=1763337463000,SV_used=16,l5=0,e5=0*00,1763337463820
NMEA,$GPGSV,3,1,11,01,17,077,45,02,11,046,33,07,25,119,35,13,55,267,43,1*69,1763337464818
NMEA,$GPGSV,3,2,11,14,65,021,46,15,28,293,46,17,68,165,51,19,46,189,45,1*63,1763337464818
NMEA,$GPGSV,3,3,11,22,69,333,44,30,53,115,42,24,00,000,,1*58,1763337464818
NMEA,$GLGSV,3,1,10,86,28,142,41,76,47,326,29,75,39,053,45,65,21,216,34,1*7E,1763337464818
NMEA,$GLGSV,3,2,10,84,08,023,36,85,38,066,42,67,14,329,26,74,00,000,,1*73,1763337464818
NMEA,$GLGSV,3,3,10,77,11,288,,87,00,000,,1*74,1763337464818
NMEA,$GNGSA,A,3,01,02,07,13,14,15,17,19,22,30,,,1.0,0.7,0.7,1*3A,1763337464826
NMEA,$GNGSA,A,3,65,75,76,84,85,86,,,,,,,1.0,0.7,0.7,2*3C,1763337464826
NMEA,$GNVTG,,T,,M,0.0,N,0.0,K,A*3D,1763337464826
NMEA,$GNDTM,P90,,0000.000025,S,00000.000001,E,0.981,W84*58,1763337464826
NMEA,$GNRMC,235744.00,A,3725.698619,N,12210.007008,W,0.0,,161125,15.0,E,A,V*5F,1763337464826
NMEA,$GNGNS,235744.00,3725.698619,N,12210.007008,W,AA,16,0.7,25.2,-27.9,,,V*22,1763337464826
NMEA,$GNGGA,235744.00,3725.698619,N,12210.007008,W,1,12,0.7,25.2,M,-27.9,M,,*76,1763337464826
NMEA,$PSMSG,tech=0x1,sensor=0x0,accu=3.216000,h_rel=4,speed=0.000000,time=1763337464000,SV_used=16,l5=0,e5=0*00,1763337464828
NMEA,$GPGSV,3,1,11,01,17,077,46,02,11,046,35,07,25,119,34,13,55,267,44,1*6A,1763337465808
NMEA,$GPGSV,3,2,11,14,65,021,46,15,28,293,47,17,68,165,53,19,46,189,47,1*62,1763337465808
NMEA,$GPGSV,3,3,11,22,69,333,45,30,53,115,42,24,00,000,,1*59,1763337465808
NMEA,$GLGSV,3,1,10,86,28,142,42,76,47,326,30,75,39,053,46,65,21,216,33,1*71,1763337465808
NMEA,$GLGSV,3,2,10,84,08,023,36,85,38,066,42,67,14,329,27,74,00,000,,1*72,1763337465808
NMEA,$GLGSV,3,3,10,77,11,288,,87,00,000,,1*74,1763337465808
NMEA,$GNGSA,A,3,01,02,07,13,14,15,17,19,22,30,,,1.0,0.7,0.7,1*3A,1763337465815
NMEA,$GNGSA,A,3,65,75,76,84,85,86,,,,,,,1.0,0.7,0.7,2*3C,1763337465815
NMEA,$GNVTG,,T,,M,0.0,N,0.0,K,A*3D,1763337465815
NMEA,$GNDTM,P90,,0000.000025,S,00000.000001,E,0.981,W84*58,1763337465815
NMEA,$GNRMC,235745.00,A,3725.698622,N,12210.007009,W,0.0,,161125,15.0,E,A,V*57,1763337465815
NMEA,$GNGNS,235745.00,3725.698622,N,12210.007009,W,AA,16,0.7,25.2,-27.9,,,V*2A,1763337465815
NMEA,$GNGGA,235745.00,3725.698622,N,12210.007009,W,1,12,0.7,25.2,M,-27.9,M,,*7E,1763337465815
NMEA,$PSMSG,tech=0x1,sensor=0x0,accu=3.216000,h_rel=4,speed=0.000000,time=1763337465000,SV_used=16,l5=0,e5=0*00,1763337465817
NMEA,$GPGSV,3,1,11,01,17,077,44,02,11,046,34,07,25,119,38,13,55,267,42,1*63,1763337466814
NMEA,$GPGSV,3,2,11,14,65,021,45,15,28,293,46,17,68,165,51,19,46,189,45,1*60,1763337466814
NMEA,$GPGSV,3,3,11,22,69,333,45,30,53,115,44,24,00,000,,1*5F,1763337466814
NMEA,$GLGSV,3,1,10,86,28,142,42,76,47,326,31,75,39,053,45,65,21,216,35,1*75,1763337466814
NMEA,$GLGSV,3,2,10,84,08,023,36,85,38,066,43,67,14,329,28,74,00,000,,1*7C,1763337466814
NMEA,$GLGSV,3,3,10,77,11,288,,87,00,000,,1*74,1763337466814
NMEA,$GNGSA,A,3,01,02,07,13,14,15,17,19,22,30,,,1.0,0.7,0.7,1*3A,1763337466820
NMEA,$GNGSA,A,3,65,75,76,84,85,86,,,,,,,1.0,0.7,0.7,2*3C,1763337466820
NMEA,$GNVTG,,T,,M,0.0,N,0.0,K,A*3D,1763337466820
NMEA,$GNDTM,P90,,0000.000025,S,00000.000001,E,0.981,W84*58,1763337466820
NMEA,$GNRMC,235746.00,A,3725.698719,N,12210.006984,W,0.0,,161125,15.0,E,A,V*50,1763337466820
NMEA,$GNGNS,235746.00,3725.698719,N,12210.006984,W,AA,16,0.7,24.8,-27.9,,,V*26,1763337466820
NMEA,$GNGGA,235746.00,3725.698719,N,12210.006984,W,1,12,0.7,24.8,M,-27.9,M,,*72,1763337466820
NMEA,$PSMSG,tech=0x1,sensor=0x0,accu=3.216000,h_rel=4,speed=0.000000,time=1763337466000,SV_used=16,l5=0,e5=0*00,1763337466824
NMEA,$GPGSV,3,1,11,01,17,077,42,02,11,046,35,07,25,119,39,13,55,267,47,1*60,1763337467811
NMEA,$GPGSV,3,2,11,14,65,021,48,15,28,293,44,17,68,165,49,19,46,189,46,1*65,1763337467811
NMEA,$GPGSV,3,3,11,22,69,333,47,30,53,115,53,24,00,000,,1*5B,1763337467811
NMEA,$GLGSV,3,1,10,86,28,142,43,76,47,326,38,75,39,053,46,65,21,216,26,1*7C,1763337467811
NMEA,$GLGSV,3,2,10,84,08,023,42,85,38,066,45,67,14,329,33,74,00,000,,1*73,1763337467811
NMEA,$GLGSV,3,3,10,77,11,288,,87,00,000,,1*74,1763337467811
NMEA,$GNGSA,A,3,01,02,07,13,14,15,17,19,22,30,,,1.0,0.7,0.7,1*3A,1763337467818
NMEA,$GNGSA,A,3,65,75,76,84,85,86,,,,,,,1.0,0.7,0.7,2*3C,1763337467818
NMEA,$GNVTG,,T,,M,0.0,N,0.0,K,A*3D,1763337467818
NMEA,$GNDTM,P90,,0000.000025,S,00000.000001,E,0.981,W84*58,1763337467818
NMEA,$GNRMC,235747.00,A,3725.698887,N,12210.007158,W,0.0,,161125,15.0,E,A,V*51,1763337467818
NMEA,$GNGNS,235747.00,3725.698887,N,12210.007158,W,AA,16,0.7,24.2,-27.9,,,V*2D,1763337467818
NMEA,$GNGGA,235747.00,3725.698887,N,12210.007158,W,1,12,0.7,24.2,M,-27.9,M,,*79,1763337467818
NMEA,$PSMSG,tech=0x1,sensor=0x0,accu=3.216000,h_rel=4,speed=0.000000,time=1763337467000,SV_used=16,l5=0,e5=0*00,1763337467820
NMEA,$GPGSV,3,1,11,01,17,077,44,02,11,046,38,07,25,119,40,13,55,267,44,1*66,1763337468813
NMEA,$GPGSV,3,2,11,14,65,021,48,15,28,293,44,17,68,165,51,19,46,189,44,1*6E,1763337468813
NMEA,$GPGSV,3,3,11,22,69,333,44,30,53,115,48,24,00,000,,1*52,1763337468813
NMEA,$GLGSV,3,1,10,86,28,142,45,76,47,326,36,75,39,053,50,65,21,216,33,1*77,1763337468813
NMEA,$GLGSV,3,2,10,84,08,023,38,85,38,066,50,67,14,329,31,74,00,000,,1*78,1763337468813
NMEA,$GLGSV,3,3,10,77,11,288,,87,00,000,,1*74,1763337468813
NMEA,$GNGSA,A,3,01,02,07,13,14,15,17,19,22,30,,,1.0,0.7,0.7,1*3A,1763337468821
NMEA,$GNGSA,A,3,65,75,76,84,85,86,,,,,,,1.0,0.7,0.7,2*3C,1763337468821
NMEA,$GNVTG,,T,,M,0.0,N,0.0,K,A*3D,1763337468821
NMEA,$GNDTM,P90,,0000.000025,S,00000.000001,E,0.981,W84*58,1763337468821
NMEA,$GNRMC,235748.00,A,3725.698926,N,12210.007099,W,0.0,,161125,15.0,E,A,V*58,1763337468821
NMEA,$GNGNS,235748.00,3725.698926,N,12210.007099,W,AA,16,0.7,24.1,-27.9,,,V*27,1763337468821
NMEA,$GNGGA,235748.00,3725.698926,N,12210.007099,W,1,12,0.7,24.1,M,-27.9,M,,*73,1763337468821
NMEA,$PSMSG,tech=0x1,sensor=0x0,accu=3.216000,h_rel=4,speed=0.000000,time=1763337468000,SV_used=16,l5=0,e5=0*00,1763337468824
NMEA,$GPGSV,3,1,11,01,17,077,47,02,11,046,40,07,25,119,42,13,55,267,40,1*6C,1763337469814
NMEA,$GPGSV,3,2,11,14,65,021,48,15,28,293,45,17,68,165,50,19,46,189,45,1*6F,1763337469814
NMEA,$GPGSV,3,3,11,22,69,333,45,30,53,115,51,24,00,000,,1*5B,1763337469814
NMEA,$GLGSV,3,1,10,86,28,142,47,76,47,326,39,75,39,053,50,65,21,216,34,1*7D,1763337469814
NMEA,$GLGSV,3,2,10,84,08,023,35,85,38,066,48,67,14,329,32,74,00,000,,1*7F,1763337469814
NMEA,$GLGSV,3,3,10,77,11,288,,87,00,000,,1*74,1763337469814
NMEA,$GNGSA,A,3,01,02,07,13,14,15,17,19,22,30,,,1.0,0.7,0.7,1*3A,1763337469870
NMEA,$GNGSA,A,3,65,75,76,84,85,86,,,,,,,1.0,0.7,0.7,2*3C,1763337469870
NMEA,$GNVTG,,T,,M,0.0,N,0.0,K,A*3D,1763337469870
NMEA,$GNDTM,P90,,0000.000025,S,00000.000001,E,0.981,W84*58,1763337469870
NMEA,$GNRMC,235749.00,A,3725.698912,N,12210.007185,W,0.0,,161125,15.0,E,A,V*52,1763337469870
NMEA,$GNGNS,235749.00,3725.698912,N,12210.007185,W,AA,16,0.7,23.7,-27.9,,,V*2C,1763337469870
NMEA,$GNGGA,235749.00,3725.698912,N,12210.007185,W,1,12,0.7,23.7,M,-27.9,M,,*78,1763337469870
NMEA,$PSMSG,tech=0x1,sensor=0x0,accu=3.216000,h_rel=4,speed=0.000000,time=1763337469000,SV_used=16,l5=0,e5=0*00,1763337469879
NMEA,$GPGSV,3,1,11,01,17,077,48,02,11,046,36,07,25,119,39,13,55,267,47,1*69,1763337470813
NMEA,$GPGSV,3,2,11,14,65,021,49,15,28,293,45,17,68,165,47,19,46,189,48,1*65,1763337470813
NMEA,$GPGSV,3,3,11,22,69,333,42,30,53,115,54,24,00,000,,1*59,1763337470813
NMEA,$GLGSV,3,1,10,86,28,142,48,76,47,326,35,75,39,053,48,65,21,216,36,1*75,1763337470813
NMEA,$GLGSV,3,2,10,84,08,023,34,85,38,066,46,67,14,329,34,74,00,000,,1*76,1763337470813
NMEA,$GLGSV,3,3,10,77,11,288,,87,00,000,,1*74,1763337470813
NMEA,$GNGSA,A,3,01,02,07,13,14,15,17,19,22,30,,,1.0,0.7,0.7,1*3A,1763337470822
NMEA,$GNGSA,A,3,65,75,76,84,85,86,,,,,,,1.0,0.7,0.7,2*3C,1763337470822
NMEA,$GNVTG,,T,,M,0.0,N,0.0,K,A*3D,1763337470822
NMEA,$GNDTM,P90,,0000.000025,S,00000.000001,E,0.981,W84*58,1763337470822
NMEA,$GNRMC,235750.00,A,3725.698732,N,12210.007487,W,0.0,,161125,15.0,E,A,V*51,1763337470822
NMEA,$GNGNS,235750.00,3725.698732,N,12210.007487,W,AA,16,0.7,23.8,-27.9,,,V*20,1763337470822
NMEA,$GNGGA,235750.00,3725.698732,N,12210.007487,W,1,12,0.7,23.8,M,-27.9,M,,*74,1763337470822
NMEA,$PSMSG,tech=0x1,sensor=0x0,accu=3.216000,h_rel=4,speed=0.000000,time=1763337470000,SV_used=16,l5=0,e5=0*00,1763337470824
NMEA,$GPGSV,3,1,11,01,17,077,47,02,11,046,35,07,25,119,39,13,55,267,44,1*66,1763337471820
NMEA,$GPGSV,3,2,11,14,65,021,48,15,28,293,40,17,68,165,43,19,46,189,48,1*65,1763337471820
NMEA,$GPGSV,3,3,11,22,69,333,42,30,53,115,54,24,00,000,,1*59,1763337471820
NMEA,$GLGSV,3,1,10,86,28,142,46,76,47,326,33,75,39,053,46,65,21,216,35,1*70,1763337471820
NMEA,$GLGSV,3,2,10,84,08,023,34,85,38,066,43,67,14,329,34,74,00,000,,1*73,1763337471820
