     4.01           OBSERVATION DATA    M                   RINEX VERSION / TYPE
GnssLogger          samsung 10          20251116 235717 UTC PGM / RUN BY / DATE
Google GnssLogger                                           MARKER NAME
Unknown                                                     MARKER NUMBER
Unknown             Unknown                                 OBSERVER / AGENCY
Unknown             GnssLogger          v3.1.1.1            REC # / TYPE / VERS
Unknown             Unknown                                 ANT # / TYPE
        0.0000        0.0000        0.0000                  ANTENNA: DELTA H/E/N
G    3 C1C D1C S1C                                          SYS / # / OBS TYPES
R    3 C1C D1C S1C                                          SYS / # / OBS TYPES
  2025    11    16    23    57   17.0000000     GLONASS     TIME OF FIRST OBS
 8 R01  1 R03  5 R11  0 R12 -1 R13 -2 R20  2 R21  4 R22 -3  GLONASS SLOT / FRQ #
samsung SM-G9600 (Android 10) HW Year: 2017 HW Model:       COMMENT

                                                            END OF HEADER
> 2025 11 16 23 57 17.4378746  0 18                      
R22  21720330.981 5      3643.568 5        35.400 5
R13  23369076.778 4      2596.200 4        23.900 4
R12  20426311.612 7      1129.676 7        45.600 7
R11  20969947.761 7     -1579.404 7        43.600 7
R01  22451939.399 3     -3972.550 3        19.400 3
R20  23744141.426 5     -3172.557 5        31.800 5
R21  21094106.207 6      -216.234 6        38.400 6
R03  23202675.475 3      2506.850 3        22.200 3
G01  23793152.696 7       892.416 7        42.900 7
G02  24711983.003 4     -1428.650 4        27.700 4
G07  23018900.300 4     -2583.050 4        29.100 4
G13  20799265.122 5      -329.788 5        33.400 5
G14  20472484.147 6      -719.935 6        39.500 6
G15  22395639.874 5       624.093 5        35.400 5
G17  20532777.207 7      1029.744 7        43.900 7
G19  21607086.778 6      2707.198 6        36.000 6
G22  20720877.488 6      -283.004 6        41.000 6
G30  21096323.472 7     -1699.578 7        44.600 7
> 2025 11 16 23 57 18.4378746  0 16                      
R22  21719643.257 6      3650.481 6        37.100 6
R12  20426101.158 7      1137.348 7        42.800 7
R11  20970239.159 7     -1572.112 7        45.600 7
R01  22452683.184 4     -3965.100 4        24.900 4
R20  23744750.605 5     -3166.290 5        34.800 5
R21  21094143.382 6      -209.387 6        41.000 6
G01  23792989.909 6       899.494 6        41.400 6
G02  24712277.400 4     -1422.350 4        27.100 4
G07  23019391.660 5     -2579.650 5        29.900 5
G13  20799321.483 5      -321.842 5        33.900 5
G14  20472618.754 6      -712.937 6        40.900 6
G15  22395521.456 4       629.350 4        26.700 4
G17  20532581.743 7      1036.114 7        44.200 7
G19  21606565.439 6      2713.303 6        37.500 6
G22  20720940.145 6      -275.990 6        39.800 6
G30  21096646.949 7     -1693.206 7        42.700 7
> 2025 11 16 23 57 19.4378746  0 18                      
R22  21718974.120 6      3652.022 6        37.000 6
R13  23368112.646 3      2611.700 3        21.300 3
R12  20425884.108 7      1138.806 7        43.700 7
R11  20970545.247 7     -1570.469 7        44.100 7
R01  22453468.640 4     -3964.900 4        24.700 4
R20  23745337.598 6     -3165.153 6        35.600 6
R21  21094197.944 7      -208.537 7        41.500 7
R03  23201657.080 3      2519.050 3        20.100 3
G01  23792803.138 7       900.884 7        42.100 7
G02  24712547.213 5     -1422.873 5        31.000 5
G07  23019889.016 4     -2572.350 4        24.700 4
G13  20799373.647 5      -321.543 5        32.500 5
G14  20472754.260 6      -711.269 6        36.400 6
G15  22395404.537 6       631.948 6        37.800 6
G17  20532388.077 7      1037.276 7        45.800 7
G19  21606059.989 6      2714.616 6        40.200 6
G22  20720993.208 6      -274.462 6        40.600 6
G30  21096963.829 7     -1691.592 7        43.200 7
> 2025 11 16 23 57 20.4378746  0 15                      
R22  21718279.201 6      3647.251 6        36.500 6
R12  20425670.956 7      1134.225 7        44.200 7
R11  20970835.146 7     -1575.052 7        43.200 7
R20  23745937.483 5     -3169.639 5        34.600 5
R21  21094240.814 6      -213.960 6        41.300 6
R03  23201180.111 4      2511.750 4        24.700 4
G01  23792634.655 7       895.967 7        42.200 7
G02  24712824.221 5     -1425.814 5        33.900 5
G13  20799438.102 6      -326.453 6        37.500 6
G14  20472892.165 5      -715.780 5        34.800 5
G15  22395290.916 6       626.921 6        39.900 6
G17  20532193.212 7      1032.470 7        46.800 7
G19  21605544.946 6      2710.205 6        41.200 6
G22  20721047.171 7      -278.851 7        41.900 7
G30  21097286.406 7     -1696.140 7        45.000 7
> 2025 11 16 23 57 21.4378746  0 17                      
R22  21717611.264 6      3645.847 6        35.500 6
R12  20425456.304 7      1133.149 7        43.900 7
R11  20971127.744 7     -1576.029 7        43.400 7
R01  22454949.615 3     -3968.050 3        19.900 3
R20  23746538.567 5     -3171.175 5        33.900 5
R21  21094270.194 7      -215.825 7        41.500 7
R03  23200775.091 4      2509.650 4        25.300 4
G01  23792461.675 6       894.585 6        41.400 6
G02  24713095.533 5     -1426.911 5        32.800 5
G07  23020860.643 3     -2584.550 3        20.700 3
G13  20799498.960 6      -327.902 6        37.100 6
G14  20473028.571 5      -716.527 5        34.400 5
G15  22395170.100 6       625.155 6        38.700 6
G17  20531992.351 7      1031.016 7        45.800 7
G19  21605032.001 6      2708.980 6        41.300 6
G22  20721096.936 6      -280.140 6        41.200 6
G30  21097607.484 7     -1697.566 7        43.900 7
> 2025 11 16 23 57 22.4378746  0 16                      
R22  21716936.431 6      3638.382 6        35.800 6
R12  20425245.850 7      1125.563 7        44.400 7
R11  20971428.735 7     -1583.558 7        43.300 7
R01  22455719.782 3     -3977.150 3        21.400 3
R20  23747119.565 6     -3179.006 6        36.100 6
R21  21094300.473 6      -223.928 6        40.000 6
R03  23200308.614 4      2502.200 4        29.100 4
G01  23792293.491 7       886.829 7        41.800 7
G02  24713366.546 5     -1435.178 5        34.500 5
G13  20799566.713 6      -335.898 6        39.800 6
G14  20473165.875 5      -724.049 5        34.300 5
G15  22395053.181 6       617.095 6        39.200 6
G17  20531801.683 7      1023.266 7        45.900 7
G19  21604516.058 6      2701.225 6        41.400 6
G22  20721152.398 6      -287.469 6        41.400 6
G30  21097931.859 7     -1705.156 7        45.700 7
> 2025 11 16 23 57 23.4378746  0 15                      
R22  21716253.504 6      3629.669 6        36.200 6
R12  20425035.096 7      1117.223 7        44.000 7
R11  20971720.433 7     -1592.015 7        43.700 7
R20  23747718.850 5     -3187.709 5        34.900 5
R21  21094348.740 6      -233.218 6        41.000 6
R03  23199840.638 4      2495.500 4        28.400 4
G01  23792128.006 7       878.235 7        43.400 7
G02  24713643.854 5     -1443.829 5        34.000 5
G13  20799639.862 6      -344.693 6        41.100 6
G14  20473295.386 5      -732.835 5        33.900 5
G15  22394936.561 6       608.570 6        39.400 6
G17  20531608.017 7      1014.532 7        45.800 7
G19  21604004.312 6      2692.789 6        41.200 6
G22  20721209.958 7      -295.997 7        41.500 7
G30  21098258.333 7     -1713.620 7        46.100 7
> 2025 11 16 23 57 24.4378746  0 15                      
R22  21715565.780 5      3632.174 5        35.400 5
R12  20424830.637 7      1119.997 7        44.100 7
R11  20972016.628 7     -1589.147 7        42.300 7
R20  23748309.141 5     -3185.651 5        35.400 5
R21  21094396.706 6      -230.972 6        41.000 6
R03  23199402.341 5      2494.899 5        30.000 5
G01  23791959.522 7       880.518 7        43.000 7
G02  24713921.761 5     -1441.277 5        33.500 5
G13  20799697.722 6      -342.472 6        40.900 6
G14  20473419.500 5      -730.190 5        32.800 5
G15  22394826.837 6       610.922 6        39.200 6
G17  20531415.550 7      1016.818 7        45.800 7
G19  21603493.466 6      2695.291 6        40.800 6
G22  20721260.923 6      -293.179 6        41.300 6
G30  21098585.107 7     -1711.155 7        45.800 7
> 2025 11 16 23 57 25.4378746  0 17                      
R22  21714876.557 6      3636.619 6        35.900 6
R12  20424624.380 7      1124.408 7        42.700 7
R11  20972316.721 7     -1584.823 7        42.600 7
R01  22457980.817 4     -3979.450 4        24.000 4
R20  23748899.732 5     -3180.784 5        34.600 5
R21  21094431.782 6      -227.386 6        40.300 6
R03  23198943.359 4      2502.500 4        27.900 4
G01  23791794.637 7       884.420 7        42.100 7
G02  24714209.562 5     -1437.731 5        31.400 5
G07  23022892.337 3     -2594.000 3        21.700 3
G13  20799769.672 6      -338.204 6        38.700 6
G14  20473567.897 5      -725.986 5        35.100 5
G15  22394714.415 6       614.681 6        37.700 6
G17  20531220.985 7      1020.965 7        44.600 7
G19  21602977.223 6      2699.847 6        40.900 6
G22  20721317.883 6      -288.880 6        40.800 6
G30  21098910.981 7     -1707.069 7        44.800 7
> 2025 11 16 23 57 26.4378746  0 17                      
R22  21714179.839 5      3644.797 5        32.700 5
R12  20424411.827 5      1132.872 5        33.600 5
R11  20972597.926 7     -1576.047 7        41.700 7
R01  22458645.157 4     -3966.750 4        24.900 4
R20  23749499.017 5     -3173.033 5        35.400 5
R21  21094480.348 7      -219.467 7        44.600 7
R03  23198413.026 4      2506.200 4        28.600 4
G01  23791621.656 7       892.727 7        42.500 7
G02  24714499.162 4     -1426.300 4        24.500 4
G07  23023383.097 4     -2582.300 4        27.500 4
G13  20799822.136 6      -330.669 6        41.000 6
G14  20473724.389 6      -717.092 6        38.100 6
G15  22394573.213 5       622.270 5        35.400 5
G17  20531020.424 6      1028.887 6        40.800 6
G19  21602451.987 6      2708.282 6        35.500 6
G22  20721368.249 6      -281.734 6        36.600 6
G30  21099237.755 7     -1698.518 7        43.400 7
> 2025 11 16 23 57 27.4378747  0 17                      
R22  21713510.103 6      3646.276 6        38.800 6
R12  20424194.478 6      1134.481 6        36.900 6
R11  20972898.318 7     -1574.398 7        43.100 7
R01  22459442.005 4     -3969.150 4        28.500 4
R20  23750086.311 6     -3171.689 6        36.000 6
R21  21094519.921 7      -218.473 7        42.800 7
R03  23197989.419 4      2511.800 4        25.800 4
G01  23791458.569 7       894.145 7        41.600 7
G02  24714723.107 4     -1422.600 4        25.700 4
G07  23023842.679 5     -2582.177 5        34.100 5
G13  20799883.893 6      -329.306 6        41.300 6
G14  20473863.792 6      -715.875 6        40.000 6
G15  22394480.877 4       623.150 4        28.800 4
G17  20530822.261 7      1029.931 7        44.200 7
G19  21601940.841 6      2708.500 6        36.500 6
G22  20721417.714 6      -279.389 6        36.800 6
G30  21099559.732 7     -1697.669 7        44.500 7
> 2025 11 16 23 57 28.4378747  0 17                      
R22  21712833.471 6      3641.910 6        38.100 6
R12  20423988.220 6      1130.759 6        39.500 6
R11  20973195.412 7     -1578.511 7        44.100 7
R01  22460181.593 4     -3970.100 4        29.000 4
R20  23750681.399 6     -3176.423 6        35.700 6
R21  21094562.192 7      -223.264 7        44.000 7
R03  23197500.758 3      2508.650 3        23.200 3
G01  23791295.782 6       889.575 6        39.200 6
G02  24714961.442 4     -1430.100 4        25.500 4
G07  23024307.057 4     -2589.550 4        25.500 4
G13  20799942.353 7      -333.875 7        43.900 7
G14  20474010.091 7      -719.745 7        42.600 7
G15  22394333.079 4       621.100 4        28.800 4
G17  20530626.496 7      1025.651 7        43.700 7
G19  21601420.701 6      2704.859 6        40.400 6
G22  20721464.782 6      -282.904 6        36.100 6
G30  21099876.912 6     -1701.786 6        39.400 6
> 2025 11 16 23 57 29.4378747  0 17                      
R22  21712145.448 6      3625.666 6        36.200 6
R12  20423769.072 6      1114.698 6        36.900 6
R11  20973485.611 7     -1594.822 7        42.600 7
R01  22460937.970 4     -3985.250 4        27.500 4
R20  23751280.384 5     -3191.701 5        33.000 5
R21  21094611.058 6      -240.318 6        41.300 6
R03  23197045.373 4      2487.000 4        26.400 4
G01  23791125.800 6       873.420 6        40.000 6
G02  24715251.041 4     -1448.150 4        28.000 4
G07  23024852.080 5     -2601.708 5        31.100 5
G13  20800008.607 7      -350.018 7        43.300 7
G14  20474136.903 6      -736.102 6        39.900 6
G15  22394192.776 4       598.400 4        25.100 4
G17  20530435.828 7      1009.322 7        43.600 7
G19  21600915.850 6      2689.264 6        39.500 6
G22  20721522.941 6      -298.908 6        38.500 6
G30  21100204.885 7     -1717.652 7        42.600 7
> 2025 11 16 23 57 30.4378747  0 16                      
R22  21711467.317 5      3616.091 5        34.500 5
R12  20423573.608 6      1104.961 6        38.600 6
R11  20973789.601 7     -1603.858 7        43.000 7
R20  23751880.868 5     -3203.000 5        31.200 5
R21  21094656.327 7      -250.126 7        42.300 7
R03  23196495.853 4      2476.750 4        26.700 4
G01  23790951.620 6       864.308 6        40.700 6
G02  24715564.024 4     -1457.850 4        28.000 4
G07  23025340.742 4     -2613.500 4        27.200 4
G13  20800074.262 6      -359.842 6        40.600 6
G14  20474271.810 6      -744.724 6        40.700 6
G15  22394132.218 5       594.300 5        30.200 5
G17  20530244.261 7       999.840 7        43.000 7
G19  21600406.803 6      2679.688 6        39.800 6
G22  20721584.399 6      -308.262 6        40.900 6
G30  21100531.359 7     -1727.231 7        43.900 7
> 2025 11 16 23 57 31.4378747  0 17                      
R22  21710787.088 5      3606.640 5        34.800 5
R12  20423373.046 6      1095.592 6        37.800 6
R11  20974084.896 6     -1613.310 6        40.800 6
R01  22462433.934 4     -4005.600 4        24.100 4
R20  23752482.252 5     -3211.903 5        31.500 5
R21  21094702.794 6      -260.614 6        36.400 6
R03  23196074.945 4      2468.900 4        28.200 4
G01  23790793.330 6       854.314 6        40.800 6
G02  24715814.351 5     -1467.997 5        32.800 5
G07  23025793.128 5     -2621.153 5        30.400 5
G13  20800140.516 6      -370.109 6        40.100 6
G14  20474425.603 7      -754.478 7        43.300 7
G15  22394009.603 5       583.209 5        30.900 5
G17  20530057.790 7       989.962 7        44.900 7
G19  21599896.556 6      2669.892 6        40.500 6
G22  20721650.053 6      -317.735 6        40.300 6
G30  21100862.030 7     -1736.744 7        43.000 7
> 2025 11 16 23 57 32.4378747  0 17                      
R22  21710114.654 5      3588.831 5        34.100 5
R12  20423162.892 6      1078.567 6        38.100 6
R11  20974396.681 6     -1630.816 6        40.500 6
R01  22463233.780 4     -4021.100 4        26.100 4
R20  23753059.352 5     -3229.637 5        30.900 5
R21  21094749.862 5      -278.792 5        34.600 5
R03  23195587.782 4      2448.500 4        27.900 4
G01  23790624.547 6       837.086 6        39.800 6
G02  24716104.550 5     -1485.123 5        33.000 5
G07  23026311.170 5     -2636.500 5        29.700 5
G13  20800213.665 6      -387.351 6        39.600 6
G14  20474574.900 7      -771.398 7        42.900 7
G15  22393901.978 5       566.690 5        30.900 5
G17  20529870.120 7       972.680 7        44.600 7
G19  21599393.504 6      2652.724 6        39.700 6
G22  20721713.609 6      -334.974 6        40.000 6
G30  21101195.999 7     -1753.996 7        43.400 7
> 2025 11 16 23 57 33.4378747  0 17                      
R22  21709459.307 5      3561.293 5        33.700 5
R12  20422959.033 6      1050.422 6        36.300 6
R11  20974697.972 6     -1658.529 6        40.400 6
R01  22463949.385 3     -4055.850 3        22.300 3
R20  23753692.214 4     -3261.100 4        29.200 4
R21  21094828.407 6      -307.274 6        36.400 6
R03  23195135.995 4      2415.350 4        27.600 4
G01  23790467.156 6       809.542 6        38.200 6
G02  24716384.556 5     -1512.818 5        32.500 5
G07  23026828.012 5     -2665.882 5        30.100 5
G13  20800289.213 6      -415.180 6        39.500 6
G14  20474726.295 7      -798.842 7        42.500 7
G15  22393807.243 5       537.810 5        30.200 5
G17  20529686.947 7       944.789 7        43.700 7
G19  21598884.157 6      2625.121 6        39.500 6
G22  20721775.067 6      -362.188 6        38.700 6
G30  21101530.867 7     -1781.729 7        41.700 7
> 2025 11 16 23 57 34.4378743  0 17                      
R22  21708672.059 5      3536.260 5        34.000 5
R12  20422645.157 6      1025.572 6        36.400 6
R11  20974893.443 6     -1683.444 6        40.300 6
R01  22464540.582 4     -4078.600 4        24.500 4
R20  23754194.973 5     -3282.000 5        29.900 5
R21  21094751.667 6      -332.683 6        36.900 6
R03  23194563.997 4      2397.600 4        26.300 4
G01  23790200.347 6       784.738 6        37.800 6
G02  24716549.449 5     -1537.632 5        32.500 5
G07  23027194.365 4     -2686.650 4        27.600 4
G13  20800252.645 6      -439.866 6        40.000 6
G14  20474757.780 7      -823.234 7        42.700 7
G15  22393577.609 5       511.986 5        31.300 5
G17  20529392.557 7       920.020 7        44.300 7
G19  21598273.486 6      2600.638 6        39.300 6
G22  20721727.407 6      -386.650 6        38.700 6
G30  21101751.222 7     -1806.282 7        41.500 7
> 2025 11 16 23 57 35.4378743  0 15                      
R22  21707997.512 5      3540.314 5        34.900 5
R12  20422451.776 6      1030.443 6        36.300 6
R11  20975209.410 7     -1678.822 7        44.200 7
R20  23754815.829 4     -3278.950 4        28.400 4
R21  21094817.607 7      -328.896 7        43.000 7
G01  23790052.535 5       788.075 5        33.400 5
G02  24716845.030 5     -1535.150 5        30.000 5
G07  23027686.610 4     -2686.400 4        28.000 4
G13  20800343.467 7      -436.093 7        42.700 7
G14  20474915.157 7      -818.938 7        41.600 7
G15  22393482.860 5       515.950 5        34.600 5
G17  20529216.864 7       923.960 7        44.900 7
G19  21597785.110 6      2605.030 6        39.600 6
G22  20721809.235 6      -382.411 6        39.500 6
G30  21102088.174 6     -1801.977 6        40.000 6
> 2025 11 16 23 57 36.4378743  0 17                      
R22  21707334.970 6      3531.922 6        35.700 6
R12  20422248.217 5      1021.751 5        34.800 5
R11  20975520.895 7     -1687.399 7        43.600 7
R01  22466035.333 3     -4081.150 3        20.000 3
R20  23755448.391 5     -3287.865 5        30.500 5
R21  21094875.467 7      -338.013 7        42.100 7
R03  23193744.650 3      2403.650 3        20.300 3
G01  23789898.442 5       780.140 5        34.500 5
G02  24717130.432 5     -1541.759 5        31.200 5
G07  23028220.540 5     -2694.054 5        30.300 5
G13  20800423.812 7      -445.031 7        42.800 7
G14  20475073.447 7      -827.390 7        42.600 7
G15  22393379.731 6       508.115 6        35.700 6
G17  20529039.087 7       915.412 7        45.200 7
G19  21597289.553 6      2596.418 6        40.500 6
G22  20721877.588 6      -390.707 6        40.000 6
G30  21102436.533 7     -1810.524 7        41.700 7
> 2025 11 16 23 57 37.4378743  0 16                      
R22  21706695.213 6      3513.082 6        35.500 6
R12  20422066.243 6      1003.110 6        35.500 6
R11  20975844.670 7     -1706.100 7        43.100 7
R20  23756026.091 5     -3306.496 5        30.700 5
R21  21094935.126 6      -357.603 6        41.300 6
R03  23193178.342 3      2372.400 3        21.000 3
G01  23789750.644 5       761.502 5        35.200 5
G02  24717422.730 5     -1560.682 5        32.700 5
G07  23028737.682 5     -2711.500 5        29.500 5
G13  20800510.452 7      -463.944 7        42.500 7
G14  20475231.438 7      -845.814 7        42.700 7
G15  22393284.997 5       489.360 5        35.400 5
G17  20528867.606 7       896.490 7        45.400 7
G19  21596796.095 6      2577.736 6        39.900 6
G22  20721948.339 6      -409.217 6        39.100 6
G30  21102784.292 7     -1829.388 7        41.800 7
> 2025 11 16 23 57 38.4378743  0 17                      
R22  21706034.770 6      3496.401 6        36.000 6
R12  20421874.376 6       987.165 6        35.700 6
R11  20976169.645 7     -1722.103 7        43.400 7
R01  22467708.175 3     -4110.250 3        20.600 3
R20  23756652.957 5     -3323.081 5        31.100 5
R21  21095014.271 7      -374.436 7        42.100 7
R03  23192795.207 4      2353.700 4        24.200 4
G01  23789604.345 5       745.503 5        33.900 5
G02  24717717.426 5     -1577.134 5        31.400 5
G07  23029260.220 5     -2728.368 5        30.700 5
G13  20800603.687 7      -480.144 7        42.800 7
G14  20475393.625 7      -861.803 7        42.700 7
G15  22393190.262 5       472.781 5        32.500 5
G17  20528701.521 7       880.239 7        44.700 7
G19  21596304.735 6      2561.838 6        41.000 6
G22  20722026.285 6      -424.964 6        38.700 6
G30  21103135.349 7     -1845.398 7        41.900 7
> 2025 11 16 23 57 39.4378743  0 16                      
R22  21705377.625 5      3503.273 5        35.300 5
R12  20421697.798 5       993.879 5        33.300 5
R11  20976488.625 7     -1715.544 7        42.300 7
R20  23757295.712 5     -3319.000 5        29.600 5
R21  21095084.722 6      -368.489 6        41.300 6
R03  23192417.169 4      2357.400 4        24.200 4
G01  23789463.443 5       745.044 5        32.600 5
G02  24718021.415 5     -1574.290 5        32.100 5
G07  23029779.161 5     -2725.950 5        29.700 5
G13  20800691.526 7      -474.255 7        41.600 7
G14  20475559.111 7      -855.305 7        41.800 7
G15  22393110.518 5       473.967 5        30.500 5
G17  20528533.637 7       886.195 7        43.700 7
G19  21595815.474 6      2568.247 6        40.600 6
G22  20722110.827 6      -418.766 6        38.400 6
G30  21103489.104 6     -1839.034 6        40.800 6
> 2025 11 16 23 57 40.4378743  0 3                      
G15  22392997.796 4       555.800 4        28.800 4
G22  20722192.970 5      -358.350 5        35.000 5
G30  21103833.865 6     -1768.850 6        38.800 6
> 2025 11 16 23 57 41.4378743  0 3                      
G15  22392904.260 5       592.950 5        34.500 5
G22  20722234.641 5      -303.100 5        32.000 5
G30  21104160.639 7     -1720.250 7        43.600 7
> 2025 11 16 23 57 42.4378743  0 12                      
R12  20421091.018 7      1116.650 7        44.600 7
R20  23759036.607 5     -3196.400 5        31.700 5
G01  23788981.676 7       871.250 7        42.600 7
G02  24718853.339 5     -1443.800 5        33.800 5
G07  23031278.423 5     -2596.250 5        29.900 5
G13  20800915.172 6      -347.750 6        41.000 6
G14  20475992.011 6      -728.050 6        35.600 6
G15  22392767.555 4       606.950 4        29.300 4
G17  20527971.826 7      1013.300 7        43.600 7
G19  21594277.238 6      2695.150 6        36.800 6
G22  20722317.683 5      -292.840 5        31.100 5
G30  21104490.711 7     -1714.850 7        45.900 7
> 2025 11 16 23 57 43.4378743  0 14                      
R22  21702678.294 6      3628.450 6        36.900 6
R12  20420881.463 7      1116.592 7        43.200 7
R11  20977687.195 7     -1589.950 7        44.900 7
R20  23759668.569 5     -3195.829 5        30.900 5
R21  21095272.093 7      -244.800 7        44.600 7
G01  23788811.394 7       871.013 7        41.900 7
G02  24719119.855 5     -1449.525 5        32.200 5
G07  23031770.083 5     -2602.900 5        29.900 5
G13  20800975.730 7      -353.758 7        41.500 7
G14  20476135.312 6      -733.191 6        37.100 6
G17  20527782.058 7      1006.988 7        43.300 7
G19  21593776.885 6      2689.720 6        38.200 6
G22  20722362.053 6      -297.731 6        35.900 6
G30  21104814.486 7     -1719.026 7        46.900 7
> 2025 11 16 23 57 44.4378743  0 15                      
R22  21701992.669 5      3640.450 5        32.400 5
R12  20420660.816 7      1130.500 7        43.500 7
R11  20977980.092 7     -1578.100 7        44.700 7
R01  22472140.906 5     -3976.050 5        31.100 5
R20  23760271.152 5     -3183.350 5        31.400 5
R21  21095319.460 7      -234.700 7        44.300 7
G01  23788644.110 6       883.362 6        41.000 6
G02  24719404.658 5     -1438.650 5        33.000 5
G07  23032255.447 5     -2588.097 5        30.200 5
G13  20801044.982 7      -342.720 7        42.100 7
G14  20476267.520 6      -721.620 6        38.100 6
G17  20527587.193 7      1018.191 7        43.400 7
G19  21593260.942 6      2701.097 6        39.600 6
G22  20722416.615 6      -285.170 6        36.100 6
G30  21105140.061 7     -1706.305 7        46.500 7
> 2025 11 16 23 57 45.4378743  0 15                      
R22  21701319.635 5      3643.223 5        31.600 5
R12  20420451.261 7      1135.773 7        42.300 7
R11  20978279.285 7     -1572.998 7        44.600 7
R01  22472877.796 5     -3968.700 5        30.300 5
R20  23760854.548 5     -3177.110 5        31.500 5
R21  21095359.932 7      -230.527 7        43.600 7
G01  23788478.624 6       889.311 6        40.300 6
G02  24719676.869 5     -1432.904 5        32.400 5
G07  23032739.012 4     -2583.250 4        29.200 4
G13  20801113.634 7      -337.603 7        41.700 7
G14  20476405.125 6      -715.563 6        37.500 6
G17  20527395.925 7      1023.528 7        41.800 7
G19  21592747.098 6      2706.722 6        38.900 6
G22  20722472.676 6      -279.716 6        35.500 6
G30  21105463.537 7     -1700.608 7        45.900 7
> 2025 11 16 23 57 46.4378743  0 16                      
R22  21700592.638 5      3654.187 5        33.100 5
R12  20420223.719 6      1146.416 6        37.300 6
R11  20978570.084 7     -1561.995 7        42.000 7
R01  22473575.113 5     -3956.452 5        30.100 5
R20  23761455.932 5     -3166.554 5        32.900 5
R21  21095406.999 6      -220.375 6        38.300 6
G01  23788313.139 6       899.611 6        40.800 6
G02  24719973.964 5     -1422.256 5        31.200 5
G07  23033238.766 5     -2572.812 5        32.400 5
G13  20801183.186 7      -327.446 7        42.600 7
G14  20476531.338 6      -705.468 6        40.600 6
G15  22392314.269 5       622.650 5        31.900 5
G17  20527193.565 6      1033.611 6        40.400 6
G19  21592228.157 6      2716.994 6        39.700 6
G22  20722511.649 6      -269.013 6        40.900 6
G30  21105781.917 7     -1690.225 7        47.000 7
> 2025 11 16 23 57 47.4378743  0 16                      
R22  21699932.495 5      3644.195 5        35.400 5
R12  20420018.061 6      1131.519 6        35.800 6
R11  20978864.780 6     -1571.864 6        38.700 6
R01  22474361.169 5     -3965.737 5        30.600 5
R20  23762048.322 5     -3176.300 5        29.600 5
R21  21095445.972 6      -232.320 6        38.600 6
G01  23788139.859 6       889.070 6        40.500 6
G02  24720227.888 5     -1433.951 5        32.300 5
G07  23033733.424 5     -2581.900 5        31.600 5
G13  20801235.950 6      -337.526 6        35.900 6
G14  20476665.945 6      -716.981 6        39.500 6
G15  22392185.058 5       616.223 5        31.700 5
G17  20527000.799 7      1023.728 7        44.500 7
G19  21591709.516 6      2707.446 6        37.000 6
G22  20722565.912 6      -281.238 6        37.800 6
G30  21106107.192 7     -1700.376 7        46.800 7
> 2025 11 16 23 57 48.4378743  0 16                      
R22  21699247.169 5      3640.092 5        35.100 5
R12  20419830.691 6      1131.688 6        37.800 6
R11  20979163.373 5     -1579.450 5        33.400 5
R01  22475103.755 4     -3973.000 4        28.800 4
R20  23762622.724 5     -3182.271 5        31.200 5
R21  21095486.444 6      -236.369 6        39.400 6
G01  23787973.174 6       884.374 6        40.900 6
G02  24720509.393 6     -1437.961 6        35.900 6
G07  23034237.974 5     -2587.368 5        35.300 5
G13  20801291.411 6      -343.056 6        35.700 6
G14  20476790.359 6      -718.550 6        37.400 6
G15  22392064.542 5       610.208 5        34.100 5
G17  20526805.334 7      1018.148 7        44.300 7
G19  21591190.276 5      2701.831 5        35.100 5
G22  20722623.472 6      -284.788 6        35.700 6
G30  21106433.666 7     -1705.198 7        44.700 7
> 2025 11 16 23 57 49.4378743  0 16                      
R22  21698578.632 5      3633.198 5        35.300 5
R12  20419633.727 5      1125.688 5        34.000 5
R11  20979455.970 6     -1582.545 6        37.100 6
R01  22475831.351 4     -3975.300 4        29.400 4
R20  23763234.601 5     -3188.795 5        32.500 5
R21  21095533.512 6      -242.785 6        37.400 6
G01  23787806.490 6       878.690 6        40.900 6
G02  24720774.709 5     -1443.869 5        32.200 5
G07  23034731.733 6     -2593.041 6        36.900 6
G13  20801366.659 6      -349.823 6        38.000 6
G14  20476944.452 7      -725.667 7        41.700 7
G15  22391968.009 5       603.823 5        34.000 5
G17  20526615.865 6      1012.275 6        38.000 6
G19  21590684.226 6      2696.552 6        39.900 6
G22  20722669.340 6      -288.925 6        37.500 6
G30  21106757.142 8     -1711.110 8        48.100 8
> 2025 11 16 23 57 50.4378743  0 16                      
R22  21697888.810 6      3635.185 6        38.600 6
R12  20419377.105 4      1130.300 4        28.200 4
R11  20979754.564 6     -1581.411 6        39.500 6
R01  22476569.740 5     -3974.636 5        31.100 5
R20  23763830.288 5     -3186.426 5        32.500 5
R21  21095588.074 7      -241.999 7        43.300 7
G01  23787639.805 6       879.624 6        40.800 6
G02  24721055.015 5     -1442.152 5        30.500 5
G07  23035214.398 5     -2591.484 5        32.500 5
G13  20801436.810 6      -347.634 6        40.100 6
G14  20477087.453 6      -723.774 6        41.000 6
G15  22391826.806 6       605.229 6        39.500 6
G17  20526416.803 7      1013.792 7        43.700 7
G19  21590176.078 7      2698.014 7        42.300 7
G22  20722727.200 6      -287.410 6        41.300 6
G30  21107085.115 7     -1709.103 7        42.900 7
> 2025 11 16 23 57 51.4378743  0 16                      
R22  21697205.283 6      3645.373 6        38.400 6
R12  20419181.640 5      1138.547 5        32.200 5
R11  20980051.958 7     -1570.573 7        42.500 7
R01  22477295.837 3     -3965.900 3        21.800 3
R20  23764443.364 5     -3176.455 5        34.000 5
R21  21095617.154 7      -231.924 7        41.800 7
G01  23787471.622 6       889.704 6        40.100 6
G02  24721316.134 5     -1432.811 5        32.300 5
G07  23035720.448 5     -2579.850 5        29.800 5
G13  20801496.469 7      -337.950 7        41.600 7
G14  20477213.066 7      -713.588 7        42.100 7
G15  22391714.984 6       615.113 6        39.500 6
G17  20526227.334 7      1023.558 7        44.600 7
G19  21589662.833 7      2708.057 7        42.000 7
G22  20722767.072 6      -277.524 6        36.400 6
G30  21107399.597 7     -1699.515 7        41.600 7
> 2025 11 16 23 57 52.4378743  0 16                      
R22  21696523.555 6      3650.542 6        39.700 6
R12  20418977.482 5      1144.074 5        32.900 5
R11  20980345.155 7     -1565.238 7        44.000 7
R01  22477987.758 4     -3959.350 4        24.300 4
R20  23765003.676 5     -3171.333 5        34.700 5
R21  21095653.728 7      -227.373 7        42.900 7
G01  23787302.239 6       894.646 6        40.700 6
G02  24721593.143 5     -1427.500 5        33.300 5
G07  23036199.816 5     -2576.319 5        30.800 5
G13  20801559.426 7      -333.087 7        42.000 7
G14  20477345.274 7      -708.392 7        42.800 7
G15  22391599.564 6       620.080 6        40.200 6
G17  20526033.068 7      1028.573 7        45.300 7
G19  21589145.391 7      2713.253 7        42.700 7
G22  20722817.737 6      -271.978 6        37.100 6
G30  21107726.970 7     -1694.720 7        41.800 7
> 2025 11 16 23 57 53.4378743  0 16                      
R22  21695837.929 6      3636.463 6        39.400 6
R12  20418767.327 5      1129.820 5        32.100 5
R11  20980635.054 7     -1579.029 7        43.200 7
R01  22478727.047 3     -3973.200 3        21.500 3
R20  23765619.450 5     -3185.152 5        34.400 5
R21  21095705.592 7      -241.886 7        41.600 7
G01  23787135.254 6       881.139 6        39.700 6
G02  24721856.960 5     -1441.669 5        32.100 5
G07  23036695.673 5     -2589.954 5        30.700 5
G13  20801623.581 6      -347.249 6        41.200 6
G14  20477482.280 7      -722.172 7        42.200 7
G15  22391485.343 6       605.893 6        40.800 6
G17  20525840.302 7      1014.569 7        45.300 7
G19  21588630.048 7      2699.429 7        42.400 7
G22  20722868.402 6      -285.893 6        37.300 6
G30  21108055.243 6     -1708.314 6        41.400 6
> 2025 11 16 23 57 54.4378743  0 16                      
R22  21695160.698 6      3634.993 6        40.300 6
R12  20418559.871 5      1128.987 5        32.100 5
R11  20980934.247 7     -1580.559 7        44.100 7
R01  22479494.515 4     -3970.600 4        27.200 4
R20  23766216.037 5     -3187.167 5        35.300 5
R21  21095750.861 7      -244.175 7        42.300 7
G01  23786965.572 6       878.917 6        40.900 6
G02  24722130.671 5     -1443.819 5        33.200 5
G07  23037181.337 5     -2591.013 5        30.400 5
G13  20801694.632 6      -349.093 6        40.800 6
G14  20477620.484 7      -723.464 7        42.600 7
G15  22391367.225 7       604.409 7        42.000 7
G17  20525645.437 7      1012.768 7        46.200 7
G19  21588116.204 7      2697.906 7        43.600 7
G22  20722932.558 6      -286.919 6        39.100 6
G30  21108379.918 7     -1709.959 7        41.700 7
> 2025 11 16 23 57 55.4378743  0 16                      
R22  21694485.865 6      3627.546 6        41.400 6
R12  20418347.917 5      1121.522 5        32.700 5
R11  20981230.442 7     -1587.536 7        44.700 7
R01  22480305.454 5     -3981.791 5        30.300 5
R20  23766810.825 6     -3194.457 6        36.000 6
R21  21095798.828 7      -252.021 7        43.000 7
G01  23786797.988 7       871.857 7        41.700 7
G02  24722417.872 5     -1450.344 5        32.800 5
G07  23037675.694 5     -2598.212 5        33.000 5
G13  20801760.287 7      -356.678 7        42.200 7
G14  20477759.288 7      -730.553 7        43.000 7
G15  22391252.104 7       596.571 7        42.700 7
G17  20525455.668 7      1005.274 7        46.800 7
G19  21587605.057 7      2690.482 7        44.500 7
G22  20722989.518 6      -294.202 6        40.600 6
G30  21108708.191 7     -1717.306 7        42.600 7
> 2025 11 16 23 57 56.4378743  0 16                      
R22  21693802.339 6      3598.045 6        37.300 6
R12  20418139.562 4      1094.900 4        28.400 4
R11  20981529.635 7     -1617.135 7        42.500 7
R01  22481067.526 4     -4016.100 4        27.900 4
R20  23767433.793 5     -3224.247 5        33.500 5
R21  21095860.285 6      -282.339 6        40.500 6
G01  23786637.299 6       842.610 6        40.100 6
G02  24722681.689 5     -1480.500 5        29.700 5
G07  23038184.742 5     -2628.024 5        31.400 5
G13  20801836.434 6      -386.013 6        39.100 6
G14  20477898.991 6      -759.601 6        41.100 6
G15  22391133.686 6       567.101 6        40.900 6
G17  20525267.099 7       975.959 7        45.100 7
G19  21587095.410 7      2661.183 7        41.900 7
G22  20723048.877 6      -323.299 6        38.800 6
G30  21109034.365 6     -1746.569 6        39.100 6
> 2025 11 16 23 57 57.4378735  0 16                      
R22  21692904.639 6      3579.389 6        39.000 6
R12  20417701.444 4      1077.850 4        27.200 4
R11  20981588.273 7     -1635.686 7        43.100 7
R01  22481578.552 5     -4031.750 5        29.800 5
R20  23767771.839 5     -3243.164 5        35.100 5
R21  21095669.796 6      -301.663 6        40.800 6
G01  23786239.054 6       823.929 6        41.300 6
G02  24722715.445 5     -1494.500 5        29.800 5
G07  23038445.441 5     -2646.850 5        31.900 5
G13  20801675.025 6      -404.870 6        39.100 6
G14  20477801.138 7      -778.125 7        41.800 7
G15  22390786.706 7       548.234 7        42.000 7
G17  20524843.071 7       957.144 7        46.400 7
G19  21586347.607 7      2642.919 7        42.400 7
G22  20722878.474 6      -341.701 6        40.100 6
G30  21109123.283 6     -1765.240 6        38.600 6
> 2025 11 16 23 57 58.4378735  0 16                      
R22  21692231.006 6      3555.422 6        38.700 6
R12  20417530.263 4      1047.200 4        24.500 4
R11  20981893.762 7     -1659.207 7        41.800 7
R01  22482331.930 5     -4050.500 5        29.600 5
R20  23768382.216 5     -3267.875 5        33.800 5
R21  21095730.954 6      -325.872 6        39.000 6
G01  23786083.761 6       799.928 6        40.300 6
G02  24723010.740 4     -1520.900 4        28.200 4
G07  23038935.302 5     -2672.788 5        30.900 5
G13  20801761.365 6      -428.740 6        38.300 6
G14  20477955.531 6      -801.426 6        41.000 6
G15  22390685.076 6       524.327 6        41.300 6
G17  20524662.297 7       933.369 7        46.200 7
G19  21585847.553 6      2619.531 6        41.200 6
G22  20722945.628 6      -365.075 6        39.700 6
G30  21109473.740 6     -1788.421 6        38.300 6
> 2025 11 16 23 57 59.4378734  0 16                      
R22  21691531.260 6      3556.744 6        40.100 6
R12  20417326.074 4      1052.700 4        28.400 4
R11  20982180.933 7     -1657.570 7        43.700 7
R01  22483041.209 5     -4050.794 5        30.900 5
R20  23768967.381 6     -3266.329 6        35.900 6
R21  21095759.404 6      -325.077 6        41.000 6
G01  23785902.357 7       801.591 7        42.400 7
G02  24723284.421 5     -1520.900 5        31.000 5
G07  23039408.044 5     -2669.550 5        32.900 5
G13  20801810.201 6      -427.498 6        40.000 6
G14  20478073.020 7      -799.693 7        42.100 7
G15  22390555.835 7       525.743 7        43.100 7
G17  20524454.810 8       934.756 8        48.500 8
G19  21585321.388 7      2621.107 7        42.700 7
G22  20722987.269 6      -363.375 6        41.000 6
G30  21109785.194 6     -1786.734 6        40.000 6
> 2025 11 16 23 58 00.4378734  0 17                      
R22  21690855.828 6      3535.887 6        37.400 6
R12  20417106.626 4      1026.700 4        27.500 4
R11  20982490.019 7     -1678.383 7        41.500 7
R01  22483812.875 4     -4070.500 4        29.300 4
R20  23769589.750 5     -3285.300 5        32.800 5
R21  21095817.264 6      -346.328 6        38.300 6
R03  23182327.503 3      2407.650 3        21.100 3
G01  23785749.463 6       781.340 6        39.900 6
G02  24723567.425 4     -1535.450 4        28.500 4
G07  23039917.092 4     -2690.150 4        29.400 4
G13  20801895.042 6      -448.391 6        37.700 6
G14  20478231.310 6      -820.029 6        40.000 6
G15  22390454.206 6       504.680 6        40.900 6
G17  20524279.132 7       914.081 7        45.800 7
G19  21584817.736 6      2600.271 6        40.100 6
G22  20723059.819 6      -383.503 6        39.100 6
G30  21110122.761 6     -1807.608 6        36.700 6
> 2025 11 16 23 58 01.4378734  0 17                      
R22  21690205.578 6      3494.422 6        37.600 6
R12  20416876.085 4       987.750 4        26.100 4
R11  20982811.996 7     -1719.402 7        42.100 7
R01  22484579.144 5     -4116.000 5        31.000 5
R20  23770201.327 5     -3329.105 5        33.200 5
R21  21095888.015 6      -388.451 6        38.500 6
R03  23181888.907 3      2352.500 3        23.300 3
G01  23785602.864 6       740.301 6        39.900 6
G02  24723856.425 4     -1582.500 4        28.100 4
G07  23040430.337 5     -2729.134 5        30.400 5
G13  20801983.481 6      -489.236 6        37.600 6
G14  20478392.598 6      -860.625 6        40.500 6
G15  22390366.966 6       463.812 6        41.400 6
G17  20524109.449 7       873.129 7        46.300 7
G19  21584329.374 6      2559.728 6        40.200 6
G22  20723138.065 6      -424.239 6        39.100 6
G30  21110459.727 6     -1848.284 6        36.700 6
> 2025 11 16 23 58 02.4378732  0 17                      
R22  21689490.236 6      3471.172 6        38.600 6
R12  20416699.771 4       961.450 4        27.300 4
R11  20983075.177 7     -1742.744 7        43.300 7
R01  22485286.318 5     -4137.725 5        30.300 5
R20  23770764.900 5     -3352.917 5        33.200 5
R21  21095896.373 6      -412.420 6        39.300 6
R03  23181444.578 4      2321.350 4        23.900 4
G01  23785402.566 6       716.779 6        40.800 6
G02  24724127.701 5     -1605.804 5        30.000 5
G07  23040881.188 4     -2753.700 4        29.400 4
G13  20802017.921 6      -512.671 6        38.800 6
G14  20478495.990 6      -883.614 6        41.000 6
G15  22390218.832 7       440.517 7        42.400 7
G17  20523884.269 8       849.680 8        47.600 8
G19  21583785.814 7      2536.554 7        41.500 7
G22  20723156.615 6      -447.535 6        39.900 6
G30  21110764.280 6     -1871.384 6        37.200 6
> 2025 11 16 23 58 03.4378731  0 17                      
R22  21688821.822 6      3452.490 6        38.600 6
R12  20416476.848 4       948.850 4        27.900 4
R11  20983372.694 7     -1760.785 7        42.100 7
R01  22486032.625 5     -4156.942 5        32.200 5
R20  23771370.004 5     -3372.511 5        32.800 5
R21  21095939.966 6      -430.884 6        39.500 6
R03  23180974.626 4      2309.950 4        25.100 4
G01  23785235.705 6       698.526 6        39.300 6
G02  24724386.544 4     -1619.400 4        29.300 4
G07  23041406.247 5     -2761.512 5        32.500 5
G13  20802091.793 6      -530.554 6        37.000 6
G14  20478634.018 6      -901.399 6        40.000 6
G15  22390110.730 6       422.769 6        41.000 6
G17  20523695.522 7       831.605 7        46.200 7
G19  21583271.193 6      2518.523 6        40.000 6
G22  20723214.898 6      -464.883 6        39.700 6
G30  21111084.581 6     -1890.287 6        39.200 6
> 2025 11 16 23 58 04.4378731  0 17                      
R22  21688169.773 6      3443.365 6        40.200 6
R12  20416255.901 5       935.150 5        34.800 5
R11  20983709.961 7     -1770.184 7        42.800 7
R01  22486790.800 3     -4158.500 3        23.200 3
R20  23771971.987 6     -3380.300 6        38.600 6
R21  21096026.306 7      -441.401 7        42.400 7
R03  23180637.360 5      2289.320 5        30.200 5
G01  23785107.993 6       688.969 6        37.000 6
G02  24724677.343 5     -1633.181 5        30.200 5
G07  23041940.777 5     -2779.245 5        34.300 5
G13  20802177.233 7      -540.685 7        42.200 7
G14  20478821.388 7      -910.871 7        42.600 7
G15  22390021.991 6       412.433 6        38.500 6
G17  20523532.435 7       821.827 7        43.800 7
G19  21582796.022 6      2509.037 6        40.800 6
G22  20723304.836 7      -474.613 7        41.700 7
G30  21111446.431 8     -1898.951 8        47.900 8
> 2025 11 16 23 58 05.4378731  0 17                      
R22  21687513.228 7      3417.577 7        41.900 7
R12  20416085.619 5       916.397 5        33.200 5
R11  20984031.039 7     -1795.508 7        46.600 7
R01  22487599.040 5     -4189.750 5        29.500 5
R20  23772627.034 5     -3406.233 5        35.100 5
R21  21096114.145 7      -467.335 7        46.700 7
R03  23180154.994 4      2270.150 4        27.800 4
G01  23784979.382 6       664.126 6        39.100 6
G02  24725031.698 5     -1664.750 5        33.000 5
G07  23042473.209 5     -2804.416 5        35.200 5
G13  20802290.255 6      -566.276 6        38.700 6
G14  20478995.867 7      -935.551 7        43.400 7
G15  22389968.029 6       385.969 6        38.700 6
G17  20523380.740 7       796.231 7        46.200 7
G19  21582324.149 6      2484.006 6        39.200 6
G22  20723391.176 6      -499.066 6        39.000 6
G30  21111808.280 7     -1924.247 7        43.300 7
> 2025 11 16 23 58 06.4378726  0 17                      
R22  21686728.572 7      3412.945 7        43.700 7
R12  20415741.658 6       908.880 6        36.200 6
R11  20984228.203 7     -1800.256 7        46.900 7
R01  22488201.523 5     -4195.222 5        30.800 5
R20  23773120.393 5     -3411.835 5        32.100 5
R21  21096055.286 7      -472.981 7        44.800 7
R03  23179594.582 4      2263.650 4        29.200 4
G01  23784704.673 7       658.990 7        41.500 7
G02  24725196.484 5     -1663.236 5        35.300 5
G07  23042842.454 6     -2808.754 6        36.500 6
G13  20802228.998 5      -570.835 5        35.000 5
G14  20479026.047 7      -940.779 7        43.300 7
G15  22389755.076 6       382.405 6        40.400 6
G17  20523083.546 7       790.932 7        45.200 7
G19  21581700.781 6      2478.659 6        40.100 6
G22  20723331.418 6      -504.699 6        40.400 6
G30  21112030.927 7     -1929.036 7        46.400 7
> 2025 11 16 23 58 07.4378726  0 17                      
R22  21686093.012 7      3409.609 7        45.100 7
R12  20415580.969 5       904.685 5        31.700 5
R11  20984565.169 7     -1803.421 7        45.000 7
R01  22488996.573 5     -4198.035 5        33.400 5
R20  23773757.152 5     -3414.644 5        31.000 5
R21  21096147.622 7      -476.778 7        43.100 7
R03  23179141.895 5      2259.083 5        30.800 5
G01  23784578.760 7       655.090 7        42.900 7
G02  24725518.761 5     -1669.950 5        30.800 5
G07  23043356.298 5     -2811.925 5        33.600 5
G13  20802340.821 7      -574.735 7        41.700 7
G14  20479202.025 7      -943.736 7        43.600 7
G15  22389669.336 6       378.413 6        40.300 6
G17  20522928.554 7       787.981 7        41.600 7
G19  21581219.914 7      2476.136 7        43.100 7
G22  20723426.452 6      -507.255 6        37.400 6
G30  21112399.072 8     -1932.453 8        49.200 8
> 2025 11 16 23 58 08.4378726  0 17                      
R22  21685453.255 7      3393.336 7        43.200 7
R12  20415400.194 5       889.917 5        30.300 5
R11  20984912.928 7     -1819.441 7        42.600 7
R01  22489793.122 5     -4214.222 5        31.700 5
R20  23774391.812 5     -3431.528 5        30.800 5
R21  21096228.866 6      -493.654 6        40.000 6
R03  23178714.691 5      2242.630 5        30.700 5
G01  23784452.248 7       639.460 7        41.800 7
G02  24725860.524 5     -1679.700 5        30.200 5
G07  23043902.220 5     -2827.936 5        33.900 5
G13  20802460.738 6      -591.263 6        38.700 6
G14  20479381.601 7      -959.523 7        43.000 7
G15  22389588.392 5       361.723 5        35.400 5
G17  20522777.758 6       771.422 6        38.000 6
G19  21580749.539 7      2459.774 7        42.700 7
G22  20723526.882 6      -523.489 6        37.400 6
G30  21112768.116 8     -1948.377 8        48.800 8
> 2025 11 16 23 58 09.4378726  0 17                      
R22  21684822.491 7      3379.327 7        45.000 7
R12  20415303.961 5       876.050 5        31.500 5
R11  20985248.696 7     -1833.260 7        44.000 7
R01  22490556.393 5     -4227.982 5        32.900 5
R20  23775036.666 5     -3444.628 5        30.800 5
R21  21096330.795 7      -508.184 7        43.000 7
R03  23178324.661 5      2227.008 5        30.100 5
G01  23784335.628 7       625.723 7        43.400 7
G02  24726177.105 4     -1693.650 4        28.500 4
G07  23044435.551 5     -2841.896 5        33.700 5
G13  20802577.956 6      -605.296 6        40.100 6
G14  20479565.973 7      -973.113 7        43.600 7
G15  22389528.733 6       347.819 6        37.700 6
G17  20522631.459 6       757.755 6        40.400 6
G19  21580283.962 7      2446.154 7        42.800 7
G22  20723635.407 6      -536.891 6        40.100 6
G30  21113142.857 8     -1962.142 8        49.700 8
> 2025 11 16 23 58 10.4378726  0 17                      
R22  21684192.327 7      3365.965 7        45.300 7
R12  20415107.597 5       862.462 5        34.600 5
R11  20985595.256 7     -1846.474 7        44.100 7
R01  22491366.432 5     -4241.006 5        31.600 5
R20  23775653.639 5     -3458.887 5        30.700 5
R21  21096426.729 7      -522.115 7        44.700 7
R03  23177924.138 5      2217.207 5        30.600 5
G01  23784219.009 7       612.256 7        42.800 7
G02  24726471.801 4     -1707.000 4        28.800 4
G07  23044980.573 5     -2854.953 5        32.600 5
G13  20802688.280 6      -618.711 6        40.800 6
G14  20479753.643 7      -986.306 7        42.900 7
G15  22389456.783 6       334.283 6        40.100 6
G17  20522485.161 7       744.265 7        42.600 7
G19  21579822.881 7      2433.095 7        43.200 7
G22  20723723.846 6      -549.936 6        37.000 6
G30  21113518.497 8     -1975.413 8        49.800 8
> 2025 11 16 23 58 11.4378726  0 17                      
R22  21683568.459 7      3355.328 7        44.200 7
R12  20414915.430 5       852.531 5        32.600 5
R11  20985937.020 7     -1856.805 7        42.400 7
R01  22492171.975 5     -4251.460 5        31.700 5
R20  23776346.459 4     -3471.150 4        28.200 4
R21  21096520.564 7      -533.146 7        43.600 7
R03  23177503.530 5      2202.963 5        30.000 5
G01  23784103.889 7       601.611 7        42.300 7
G02  24726766.797 4     -1721.200 4        27.600 4
G07  23045523.797 5     -2865.244 5        31.200 5
G13  20802808.797 6      -629.477 6        40.400 6
G14  20479938.615 7      -996.392 7        41.800 7
G15  22389395.625 6       323.851 6        39.400 6
G17  20522349.355 7       733.746 7        42.200 7
G19  21579359.402 7      2422.501 7        41.500 7
G22  20723835.968 5      -560.196 5        35.300 5
G30  21113893.237 8     -1985.808 8        48.600 8
> 2025 11 16 23 58 12.4378726  0 17                      
R22  21682940.394 7      3346.701 7        44.600 7
R12  20414770.030 5       843.620 5        34.900 5
R11  20986288.076 7     -1865.302 7        42.800 7
R01  22492943.041 5     -4260.189 5        30.000 5
R20  23776987.116 4     -3478.700 4        28.500 4
R21  21096623.393 7      -542.404 7        44.100 7
R03  23177103.606 4      2196.150 4        27.000 4
G01  23783990.867 7       592.833 7        41.900 7
G02  24727093.871 4     -1732.200 4        29.300 4
G07  23046077.514 5     -2873.614 5        32.200 5
G13  20802925.416 6      -638.221 6        40.200 6
G14  20480126.585 7     -1004.943 7        41.700 7
G15  22389330.570 6       314.799 6        40.400 6
G17  20522206.953 7       724.975 7        42.900 7
G19  21578899.520 7      2414.062 7        42.300 7
G22  20723939.397 5      -568.710 5        35.300 5
G30  21114271.875 8     -1994.440 8        48.500 8
> 2025 11 16 23 58 13.4378726  0 17                      
R22  21682309.031 7      3338.171 7        44.000 7
R12  20414609.042 5       835.372 5        33.500 5
R11  20986635.836 7     -1873.671 7        41.800 7
R01  22493755.179 5     -4268.874 5        30.200 5
R20  23777665.546 4     -3485.350 4        26.400 4
R21  21096726.522 7      -551.312 7        43.700 7
R03  23176663.811 4      2185.250 4        26.100 4
G01  23783874.248 7       584.421 7        41.600 7
G02  24727427.839 5     -1736.350 5        29.800 5
G07  23046613.843 5     -2881.896 5        31.300 5
G13  20803045.033 6      -647.106 6        39.900 6
G14  20480319.951 6     -1013.285 6        41.000 6
G15  22389275.109 6       306.017 6        40.200 6
G17  20522071.147 7       716.458 7        42.100 7
G19  21578445.035 7      2405.539 7        42.600 7
G22  20724050.020 5      -576.831 5        34.900 5
G30  21114649.913 8     -2002.900 8        48.500 8
> 2025 11 16 23 58 14.4378726  0 17                      
R22  21681684.564 7      3330.072 7        45.500 7
R12  20414451.651 6       827.491 6        35.700 6
R11  20986982.995 7     -1881.690 7        43.500 7
R01  22494540.035 5     -4275.100 5        29.800 5
R20  23778322.691 4     -3497.800 4        28.400 4
R21  21096831.149 7      -560.203 7        45.700 7
R03  23176249.498 4      2179.150 4        27.400 4
G01  23783765.723 7       576.071 7        43.700 7
G02  24727724.934 4     -1746.300 4        27.300 4
G07  23047172.356 5     -2890.130 5        33.500 5
G13  20803170.346 6      -655.318 6        40.400 6
G14  20480507.621 7     -1021.192 7        42.300 7
G15  22389217.848 7       297.772 7        41.800 7
G17  20521937.140 7       707.975 7        43.900 7
G19  21577985.453 7      2397.445 7        44.200 7
G22  20724166.340 6      -584.953 6        36.800 6
G30  21115032.449 8     -2010.926 8        50.100 8
> 2025 11 16 23 58 15.4378726  0 17                      
R22  21681060.695 7      3323.113 7        45.300 7
R12  20414317.044 6       820.512 6        36.500 6
R11  20987336.151 7     -1888.133 7        42.700 7
R01  22495341.980 5     -4283.416 5        30.700 5
R20  23778967.245 4     -3503.600 4        28.900 4
R21  21096929.181 7      -567.492 7        45.200 7
R03  23175800.409 3      2172.650 3        23.400 3
G01  23783654.800 7       569.531 7        43.600 7
G02  24728073.592 4     -1752.100 4        24.200 4
G07  23047711.982 5     -2896.413 5        33.600 5
G13  20803294.161 6      -662.377 6        41.400 6
G14  20480706.683 7     -1027.621 7        43.000 7
G15  22389162.687 7       290.733 7        41.700 7
G17  20521804.032 7       701.206 7        44.100 7
G19  21577528.269 7      2390.852 7        43.900 7
G22  20724290.454 6      -591.693 6        37.400 6
G30  21115414.984 8     -2017.719 8        49.700 8
> 2025 11 16 23 58 16.4378726  0 16                      
R22  21680438.626 7      3313.861 7        45.300 7
R12  20414164.150 6       811.690 6        37.800 6
R11  20987685.709 7     -1897.298 7        42.800 7
R01  22496152.319 5     -4293.174 5        30.200 5
R20  23779614.197 4     -3509.600 4        27.100 4
R21  21097041.603 7      -577.400 7        46.300 7
G01  23783547.774 7       559.987 7        44.100 7
G02  24728394.970 4     -1765.850 4        26.000 4
G07  23048269.297 5     -2905.939 5        33.700 5
G13  20803419.474 6      -672.031 6        40.600 6
G14  20480900.649 7     -1036.799 7        42.300 7
G15  22389107.825 7       281.368 7        42.400 7
G17  20521674.222 7       691.628 7        44.400 7
G19  21577076.782 7      2381.654 7        44.300 7
G22  20724402.276 6      -600.612 6        36.700 6
G30  21115798.718 8     -2026.912 8        49.600 8
> 2025 11 16 23 58 17.4378726  0 17                      
R22  21679823.452 7      3302.322 7        45.500 7
R12  20414012.155 6       800.453 6        37.800 6
R11  20988051.156 7     -1908.626 7        43.500 7
R01  22496942.272 4     -4304.050 4        29.100 4
R20  23780231.770 4     -3522.500 4        26.300 4
R21  21097150.428 7      -589.414 7        45.800 7
R03  23175076.110 3      2153.350 3        19.400 3
G01  23783443.746 7       548.484 7        44.100 7
G02  24728721.444 4     -1773.050 4        27.100 4
G07  23048828.410 5     -2915.397 5        32.000 5
G13  20803545.387 6      -683.542 6        40.500 6
G14  20481100.311 7     -1048.013 7        42.000 7
G15  22389055.661 7       269.594 7        42.400 7
G17  20521545.611 7       680.186 7        44.700 7
G19  21576623.796 7      2370.268 7        44.000 7
G22  20724514.998 6      -611.882 6        35.800 6
G30  21116182.752 8     -2038.371 8        49.100 8
> 2025 11 16 23 58 18.4378726  0 16                      
R22  21679204.680 7      3296.939 7        44.400 7
R12  20413859.860 6       795.503 6        36.000 6
R11  20988401.314 7     -1913.737 7        42.300 7
R01  22497711.240 4     -4307.700 4        27.300 4
R20  23780890.114 4     -3525.850 4        24.100 4
R21  21097261.051 7      -595.250 7        44.600 7
G01  23783338.519 7       543.063 7        43.400 7
G02  24729089.589 4     -1776.300 4        26.800 4
G07  23049380.327 5     -2921.750 5        30.500 5
G13  20803680.293 6      -689.254 6        38.800 6
G14  20481298.474 6     -1053.097 6        40.900 6
G15  22389005.296 6       263.969 6        41.300 6
G17  20521414.302 7       674.622 7        43.700 7
G19  21576175.606 7      2365.032 7        43.000 7
G22  20724625.622 6      -616.684 6        35.800 6
G30  21116569.784 8     -2043.657 8        48.000 8
> 2025 11 16 23 58 19.4378726  0 17                      
R22  21678589.206 7      3298.615 7        43.700 7
R12  20413708.765 5       797.341 5        35.200 5
R11  20988761.664 7     -1911.825 7        41.800 7
R01  22498544.363 4     -4306.550 4        26.200 4
R20  23781586.831 3     -3527.400 3        22.900 3
R21  21097365.379 7      -594.223 7        44.600 7
R03  23174331.126 3      2144.950 3        22.200 3
G01  23783237.189 7       544.468 7        43.200 7
G02  24729421.459 4     -1779.700 4        28.200 4
G07  23049944.837 5     -2922.430 5        30.100 5
G13  20803814.900 6      -687.807 6        39.600 6
G14  20481498.435 6     -1051.424 6        40.600 6
G15  22388954.031 7       265.344 7        41.600 7
G17  20521286.291 7       676.024 7        43.200 7
G19  21575725.917 7      2366.456 7        43.100 7
G22  20724742.840 5      -615.203 5        35.000 5
G30  21116957.116 7     -2042.116 7        47.200 7
> 2025 11 16 23 58 20.4378726  0 16                      
R22  21677969.835 7      3292.341 7        44.000 7
R12  20413557.370 6       790.947 6        36.100 6
R11  20989113.321 7     -1918.060 7        42.100 7
R01  22499343.910 4     -4314.500 4        26.300 4
R20  23782264.662 3     -3540.600 3        22.000 3
R21  21097485.596 7      -600.917 7        45.300 7
G01  23783133.461 7       538.332 7        43.300 7
G02  24729782.709 4     -1781.700 4        28.400 4
G07  23050518.639 5     -2926.619 5        31.500 5
G13  20803948.308 6      -694.315 6        39.900 6
G14  20481698.397 6     -1057.276 6        41.300 6
G15  22388908.463 7       258.893 7        42.000 7
G17  20521154.382 7       669.686 7        43.600 7
G19  21575274.730 7      2360.350 7        43.100 7
G22  20724861.259 6      -621.278 6        36.000 6
G30  21117348.046 8     -2048.289 8        48.000 8
> 2025 11 16 23 58 21.4378726  0 16                      
R22  21677346.567 7      3281.502 7        43.800 7
R12  20413403.876 6       780.273 6        36.200 6
R11  20989477.269 7     -1928.667 7        42.600 7
R01  22500169.238 4     -4324.200 4        25.000 4
R20  23782941.893 3     -3539.650 3        23.200 3
R21  21097597.419 7      -612.422 7        45.200 7
G01  23783035.728 7       527.142 7        43.100 7
G02  24730131.368 5     -1794.950 5        29.600 5
G07  23051072.056 5     -2937.568 5        31.200 5
G13  20804082.615 6      -705.354 6        39.600 6
G14  20481900.457 6     -1068.034 6        41.100 6
G15  22388859.297 7       247.951 7        41.900 7
G17  20521030.268 7       658.753 7        43.900 7
G19  21574825.341 7      2349.708 7        43.000 7
G22  20724982.075 6      -631.776 6        35.800 6
G30  21117738.076 8     -2059.012 8        47.700 8
> 2025 11 16 23 58 22.4378726  0 17                      
R22  21676737.089 7      3276.427 7        44.800 7
R12  20413272.567 6       775.452 6        38.000 6
R11  20989835.820 7     -1933.354 7        44.000 7
R01  22500951.097 4     -4324.400 4        25.700 4
R20  23783585.848 4     -3555.650 4        24.600 4
R21  21097711.340 7      -617.807 7        46.300 7
R03  23173156.239 3      2126.250 3        21.000 3
G01  23782933.799 7       522.470 7        44.700 7
G02  24730489.620 5     -1800.167 5        32.000 5
G07  23051621.276 5     -2942.282 5        32.500 5
G13  20804214.823 6      -710.473 6        40.000 6
G14  20482102.517 7     -1072.640 7        41.700 7
G15  22388808.632 7       242.669 7        42.200 7
G17  20520904.055 7       653.588 7        45.600 7
G19  21574375.052 7      2344.804 7        43.700 7
G22  20725100.493 6      -636.593 6        36.900 6
G30  21118129.005 8     -2064.030 8        48.600 8
> 2025 11 16 23 58 23.4378726  0 17                      
R22  21676120.116 7      3263.702 7        43.700 7
R12  20413118.773 6       763.144 6        37.300 6
R11  20990194.072 7     -1945.858 7        43.200 7
R01  22501740.750 4     -4340.850 4        26.700 4
R20  23784273.272 4     -3563.450 4        24.300 4
