NMEA,$GPGSV,3,1,10,01,04,165,21,02,28,143,32,04,14,188,22,07,59,307,29*75,1764018226467
NMEA,$GPGSV,3,2,10,08,78,071,31,09,31,223,34,16,21,071,26,27,44,049,36*7E,1764018226468
NMEA,$GPGSV,3,3,10,30,30,309,16,14,06,271,*72,1764018226468
NMEA,$GLGSV,3,1,09,73,43,071,22,75,17,299,23,65,18,314,18,84,00,000,31*67,1764018226470
NMEA,$GLGSV,3,2,09,83,40,053,30,85,10,175,20,71,04,212,14,72,25,258,26*65,1764018226471
NMEA,$GLGSV,3,3,09,82,02,018,*5D,1764018226471
NMEA,$GAGSV,1,1,02,07,45,233,25,27,38,275,21*64,1764018226471
NMEA,$PQGSV,1,1,0,*73,1764018226472
NMEA,$PQGSV,1,1,0,*73,1764018226473
NMEA,$GNGSA,A,3,01,02,04,07,08,09,16,27,30,,,,1.1,0.7,0.8,1*3E,1764018226476
NMEA,$GNGSA,A,3,72,73,75,83,85,,,,,,,,1.1,0.7,0.8,2*38,1764018226476
NMEA,$GNGSA,A,2,07,,,,,,,,,,,,1.1,0.7,0.8,3*3A,1764018226476
NMEA,$GNVTG,,T,,M,0.0,N,0.0,K,A*3D,1764018226476
NMEA,$GNRMC,210344.00,A,3956.985652,N,07510.290780,W,0.0,,241125,9.6,W,A*00,1764018226476
NMEA,$GNGGA,210344.00,3956.985652,N,07510.290780,W,1,12,0.7,45.0,M,-39.7,M,,*7E,1764018226476
NMEA,$GPGSV,3,1,10,01,04,165,21,02,28,143,30,04,14,188,21,07,59,307,28*75,1764018227468
NMEA,$GPGSV,3,2,10,08,78,071,30,09,31,223,34,16,21,071,19,27,44,049,35*70,1764018227468
NMEA,$GPGSV,3,3,10,30,30,309,16,14,06,271,*72,1764018227469
NMEA,$GLGSV,3,1,09,73,43,071,26,75,17,299,22,65,18,314,18,84,00,000,34*67,1764018227469
NMEA,$GLGSV,3,2,09,83,40,053,28,85,10,175,19,71,04,212,14,72,25,258,28*68,1764018227469
NMEA,$GLGSV,3,3,09,82,02,018,*5D,1764018227469
NMEA,$GAGSV,1,1,02,07,45,233,20,27,38,275,20*60,1764018227469
NMEA,$PQGSV,1,1,0,*73,1764018227469
NMEA,$PQGSV,1,1,0,*73,1764018227469
NMEA,$GNGSA,A,3,01,02,04,07,08,09,16,27,30,,,,1.1,0.7,0.8,1*3E,1764018227470
NMEA,$GNGSA,A,3,72,73,75,83,85,,,,,,,,1.1,0.7,0.8,2*38,1764018227471
NMEA,$GNGSA,A,2,07,,,,,,,,,,,,1.1,0.7,0.8,3*3A,1764018227471
NMEA,$GNVTG,,T,,M,0.0,N,0.0,K,A*3D,1764018227471
NMEA,$GNRMC,210345.00,A,3956.986318,N,07510.291424,W,0.0,,241125,9.6,W,A*05,1764018227471
NMEA,$GNGGA,210345.00,3956.986318,N,07510.291424,W,1,12,0.7,35.7,M,-39.7,M,,*7B,1764018227471
NMEA,$GPGSV,3,1,10,01,04,165,22,02,28,143,31,04,14,188,22,07,59,307,28*74,1764018228470
NMEA,$GPGSV,3,2,10,08,78,071,31,09,31,223,33,16,21,071,19,27,44,049,34*77,1764018228471
NMEA,$GPGSV,3,3,10,30,30,309,16,14,06,271,*72,1764018228471
NMEA,$GLGSV,3,1,09,73,43,071,28,75,17,299,19,65,18,314,15,84,00,000,33*6B,1764018228471
NMEA,$GLGSV,3,2,09,83,40,053,29,85,10,175,21,71,04,212,14,72,25,258,28*62,1764018228471
NMEA,$GLGSV,3,3,09,82,02,018,*5D,1764018228471
NMEA,$GAGSV,1,1,02,07,45,233,22,27,38,275,20*62,1764018228471
NMEA,$PQGSV,1,1,0,*73,1764018228472
NMEA,$PQGSV,1,1,0,*73,1764018228472
NMEA,$GNGSA,A,3,01,02,04,07,08,09,16,27,,,,,1.1,0.7,0.8,1*3D,1764018228475
NMEA,$GNGSA,A,3,71,72,73,75,83,85,,,,,,,1.1,0.7,0.8,2*3E,1764018228475
NMEA,$GNGSA,A,2,07,,,,,,,,,,,,1.1,0.7,0.8,3*3A,1764018228475
NMEA,$GNVTG,,T,,M,0.0,N,0.0,K,A*3D,1764018228477
NMEA,$GNRMC,210346.00,A,3956.986783,N,07510.291923,W,0.0,,241125,9.6,W,A*0A,1764018228477
NMEA,$GNGGA,210346.00,3956.986783,N,07510.291923,W,1,12,0.7,27.7,M,-39.7,M,,*77,1764018228477
NMEA,$GPGSV,3,1,10,01,04,165,20,02,28,143,31,04,14,188,20,07,59,307,30*7D,1764018229466
NMEA,$GPGSV,3,2,10,08,78,071,30,09,31,223,32,16,21,071,19,27,44,049,34*77,1764018229467
NMEA,$GPGSV,3,3,10,30,30,309,16,14,06,271,*72,1764018229467
NMEA,$GLGSV,3,1,09,73,43,071,31,75,17,299,19,65,18,314,15,84,00,000,34*64,1764018229467
NMEA,$GLGSV,3,2,09,83,40,053,28,85,10,175,21,71,04,212,14,72,25,258,27*6C,1764018229467
NMEA,$GLGSV,3,3,09,82,02,018,*5D,1764018229467
NMEA,$GAGSV,1,1,02,07,45,233,24,27,38,275,20*64,1764018229467
NMEA,$PQGSV,1,1,0,*73,1764018229467
NMEA,$PQGSV,1,1,0,*73,1764018229467
NMEA,$GNGSA,A,3,01,02,04,07,08,09,16,27,30,,,,1.0,0.7,0.8,1*3F,1764018229468
NMEA,$GNGSA,A,3,71,72,73,75,83,85,,,,,,,1.0,0.7,0.8,2*3F,1764018229468
NMEA,$GNGSA,A,2,07,,,,,,,,,,,,1.0,0.7,0.8,3*3B,1764018229469
NMEA,$GNVTG,,T,,M,0.0,N,0.0,K,A*3D,1764018229469
NMEA,$GNRMC,210347.00,A,3956.986934,N,07510.292355,W,0.0,,241125,9.6,W,A*01,1764018229469
NMEA,$GNGGA,210347.00,3956.986934,N,07510.292355,W,1,12,0.7,19.4,M,-39.7,M,,*72,1764018229469
NMEA,$GPGSV,3,1,10,01,04,165,20,02,28,143,30,04,14,188,22,07,59,307,30*7E,1764018230469
NMEA,$GPGSV,3,2,10,08,78,071,31,09,31,223,30,16,21,071,19,27,44,049,34*74,1764018230469
NMEA,$GPGSV,3,3,10,30,30,309,21,14,06,271,*76,1764018230470
NMEA,$GLGSV,3,1,09,73,43,071,29,75,17,299,16,65,18,314,15,84,00,000,33*65,1764018230470
NMEA,$GLGSV,3,2,09,83,40,053,28,85,10,175,21,71,04,212,14,72,25,258,24*6F,1764018230470
NMEA,$GLGSV,3,3,09,82,02,018,*5D,1764018230470
NMEA,$GAGSV,1,1,02,07,45,233,26,27,38,275,22*64,1764018230471
NMEA,$PQGSV,1,1,0,*73,1764018230471
NMEA,$PQGSV,1,1,0,*73,1764018230471
NMEA,$GNGSA,A,3,01,02,04,07,08,09,16,27,30,,,,1.1,0.7,0.8,1*3E,1764018230473
NMEA,$GNGSA,A,3,71,72,73,75,83,85,,,,,,,1.1,0.7,0.8,2*3E,1764018230473
NMEA,$GNVTG,,T,,M,0.0,N,0.0,K,A*3D,1764018230473
NMEA,$GNRMC,210348.00,A,3956.986934,N,07510.292736,W,0.0,,241125,9.6,W,A*0F,1764018230475
NMEA,$GNGGA,210348.00,3956.986934,N,07510.292736,W,1,12,0.7,12.4,M,-39.7,M,,*77,1764018230476
NMEA,$GPGSV,3,1,10,01,04,165,19,02,28,143,30,04,14,188,22,07,59,307,30*74,1764018231468
NMEA,$GPGSV,3,2,10,08,78,071,31,09,31,223,31,14,06,271,16,16,21,071,19*7A,1764018231469
NMEA,$GPGSV,3,3,10,27,44,049,34,30,30,309,20*7F,1764018231469
NMEA,$GLGSV,3,1,09,73,43,071,25,75,17,299,16,65,18,314,15,84,00,000,33*69,1764018231470
NMEA,$GLGSV,3,2,09,83,40,053,29,85,10,175,22,71,04,212,14,72,25,258,26*6F,1764018231470
NMEA,$GLGSV,3,3,09,82,02,018,*5D,1764018231470
NMEA,$GAGSV,1,1,02,07,45,233,27,27,38,275,23*64,1764018231470
NMEA,$PQGSV,1,1,0,*73,1764018231470
NMEA,$PQGSV,1,1,0,*73,1764018231470
NMEA,$GNGSA,A,3,01,02,04,07,08,09,14,16,27,30,,,1.0,0.6,0.8,1*3B,1764018231472
NMEA,$GNGSA,A,3,71,72,73,75,83,85,,,,,,,1.0,0.6,0.8,2*3E,1764018231472
NMEA,$GNVTG,,T,,M,0.0,N,0.0,K,A*3D,1764018231472
NMEA,$GNRMC,210349.00,A,3956.987140,N,07510.293199,W,0.0,,241125,9.6,W,A*06,1764018231472
NMEA,$GNGGA,210349.00,3956.987140,N,07510.293199,W,1,12,0.6,6.6,M,-39.7,M,,*48,1764018231472
NMEA,$GPGSV,3,1,10,01,04,165,21,02,28,143,31,04,14,188,22,07,59,307,30*7E,1764018232471
NMEA,$GPGSV,3,2,10,08,78,071,31,09,31,223,30,14,06,271,17,16,21,071,19*7A,1764018232472
NMEA,$GPGSV,3,3,10,27,44,049,33,30,30,309,22*7A,1764018232473
NMEA,$GLGSV,3,1,09,73,43,071,22,75,17,299,16,65,18,314,12,84,00,000,33*69,1764018232473
NMEA,$GLGSV,3,2,09,83,40,053,29,85,10,175,20,71,04,212,14,72,25,258,27*6C,1764018232474
NMEA,$GLGSV,3,3,09,82,02,018,*5D,1764018232474
NMEA,$GAGSV,1,1,02,07,45,233,28,27,38,275,21*69,1764018232474
NMEA,$PQGSV,1,1,0,*73,1764018232476
NMEA,$PQGSV,1,1,0,*73,1764018232479
NMEA,$GNGSA,A,3,01,02,04,07,08,09,14,16,27,30,,,1.0,0.6,0.8,1*3B,1764018232480
NMEA,$GNGSA,A,3,71,72,73,75,83,85,,,,,,,1.0,0.6,0.8,2*3E,1764018232481
NMEA,$GNGSA,A,2,07,27,,,,,,,,,,,1.0,0.6,0.8,3*3F,1764018232481
NMEA,$GNVTG,,T,,M,0.0,N,0.0,K,A*3D,1764018232481
NMEA,$GNRMC,210350.00,A,3956.987276,N,07510.293462,W,0.0,,241125,9.6,W,A*09,1764018232482
NMEA,$GNGGA,210350.00,3956.987276,N,07510.293462,W,1,12,0.6,4.9,M,-39.7,M,,*4A,1764018232482
NMEA,$GPGSV,3,1,10,01,04,165,16,02,28,143,30,04,14,188,21,07,59,307,29*70,1764018233471
NMEA,$GPGSV,3,2,10,08,78,071,30,09,31,223,30,14,06,271,17,16,21,071,19*7B,1764018233472
NMEA,$GPGSV,3,3,10,27,44,049,31,30,30,309,20*7A,1764018233472
NMEA,$GLGSV,3,1,09,73,43,071,27,75,17,299,17,65,18,314,12,84,00,000,33*6D,1764018233472
NMEA,$GLGSV,3,2,09,83,40,053,29,85,10,175,18,71,04,212,14,72,25,258,28*68,1764018233472
NMEA,$GLGSV,3,3,09,82,02,018,*5D,1764018233473
NMEA,$GAGSV,1,1,03,07,45,233,28,27,38,275,21,30,71,007,23*5B,1764018233473
NMEA,$PQGSV,1,1,0,*73,1764018233475
NMEA,$PQGSV,1,1,0,*73,1764018233475
NMEA,$GNGSA,A,3,01,02,04,07,08,09,14,16,27,30,,,1.0,0.6,0.8,1*3B,1764018233477
NMEA,$GNGSA,A,3,71,72,73,75,83,85,,,,,,,1.0,0.6,0.8,2*3E,1764018233477
NMEA,$GNGSA,A,2,07,27,30,,,,,,,,,,1.0,0.6,0.8,3*3C,1764018233477
NMEA,$GNVTG,,T,,M,0.0,N,0.0,K,A*3D,1764018233477
NMEA,$GNRMC,210351.00,A,3956.987324,N,07510.293524,W,0.0,,241125,9.6,W,A*0D,1764018233477
NMEA,$GNGGA,210351.00,3956.987324,N,07510.293524,W,1,12,0.6,5.1,M,-39.7,M,,*47,1764018233478
NMEA,$GPGSV,3,1,10,01,04,165,20,02,28,143,31,04,14,188,21,07,59,307,31*7D,1764018234467
NMEA,$GPGSV,3,2,10,08,78,071,32,09,31,223,34,14,06,271,16,16,21,071,13*76,1764018234467
NMEA,$GPGSV,3,3,10,27,44,049,31,30,30,309,20*7A,1764018234467
NMEA,$GLGSV,3,1,09,73,43,071,30,75,17,299,17,65,18,314,12,84,00,000,35*6D,1764018234467
NMEA,$GLGSV,3,2,09,83,40,053,31,85,10,175,21,71,04,212,14,72,25,258,30*62,1764018234467
NMEA,$GLGSV,3,3,09,82,02,018,*5D,1764018234468
NMEA,$GAGSV,1,1,03,07,45,233,31,27,38,275,19,30,71,007,30*5A,1764018234468
NMEA,$PQGSV,1,1,0,*73,1764018234468
NMEA,$PQGSV,1,1,0,*73,1764018234468
NMEA,$GNGSA,A,3,01,02,04,07,08,09,14,16,27,30,,,1.0,0.6,0.8,1*3B,1764018234469
NMEA,$GNGSA,A,3,71,72,73,75,83,85,,,,,,,1.0,0.6,0.8,2*3E,1764018234470
NMEA,$GNGSA,A,2,07,27,30,,,,,,,,,,1.0,0.6,0.8,3*3C,1764018234471
NMEA,$GNVTG,,T,,M,0.0,N,0.0,K,A*3D,1764018234472
NMEA,$GNRMC,210352.00,A,3956.987336,N,07510.293524,W,0.0,,241125,9.6,W,A*0D,1764018234472
NMEA,$GNGGA,210352.00,3956.987336,N,07510.293524,W,1,12,0.6,6.0,M,-39.7,M,,*45,1764018234472
NMEA,$GPGSV,3,1,10,01,04,165,18,02,28,143,32,04,14,188,21,07,59,307,31*75,1764018235479
NMEA,$GPGSV,3,2,10,08,78,071,31,09,31,223,33,14,06,271,16,16,21,071,20*72,1764018235480
NMEA,$GPGSV,3,3,10,27,44,049,32,30,30,309,20*79,1764018235480
NMEA,$GLGSV,3,1,09,73,43,071,32,75,17,299,22,65,18,314,12,84,00,000,36*6A,1764018235481
NMEA,$GLGSV,3,2,09,83,40,053,29,85,10,175,21,71,04,212,14,72,25,258,33*68,1764018235481
NMEA,$GLGSV,3,3,09,82,02,018,*5D,1764018235481
NMEA,$GAGSV,1,1,03,07,45,233,33,27,38,275,17,30,71,007,30*56,1764018235482
NMEA,$PQGSV,1,1,0,*73,1764018235482
NMEA,$PQGSV,1,1,0,*73,1764018235482
NMEA,$GNGSA,A,3,01,02,04,07,08,09,14,16,27,30,,,1.0,0.6,0.8,1*3B,1764018235485
NMEA,$GNGSA,A,3,72,73,75,83,85,,,,,,,,1.0,0.6,0.8,2*38,1764018235486
NMEA,$GNGSA,A,2,07,27,30,,,,,,,,,,1.0,0.6,0.8,3*3C,1764018235486
NMEA,$GNVTG,,T,,M,0.0,N,0.0,K,A*3D,1764018235486
NMEA,$GNRMC,210353.00,A,3956.987278,N,07510.293452,W,0.0,,241125,9.6,W,A*07,1764018235486
NMEA,$GNGGA,210353.00,3956.987278,N,07510.293452,W,1,12,0.6,7.0,M,-39.7,M,,*4E,1764018235487
NMEA,$GPGSV,3,1,10,01,04,165,18,02,28,143,34,04,14,188,22,07,59,307,31*70,1764018236466
NMEA,$GPGSV,3,2,10,08,78,071,32,09,31,223,33,14,06,271,16,16,21,071,21*70,1764018236468
NMEA,$GPGSV,3,3,10,27,44,049,31,30,30,309,19*70,1764018236469
NMEA,$GLGSV,3,1,09,73,43,071,32,75,17,299,23,65,18,314,14,84,00,000,37*6C,1764018236470
NMEA,$GLGSV,3,2,09,83,40,053,27,85,10,175,23,71,04,212,14,72,25,258,33*64,1764018236471
NMEA,$GLGSV,3,3,09,82,02,018,*5D,1764018236472
NMEA,$GAGSV,1,1,03,07,45,233,34,27,38,275,19,30,71,007,29*57,1764018236473
NMEA,$PQGSV,1,1,0,*73,1764018236473
NMEA,$PQGSV,1,1,0,*73,1764018236473
NMEA,$GNGSA,A,3,01,02,04,07,08,09,14,16,27,30,,,1.0,0.6,0.8,1*3B,1764018236474
NMEA,$GNGSA,A,3,72,73,75,83,85,,,,,,,,1.0,0.6,0.8,2*38,1764018236475
NMEA,$GNGSA,A,2,07,27,30,,,,,,,,,,1.0,0.6,0.8,3*3C,1764018236476
NMEA,$GNVTG,,T,,M,0.0,N,0.0,K,A*3D,1764018236477
NMEA,$GNRMC,210354.00,A,3956.987194,N,07510.293350,W,0.0,,241125,9.6,W,A*04,1764018236477
NMEA,$GNGGA,210354.00,3956.987194,N,07510.293350,W,1,12,0.6,8.4,M,-39.7,M,,*46,1764018236477
NMEA,$GPGSV,3,1,10,01,04,165,20,02,28,143,31,04,14,188,21,07,59,307,30*7C,1764018237466
NMEA,$GPGSV,3,2,10,08,78,071,31,09,31,223,33,14,06,271,15,16,21,071,21*70,1764018237467
NMEA,$GPGSV,3,3,10,27,44,049,31,30,30,309,20*7A,1764018237467
NMEA,$GLGSV,3,1,09,73,43,071,25,75,17,299,23,65,18,314,14,84,00,000,35*68,1764018237467
NMEA,$GLGSV,3,2,09,83,40,053,26,85,10,175,22,71,04,212,14,72,25,258,33*64,1764018237467
NMEA,$GLGSV,3,3,09,82,02,018,*5D,1764018237467
NMEA,$GAGSV,1,1,03,07,45,233,31,27,38,275,19,30,71,007,28*53,1764018237467
NMEA,$PQGSV,1,1,0,*73,1764018237468
NMEA,$PQGSV,1,1,0,*73,1764018237469
NMEA,$GNGSA,A,3,01,02,04,07,08,09,14,16,27,30,,,1.0,0.6,0.8,1*3B,1764018237469
NMEA,$GNGSA,A,3,72,73,75,83,85,,,,,,,,1.0,0.6,0.8,2*38,1764018237469
NMEA,$GNGSA,A,2,07,27,30,,,,,,,,,,1.0,0.6,0.8,3*3C,1764018237470
NMEA,$GNVTG,,T,,M,0.0,N,0.0,K,A*3D,1764018237470
NMEA,$GNRMC,210355.00,A,3956.987150,N,07510.293272,W,0.0,,241125,9.6,W,A*0C,1764018237470
NMEA,$GNGGA,210355.00,3956.987150,N,07510.293272,W,1,12,0.6,8.8,M,-39.7,M,,*42,1764018237470
NMEA,$GPGSV,3,1,10,01,04,165,17,02,28,143,33,04,14,188,24,07,59,307,31*7E,1764018238467
NMEA,$GPGSV,3,2,10,08,78,071,30,09,31,223,34,14,06,271,15,16,21,071,22*75,1764018238467
NMEA,$GPGSV,3,3,10,27,44,049,31,30,30,309,22*78,1764018238468
NMEA,$GLGSV,3,1,09,73,43,071,24,75,17,299,25,65,18,314,14,84,00,000,37*6D,1764018238468
NMEA,$GLGSV,3,2,09,83,40,053,25,85,10,175,22,71,04,212,14,72,25,258,35*61,1764018238468
NMEA,$GLGSV,3,3,09,82,02,018,*5D,1764018238469
NMEA,$GAGSV,1,1,04,02,26,067,15,07,45,233,32,27,38,275,20,30,71,007,31*66,1764018238469
NMEA,$PQGSV,1,1,0,*73,1764018238469
NMEA,$PQGSV,1,1,0,*73,1764018238471
NMEA,$GNGSA,A,3,01,02,04,07,08,09,14,16,27,30,,,1.0,0.6,0.7,1*34,1764018238472
NMEA,$GNGSA,A,3,72,73,75,83,85,,,,,,,,1.0,0.6,0.7,2*37,1764018238472
NMEA,$GNGSA,A,3,02,07,27,30,,,,,,,,,1.0,0.6,0.7,3*30,1764018238472
NMEA,$GNVTG,,T,,M,0.0,N,0.0,K,A*3D,1764018238472
NMEA,$GNRMC,210356.00,A,3956.987122,N,07510.293187,W,0.0,,241125,9.6,W,A*03,1764018238473
NMEA,$GNGGA,210356.00,3956.987122,N,07510.293187,W,1,12,0.6,9.3,M,-39.7,M,,*47,1764018238473
NMEA,$GPGSV,3,1,10,01,04,165,18,02,28,143,32,04,14,188,23,07,59,307,30*76,1764018239469
NMEA,$GPGSV,3,2,10,08,78,071,29,09,31,223,34,14,06,271,15,16,21,071,22*7D,1764018239469
NMEA,$GPGSV,3,3,10,27,44,049,32,30,30,309,23*7A,1764018239469
NMEA,$GLGSV,3,1,09,73,43,071,29,75,17,299,24,65,18,314,14,84,00,000,36*60,1764018239469
NMEA,$GLGSV,3,2,09,83,40,053,26,85,10,175,20,71,04,212,14,72,25,258,35*60,1764018239469
NMEA,$GLGSV,3,3,09,82,02,018,*5D,1764018239469
NMEA,$GAGSV,1,1,04,02,26,067,16,07,45,233,30,27,38,275,20,30,71,007,30*66,1764018239469
NMEA,$PQGSV,1,1,0,*73,1764018239470
NMEA,$PQGSV,1,1,0,*73,1764018239470
NMEA,$GNGSA,A,3,01,02,04,07,08,09,14,16,27,30,,,1.0,0.6,0.7,1*34,1764018239471
NMEA,$GNGSA,A,3,72,73,75,83,85,,,,,,,,1.0,0.6,0.7,2*37,1764018239474
NMEA,$GNGSA,A,3,02,07,27,30,,,,,,,,,1.0,0.6,0.7,3*30,1764018239474
NMEA,$GNVTG,,T,,M,0.0,N,0.0,K,A*3D,1764018239474
NMEA,$GNRMC,210357.00,A,3956.987085,N,07510.293103,W,0.0,,241125,9.6,W,A*02,1764018239474
NMEA,$GNGGA,210357.00,3956.987085,N,07510.293103,W,1,12,0.6,10.3,M,-39.7,M,,*7E,1764018239474
NMEA,$GPGSV,3,1,10,01,04,165,18,02,28,143,33,04,14,188,24,07,59,307,29*78,1764018240473
NMEA,$GPGSV,3,2,10,08,78,071,28,09,31,223,34,14,06,271,15,16,21,071,23*7D,1764018240474
NMEA,$GPGSV,3,3,10,27,44,049,32,30,30,309,24*7D,1764018240474
NMEA,$GLGSV,3,1,09,73,43,071,32,75,17,299,25,65,18,314,14,84,00,000,36*6B,1764018240474
NMEA,$GLGSV,3,2,09,83,40,053,27,85,10,175,19,71,04,212,11,72,25,258,35*6E,1764018240474
NMEA,$GLGSV,3,3,09,82,02,018,*5D,1764018240475
NMEA,$GAGSV,1,1,04,02,26,067,16,07,45,233,31,27,38,275,20,30,71,007,30*67,1764018240475
NMEA,$PQGSV,1,1,0,*73,1764018240475
NMEA,$PQGSV,1,1,0,*73,1764018240475
NMEA,$GNGSA,A,3,01,02,04,07,08,09,14,16,27,30,,,0.9,0.6,0.7,1*3C,1764018240478
NMEA,$GNGSA,A,3,71,72,73,75,83,85,,,,,,,0.9,0.6,0.7,2*39,1764018240479
NMEA,$GNGSA,A,3,02,07,27,30,,,,,,,,,0.9,0.6,0.7,3*38,1764018240479
NMEA,$GNVTG,,T,,M,0.0,N,0.0,K,A*3D,1764018240479
NMEA,$GNRMC,210358.00,A,3956.987033,N,07510.293024,W,0.0,,241125,9.6,W,A*04,1764018240480
NMEA,$GNGGA,210358.00,3956.987033,N,07510.293024,W,1,12,0.6,11.4,M,-39.7,M,,*7E,1764018240480
NMEA,$GPGSV,3,1,10,01,04,165,19,02,28,143,34,04,14,188,25,07,59,307,29*7F,1764018241486
NMEA,$GPGSV,3,2,10,08,78,071,28,09,31,223,34,16,21,071,23,27,44,049,31*74,1764018241486
NMEA,$GPGSV,3,3,10,30,30,309,24,14,06,271,*73,1764018241487
NMEA,$GLGSV,3,1,09,73,43,071,34,75,17,299,24,65,18,314,18,84,00,000,36*60,1764018241487
NMEA,$GLGSV,3,2,09,83,40,053,25,85,10,175,19,71,04,212,11,72,25,258,34*6D,1764018241487
NMEA,$GLGSV,3,3,09,82,02,018,*5D,1764018241488
NMEA,$GAGSV,2,1,05,02,26,067,17,07,45,233,31,27,38,275,21,30,71,007,30*65,1764018241488
NMEA,$GAGSV,2,2,05,34,26,111,15*5B,1764018241488
NMEA,$PQGSV,1,1,0,*73,1764018241488
NMEA,$PQGSV,1,1,0,*73,1764018241489
NMEA,$GNGSA,A,3,01,02,04,07,08,09,14,16,27,30,,,0.9,0.6,0.7,1*3C,1764018241493
NMEA,$GNGSA,A,3,71,72,73,75,83,85,,,,,,,0.9,0.6,0.7,2*39,1764018241494
NMEA,$GNGSA,A,3,02,07,27,30,,,,,,,,,0.9,0.6,0.7,3*38,1764018241494
NMEA,$GNVTG,,T,,M,0.0,N,0.0,K,A*3D,1764018241494
NMEA,$GNRMC,210359.00,A,3956.986967,N,07510.292949,W,0.0,,241125,9.6,W,A*0F,1764018241494
NMEA,$GNGGA,210359.00,3956.986967,N,07510.292949,W,1,12,0.6,12.5,M,-39.7,M,,*77,1764018241494
NMEA,$GPGSV,3,1,10,01,04,165,18,02,28,143,34,04,14,188,25,07,59,307,29*7E,1764018242481
NMEA,$GPGSV,3,2,10,08,78,071,29,09,31,223,34,16,21,071,22,27,44,049,31*74,1764018242483
NMEA,$GPGSV,3,3,10,30,30,309,26,14,06,271,*71,1764018242483
NMEA,$GLGSV,3,1,09,73,43,071,34,75,17,299,21,65,18,314,18,84,00,000,35*66,1764018242483
NMEA,$GLGSV,3,2,09,83,40,053,21,85,10,175,19,71,04,212,11,72,25,258,35*68,1764018242484
NMEA,$GLGSV,3,3,09,82,02,018,*5D,1764018242484
NMEA,$GAGSV,2,1,05,02,26,067,17,07,45,233,29,27,38,275,22,30,71,007,31*6E,1764018242484
NMEA,$GAGSV,2,2,05,34,26,111,15*5B,1764018242485
NMEA,$PQGSV,1,1,0,*73,1764018242485
NMEA,$PQGSV,1,1,0,*73,1764018242485
NMEA,$GNGSA,A,3,01,02,04,07,08,09,14,16,27,30,,,0.9,0.6,0.7,1*3C,1764018242487
NMEA,$GNGSA,A,3,71,72,73,75,83,85,,,,,,,0.9,0.6,0.7,2*39,1764018242488
NMEA,$GNGSA,A,3,02,07,27,30,,,,,,,,,0.9,0.6,0.7,3*38,1764018242488
NMEA,$GNVTG,,T,,M,0.0,N,0.0,K,A*3D,1764018242488
NMEA,$GNRMC,210400.00,A,3956.986896,N,07510.292885,W,0.0,,241125,9.6,W,A*0A,1764018242488
NMEA,$GNGGA,210400.00,3956.986896,N,07510.292885,W,1,12,0.6,13.6,M,-39.7,M,,*70,1764018242488
NMEA,$GPGSV,3,1,10,01,04,165,17,02,28,143,35,04,14,188,26,07,59,307,29*73,1764018243467
NMEA,$GPGSV,3,2,10,08,78,071,26,09,31,223,34,16,21,071,23,27,44,049,32*79,1764018243467
NMEA,$GPGSV,3,3,10,30,30,309,26,14,06,271,*71,1764018243467
NMEA,$GLGSV,3,1,09,73,43,071,29,75,17,299,20,65,18,314,18,84,00,000,35*6B,1764018243468
NMEA,$GLGSV,3,2,09,83,40,053,24,85,10,175,16,71,04,212,11,72,25,258,34*63,1764018243468
NMEA,$GLGSV,3,3,09,82,02,018,*5D,1764018243468
NMEA,$GAGSV,2,1,06,02,26,067,16,07,45,233,29,27,38,275,21,29,30,302,14*63,1764018243469
NMEA,$GAGSV,2,2,06,30,71,007,30,34,26,111,15*69,1764018243471
NMEA,$PQGSV,1,1,0,*73,1764018243471
NMEA,$PQGSV,1,1,0,*73,1764018243471
NMEA,$GNGSA,A,3,01,02,04,07,08,09,14,16,27,30,,,0.9,0.6,0.7,1*3C,1764018243476
NMEA,$GNGSA,A,3,71,72,73,75,83,85,,,,,,,0.9,0.6,0.7,2*39,1764018243476
NMEA,$GNGSA,A,3,02,07,27,30,,,,,,,,,0.9,0.6,0.7,3*38,1764018243476
NMEA,$GNVTG,,T,,M,0.0,N,0.0,K,A*3D,1764018243477
NMEA,$GNRMC,210401.00,A,3956.986858,N,07510.292847,W,0.0,,241125,9.6,W,A*07,1764018243477
NMEA,$GNGGA,210401.00,3956.986858,N,07510.292847,W,1,12,0.6,14.0,M,-39.7,M,,*7C,1764018243477
NMEA,$GPGSV,3,1,10,01,04,165,19,02,28,143,33,04,14,188,25,07,59,307,28*79,1764018244467
NMEA,$GPGSV,3,2,10,08,78,071,23,09,31,223,32,16,21,071,22,27,44,049,32*7B,1764018244470
NMEA,$GPGSV,3,3,10,30,30,309,27,14,06,271,*70,1764018244472
NMEA,$GLGSV,3,1,09,73,43,071,22,75,17,299,19,65,18,314,14,84,00,000,33*60,1764018244473
NMEA,$GLGSV,3,2,09,83,40,053,25,85,10,175,20,71,04,212,11,72,25,258,32*61,1764018244473
NMEA,$GLGSV,3,3,09,82,02,018,*5D,1764018244473
NMEA,$GAGSV,2,1,07,02,26,067,17,07,45,233,24,14,00,000,31,27,38,275,19*6E,1764018244474
NMEA,$GAGSV,2,2,07,29,30,302,14,30,71,007,28,34,26,111,21*5A,1764018244476
NMEA,$PQGSV,1,1,0,*73,1764018244477
NMEA,$PQGSV,1,1,0,*73,1764018244478
NMEA,$GNGSA,A,3,01,02,04,07,08,09,14,16,27,30,,,0.9,0.6,0.7,1*3C,1764018244478
NMEA,$GNGSA,A,3,71,72,73,75,83,85,,,,,,,0.9,0.6,0.7,2*39,1764018244479
NMEA,$GNGSA,A,3,02,07,27,29,30,,,,,,,,0.9,0.6,0.7,3*33,1764018244479
NMEA,$GNVTG,,T,,M,0.0,N,0.0,K,A*3D,1764018244480
NMEA,$GNRMC,210402.00,A,3956.986802,N,07510.292825,W,0.0,,241125,9.6,W,A*0F,1764018244480
NMEA,$GNGGA,210402.00,3956.986802,N,07510.292825,W,1,12,0.6,15.0,M,-39.7,M,,*75,1764018244480
NMEA,$GPGSV,3,1,10,01,04,165,23,02,28,143,31,04,14,188,24,07,59,307,31*7B,1764018245470
NMEA,$GPGSV,3,2,10,08,78,071,21,09,31,223,33,16,21,071,22,27,44,049,32*78,1764018245471
NMEA,$GPGSV,3,3,10,30,30,309,29,14,06,271,*7E,1764018245471
NMEA,$GLGSV,3,1,09,73,43,071,29,75,17,299,23,65,18,314,14,84,00,000,32*63,1764018245471
NMEA,$GLGSV,3,2,09,83,40,053,30,85,10,175,21,71,04,212,11,72,25,258,33*65,1764018245472
NMEA,$GLGSV,3,3,09,82,02,018,*5D,1764018245472
NMEA,$GAGSV,2,1,07,02,26,067,23,07,45,233,22,14,00,000,34,27,38,275,21*61,1764018245472
NMEA,$GAGSV,2,2,07,29,30,302,22,30,71,007,26,34,26,111,24*54,1764018245472
NMEA,$PQGSV,1,1,0,*73,1764018245472
NMEA,$PQGSV,1,1,0,*73,1764018245473
NMEA,$GNGSA,A,3,01,02,04,07,08,09,14,16,27,30,,,0.9,0.6,0.7,1*3C,1764018245474
NMEA,$GNGSA,A,3,71,72,73,75,83,85,,,,,,,0.9,0.6,0.7,2*39,1764018245475
NMEA,$GNGSA,A,3,02,07,27,29,30,,,,,,,,0.9,0.6,0.7,3*33,1764018245475
NMEA,$GNVTG,,T,,M,0.0,N,0.0,K,A*3D,1764018245475
NMEA,$GNRMC,210403.00,A,3956.986732,N,07510.292773,W,0.0,,241125,9.6,W,A*0E,1764018245475
NMEA,$GNGGA,210403.00,3956.986732,N,07510.292773,W,1,12,0.6,15.6,M,-39.7,M,,*72,1764018245475
NMEA,$GPGSV,3,1,10,01,04,165,23,02,28,143,28,04,14,188,22,07,59,307,29*7C,1764018246477
NMEA,$GPGSV,3,2,10,08,78,071,23,09,31,223,31,16,21,071,22,27,44,049,32*78,1764018246478
NMEA,$GPGSV,3,3,10,30,30,309,28,14,06,271,*7F,1764018246478
NMEA,$GLGSV,3,1,09,73,43,071,28,75,17,299,22,65,18,314,17,84,00,000,32*60,1764018246478
NMEA,$GLGSV,3,2,09,83,40,053,32,85,10,175,22,71,04,212,11,72,25,258,33*64,1764018246479
NMEA,$GLGSV,3,3,09,82,02,018,*5D,1764018246479
NMEA,$GAGSV,2,1,07,02,26,067,22,07,45,233,26,14,00,000,31,27,38,275,23*63,1764018246479
NMEA,$GAGSV,2,2,07,29,30,302,23,30,71,007,25,34,26,111,24*56,1764018246479
NMEA,$PQGSV,1,1,0,*73,1764018246480
NMEA,$PQGSV,1,1,0,*73,1764018246481
NMEA,$GNGSA,A,3,01,02,04,07,08,09,16,27,30,,,,1.0,0.6,0.8,1*3E,1764018246488
NMEA,$GNGSA,A,3,72,73,75,83,85,,,,,,,,1.0,0.6,0.8,2*38,1764018246488
NMEA,$GNGSA,A,3,02,07,27,29,30,,,,,,,,1.0,0.6,0.8,3*34,1764018246488
NMEA,$GNVTG,,T,,M,0.0,N,0.0,K,A*3D,1764018246488
NMEA,$GNRMC,210404.00,A,3956.986659,N,07510.292725,W,0.0,,241125,9.6,W,A*06,1764018246489
NMEA,$GNGGA,210404.00,3956.986659,N,07510.292725,W,1,12,0.6,16.0,M,-39.7,M,,*7F,1764018246489
NMEA,$GPGSV,3,1,10,01,04,165,23,02,28,143,30,04,14,188,22,07,59,307,30*7D,1764018247468
NMEA,$GPGSV,3,2,10,08,78,071,29,09,31,223,35,16,21,071,20,27,44,049,32*74,1764018247469
NMEA,$GPGSV,3,3,10,30,30,309,25,14,06,271,*72,1764018247469
NMEA,$GLGSV,3,1,09,73,43,071,29,75,17,299,21,65,18,314,17,84,00,000,33*63,1764018247469
NMEA,$GLGSV,3,2,09,83,40,053,33,85,10,175,23,71,04,212,11,72,25,258,32*65,1764018247471
NMEA,$GLGSV,3,3,09,82,02,018,*5D,1764018247471
NMEA,$GAGSV,2,1,07,02,26,067,21,07,45,233,27,14,00,000,34,27,38,275,24*63,1764018247472
NMEA,$GAGSV,2,2,07,29,30,302,22,30,71,007,28,34,26,111,23*5D,1764018247473
NMEA,$PQGSV,1,1,0,*73,1764018247473
NMEA,$PQGSV,1,1,0,*73,1764018247473
NMEA,$GNGSA,A,3,01,02,04,07,08,09,16,27,30,,,,1.0,0.6,0.8,1*3E,1764018247474
NMEA,$GNGSA,A,3,72,73,75,83,85,,,,,,,,1.0,0.6,0.8,2*38,1764018247474
NMEA,$GNGSA,A,3,02,07,27,29,30,,,,,,,,1.0,0.6,0.8,3*34,1764018247475
NMEA,$GNVTG,,T,,M,0.0,N,0.0,K,A*3D,1764018247475
NMEA,$GNRMC,210405.00,A,3956.986615,N,07510.292684,W,0.0,,241125,9.6,W,A*05,1764018247475
NMEA,$GNGGA,210405.00,3956.986615,N,07510.292684,W,1,12,0.6,16.2,M,-39.7,M,,*7E,1764018247476
NMEA,$GPGSV,3,1,10,01,04,165,23,02,28,143,35,04,14,188,25,07,59,307,35*7A,1764018248472
NMEA,$GPGSV,3,2,10,08,78,071,33,09,31,223,37,16,21,071,23,27,44,049,33*7F,1764018248475
NMEA,$GPGSV,3,3,10,30,30,309,20,14,06,271,*77,1764018248475
NMEA,$GLGSV,3,1,09,73,43,071,35,75,17,299,25,65,18,314,17,84,00,000,33*6A,1764018248478
NMEA,$GLGSV,3,2,09,83,40,053,33,85,10,175,24,71,04,212,11,72,25,258,25*64,1764018248478
NMEA,$GLGSV,3,3,09,82,02,018,*5D,1764018248478
NMEA,$GAGSV,2,1,07,02,26,067,25,07,45,233,26,14,00,000,36,27,38,275,26*66,1764018248478
NMEA,$GAGSV,2,2,07,29,30,302,22,30,71,007,30,34,26,111,25*52,1764018248478
NMEA,$PQGSV,1,1,0,*73,1764018248479
NMEA,$PQGSV,1,1,0,*73,1764018248479
NMEA,$GNGSA,A,3,01,02,04,07,08,09,16,27,30,,,,1.0,0.6,0.8,1*3E,1764018248480
NMEA,$GNGSA,A,3,72,73,75,83,85,,,,,,,,1.0,0.6,0.8,2*38,1764018248480
NMEA,$GNGSA,A,3,02,07,27,29,30,,,,,,,,1.0,0.6,0.8,3*34,1764018248481
NMEA,$GNVTG,,T,,M,0.0,N,0.0,K,A*3D,1764018248481
NMEA,$GNRMC,210406.00,A,3956.986600,N,07510.292671,W,0.0,,241125,9.6,W,A*08,1764018248481
NMEA,$GNGGA,210406.00,3956.986600,N,07510.292671,W,1,12,0.6,16.3,M,-39.7,M,,*72,1764018248482
NMEA,$GPGSV,3,1,10,01,04,165,23,02,28,143,35,04,14,188,27,07,59,307,33*7E,1764018249487
NMEA,$GPGSV,3,2,10,08,78,071,34,09,31,223,36,16,21,071,21,27,44,049,32*7A,1764018249487
NMEA,$GPGSV,3,3,10,30,30,309,20,14,06,271,*77,1764018249488
NMEA,$GLGSV,3,1,09,73,43,071,37,75,17,299,26,65,18,314,17,84,00,000,36*6E,1764018249488
NMEA,$GLGSV,3,2,09,83,40,053,35,85,10,175,22,71,04,212,11,72,25,258,27*66,1764018249489
NMEA,$GLGSV,3,3,09,82,02,018,*5D,1764018249489
NMEA,$GAGSV,2,1,08,02,26,067,24,07,45,233,31,08,16,181,16,14,00,000,35*67,1764018249489
NMEA,$GAGSV,2,2,08,27,38,275,25,29,30,302,20,30,71,007,31,34,26,111,23*61,1764018249490
NMEA,$PQGSV,1,1,0,*73,1764018249490
NMEA,$PQGSV,1,1,0,*73,1764018249491
NMEA,$GNGSA,A,3,01,02,04,07,08,09,16,27,30,,,,1.0,0.6,0.8,1*3E,1764018249494
NMEA,$GNGSA,A,3,72,73,75,83,85,,,,,,,,1.0,0.6,0.8,2*38,1764018249495
NMEA,$GNGSA,A,3,02,07,27,29,30,,,,,,,,1.0,0.6,0.8,3*34,1764018249495
NMEA,$GNVTG,,T,,M,0.0,N,0.0,K,A*3D,1764018249495
NMEA,$GNRMC,210407.00,A,3956.986583,N,07510.292667,W,0.0,,241125,9.6,W,A*06,1764018249496
NMEA,$GNGGA,210407.00,3956.986583,N,07510.292667,W,1,12,0.6,16.5,M,-39.7,M,,*7A,1764018249496
NMEA,$GPGSV,3,1,10,01,04,165,23,02,28,143,33,04,14,188,27,07,59,307,33*78,1764018250478
NMEA,$GPGSV,3,2,10,08,78,071,33,09,31,223,34,16,21,071,23,27,44,049,31*7E,1764018250479
NMEA,$GPGSV,3,3,10,30,30,309,21,14,06,271,*76,1764018250482
NMEA,$GLGSV,3,1,09,73,43,071,36,75,17,299,26,65,18,314,17,84,00,000,35*6C,1764018250484
NMEA,$GLGSV,3,2,09,83,40,053,36,85,10,175,23,71,04,212,11,72,25,258,29*6A,1764018250484
NMEA,$GLGSV,3,3,09,82,02,018,*5D,1764018250484
NMEA,$GAGSV,2,1,08,02,26,067,22,07,45,233,34,08,16,181,16,14,00,000,33*62,1764018250485
NMEA,$GAGSV,2,2,08,27,38,275,25,29,30,302,22,30,71,007,31,34,26,111,20*60,1764018250485
NMEA,$PQGSV,1,1,0,*73,1764018250485
NMEA,$PQGSV,1,1,0,*73,1764018250485
NMEA,$GNGSA,A,3,01,02,04,07,08,09,16,27,30,,,,1.0,0.6,0.8,1*3E,1764018250489
NMEA,$GNGSA,A,3,72,73,75,83,85,,,,,,,,1.0,0.6,0.8,2*38,1764018250489
NMEA,$GNGSA,A,3,02,07,27,29,30,,,,,,,,1.0,0.6,0.8,3*34,1764018250490
NMEA,$GNVTG,,T,,M,0.0,N,0.0,K,A*3D,1764018250490
NMEA,$GNRMC,210408.00,A,3956.986566,N,07510.292666,W,0.0,,241125,9.6,W,A*03,1764018250490
NMEA,$GNGGA,210408.00,3956.986566,N,07510.292666,W,1,12,0.6,16.8,M,-39.7,M,,*72,1764018250490
NMEA,$GPGSV,3,1,10,01,04,165,23,02,28,143,34,04,14,188,29,07,59,307,32*70,1764018251468
NMEA,$GPGSV,3,2,10,08,78,071,33,09,31,223,33,16,21,071,22,27,44,049,30*79,1764018251468
NMEA,$GPGSV,3,3,10,30,30,309,22,14,06,271,*75,1764018251468
NMEA,$GLGSV,3,1,09,73,43,071,31,75,17,299,25,65,18,314,17,84,00,000,35*68,1764018251468
NMEA,$GLGSV,3,2,09,83,40,053,35,85,10,175,20,71,04,212,11,72,25,258,30*62,1764018251469
NMEA,$GLGSV,3,3,09,82,02,018,*5D,1764018251469
NMEA,$GAGSV,2,1,08,02,26,067,21,07,45,233,36,08,16,181,18,14,00,000,32*6C,1764018251469
NMEA,$GAGSV,2,2,08,27,38,275,25,29,30,302,22,30,71,007,31,34,26,111,20*60,1764018251470
NMEA,$PQGSV,1,1,0,*73,1764018251470
NMEA,$PQGSV,1,1,0,*73,1764018251470
NMEA,$GNGSA,A,3,01,02,04,07,08,09,16,27,30,,,,1.0,0.6,0.8,1*3E,1764018251471
NMEA,$GNGSA,A,3,72,73,75,83,85,,,,,,,,1.0,0.6,0.8,2*38,1764018251471
NMEA,$GNGSA,A,3,02,07,27,29,30,,,,,,,,1.0,0.6,0.8,3*34,1764018251472
NMEA,$GNVTG,,T,,M,0.0,N,0.0,K,A*3D,1764018251472
NMEA,$GNRMC,210409.00,A,3956.986543,N,07510.292667,W,0.0,,241125,9.6,W,A*04,1764018251472
NMEA,$GNGGA,210409.00,3956.986543,N,07510.292667,W,1,12,0.6,17.0,M,-39.7,M,,*7C,1764018251472
NMEA,$GPGSV,3,1,10,01,04,165,23,02,28,143,32,04,14,188,29,07,59,307,33*77,1764018252479
NMEA,$GPGSV,3,2,10,08,78,071,32,09,31,223,31,14,06,271,14,16,21,071,22*73,1764018252480
NMEA,$GPGSV,3,3,10,27,44,049,29,30,30,309,22*71,1764018252480
NMEA,$GLGSV,3,1,09,73,43,071,26,75,17,299,23,65,18,314,15,84,00,000,36*69,1764018252480
NMEA,$GLGSV,3,2,09,83,40,053,35,85,10,175,20,71,04,212,11,72,25,258,31*63,1764018252481
NMEA,$GLGSV,3,3,09,82,02,018,*5D,1764018252481
NMEA,$GAGSV,2,1,08,02,26,067,21,07,45,233,36,08,16,181,18,14,00,000,32*6C,1764018252481
NMEA,$GAGSV,2,2,08,27,38,275,26,29,30,302,21,30,71,007,31,34,26,111,20*60,1764018252481
NMEA,$PQGSV,1,1,0,*73,1764018252481
NMEA,$PQGSV,1,1,0,*73,1764018252481
NMEA,$GNGSA,A,3,01,02,04,07,08,09,16,27,30,,,,1.0,0.6,0.8,1*3E,1764018252483
NMEA,$GNGSA,A,3,72,73,75,83,85,,,,,,,,1.0,0.6,0.8,2*38,1764018252484
NMEA,$GNGSA,A,3,02,07,27,29,30,,,,,,,,1.0,0.6,0.8,3*34,1764018252484
NMEA,$GNVTG,,T,,M,0.0,N,0.0,K,A*3D,1764018252484
NMEA,$GNRMC,210410.00,A,3956.986510,N,07510.292666,W,0.0,,241125,9.6,W,A*0B,1764018252484
NMEA,$GNGGA,210410.00,3956.986510,N,07510.292666,W,1,12,0.6,17.3,M,-39.7,M,,*70,1764018252484
NMEA,$GPGSV,3,1,10,02,28,143,32,04,14,188,29,07,59,307,33,08,78,071,33*70,1764018253479
NMEA,$GPGSV,3,2,10,09,31,223,29,16,21,071,19,27,44,049,27,30,30,309,23*76,1764018253481
NMEA,$GPGSV,3,3,10,01,04,165,,14,06,271,*78,1764018253482
NMEA,$GLGSV,3,1,09,73,43,071,29,75,17,299,23,65,18,314,22,84,00,000,36*62,1764018253483
NMEA,$GLGSV,3,2,09,83,40,053,35,85,10,175,20,71,04,212,11,72,25,258,32*60,1764018253484
NMEA,$GLGSV,3,3,09,82,02,018,*5D,1764018253484
NMEA,$GAGSV,2,1,08,02,26,067,20,07,45,233,37,08,16,181,18,14,00,000,32*6C,1764018253484
NMEA,$GAGSV,2,2,08,27,38,275,24,29,30,302,21,30,71,007,31,34,26,111,21*63,1764018253484
NMEA,$PQGSV,1,1,0,*73,1764018253484
NMEA,$PQGSV,1,1,0,*73,1764018253484
NMEA,$GNGSA,A,3,02,04,07,08,09,16,27,30,,,,,1.0,0.6,0.8,1*3F,1764018253485
NMEA,$GNGSA,A,3,72,73,75,83,85,,,,,,,,1.0,0.6,0.8,2*38,1764018253485
NMEA,$GNGSA,A,3,02,07,27,29,30,,,,,,,,1.0,0.6,0.8,3*34,1764018253485
NMEA,$GNVTG,,T,,M,0.0,N,0.0,K,A*3D,1764018253485
NMEA,$GNRMC,210411.00,A,3956.986478,N,07510.292662,W,0.0,,241125,9.6,W,A*01,1764018253485
NMEA,$GNGGA,210411.00,3956.986478,N,07510.292662,W,1,12,0.6,17.4,M,-39.7,M,,*7D,1764018253485
NMEA,$GPGSV,3,1,10,02,28,143,30,04,14,188,30,07,59,307,33,08,78,071,33*7A,1764018254481
NMEA,$GPGSV,3,2,10,09,31,223,27,16,21,071,19,27,44,049,25,30,30,309,22*7B,1764018254482
NMEA,$GPGSV,3,3,10,01,04,165,,14,06,271,*78,1764018254482
NMEA,$GLGSV,3,1,09,73,43,071,33,75,17,299,21,65,18,314,23,84,00,000,36*6A,1764018254482
NMEA,$GLGSV,3,2,09,83,40,053,35,85,10,175,20,71,04,212,11,72,25,258,32*60,1764018254483
NMEA,$GLGSV,3,3,09,82,02,018,*5D,1764018254483
NMEA,$GAGSV,2,1,08,02,26,067,23,07,45,233,38,08,16,181,18,14,00,000,31*63,1764018254484
NMEA,$GAGSV,2,2,08,27,38,275,23,29,30,302,23,30,71,007,31,34,26,111,24*63,1764018254484
NMEA,$PQGSV,1,1,0,*73,1764018254485
NMEA,$PQGSV,1,1,0,*73,1764018254485
NMEA,$GNGSA,A,3,02,04,07,08,09,16,27,30,,,,,1.0,0.6,0.8,1*3F,1764018254488
NMEA,$GNGSA,A,3,72,73,75,83,85,,,,,,,,1.0,0.6,0.8,2*38,1764018254489
NMEA,$GNGSA,A,3,02,07,27,29,30,,,,,,,,1.0,0.6,0.8,3*34,1764018254490
NMEA,$GNVTG,,T,,M,0.0,N,0.0,K,A*3D,1764018254490
NMEA,$GNRMC,210412.00,A,3956.986456,N,07510.292657,W,0.0,,241125,9.6,W,A*08,1764018254490
NMEA,$GNGGA,210412.00,3956.986456,N,07510.292657,W,1,12,0.6,17.6,M,-39.7,M,,*76,1764018254491
NMEA,$GPGSV,3,1,10,02,28,143,30,04,14,188,31,07,59,307,32,08,78,071,33*7A,1764018255473
NMEA,$GPGSV,3,2,10,09,31,223,28,16,21,071,16,27,44,049,20,30,30,309,20*7C,1764018255474
NMEA,$GPGSV,3,3,10,01,04,165,,14,06,271,*78,1764018255474
NMEA,$GLGSV,3,1,09,73,43,071,35,75,17,299,21,65,18,314,24,84,00,000,37*6A,1764018255475
NMEA,$GLGSV,3,2,09,83,40,053,35,85,10,175,20,71,04,212,11,72,25,258,32*60,1764018255475
NMEA,$GLGSV,3,3,09,82,02,018,*5D,1764018255475
NMEA,$GAGSV,2,1,08,02,26,067,26,07,45,233,37,08,16,181,24,14,00,000,32*65,1764018255475
NMEA,$GAGSV,2,2,08,27,38,275,24,29,30,302,22,30,71,007,31,34,26,111,24*65,1764018255476
NMEA,$PQGSV,1,1,0,*73,1764018255476
NMEA,$PQGSV,1,1,0,*73,1764018255476
NMEA,$GNGSA,A,3,02,04,07,08,09,16,27,30,,,,,1.0,0.6,0.8,1*3F,1764018255480
NMEA,$GNGSA,A,3,72,73,75,83,85,,,,,,,,1.0,0.6,0.8,2*38,1764018255482
NMEA,$GNGSA,A,3,02,07,08,27,29,30,,,,,,,1.0,0.6,0.8,3*3C,1764018255483
NMEA,$GNVTG,,T,,M,0.0,N,0.0,K,A*3D,1764018255483
NMEA,$GNRMC,210413.00,A,3956.986365,N,07510.292191,W,0.0,,241125,9.6,W,A*03,1764018255483
NMEA,$GNGGA,210413.00,3956.986365,N,07510.292191,W,1,12,0.6,17.3,M,-39.7,M,,*78,1764018255485
NMEA,$GPGSV,3,1,10,01,04,165,18,02,28,143,31,04,14,188,29,07,59,307,32*7D,1764018256472
NMEA,$GPGSV,3,2,10,08,78,071,31,09,31,223,28,16,21,071,17,27,44,049,21*77,1764018256473
NMEA,$GPGSV,3,3,10,30,30,309,19,14,06,271,*7D,1764018256473
NMEA,$GLGSV,3,1,09,73,43,071,34,75,17,299,21,65,18,314,25,84,00,000,37*6A,1764018256473
NMEA,$GLGSV,3,2,09,83,40,053,34,85,10,175,20,71,04,212,11,72,25,258,31*62,1764018256473
NMEA,$GLGSV,3,3,09,82,02,018,*5D,1764018256473
NMEA,$GAGSV,2,1,08,02,26,067,25,07,45,233,38,08,16,181,25,14,00,000,30*6A,1764018256474
NMEA,$GAGSV,2,2,08,27,38,275,23,29,30,302,22,30,71,007,30,34,26,111,22*65,1764018256474
NMEA,$PQGSV,1,1,0,*73,1764018256474
NMEA,$PQGSV,1,1,0,*73,1764018256474
NMEA,$GNGSA,A,3,02,04,07,08,09,16,27,30,,,,,1.0,0.6,0.8,1*3F,1764018256476
NMEA,$GNGSA,A,3,72,73,75,83,85,,,,,,,,1.0,0.6,0.8,2*38,1764018256476
NMEA,$GNGSA,A,3,02,07,08,27,29,30,,,,,,,1.0,0.6,0.8,3*3C,1764018256476
NMEA,$GNVTG,,T,,M,0.0,N,0.0,K,A*3D,1764018256477
NMEA,$GNRMC,210414.00,A,3956.986100,N,07510.291380,W,0.0,,241125,9.6,W,A*04,1764018256477
NMEA,$GNGGA,210414.00,3956.986100,N,07510.291380,W,1,12,0.6,17.2,M,-39.7,M,,*7E,1764018256477
NMEA,$GPGSV,3,1,10,01,04,165,19,02,28,143,30,04,14,188,28,07,59,307,32*7C,1764018257490
NMEA,$GPGSV,3,2,10,08,78,071,32,09,31,223,27,16,21,071,18,27,44,049,21*74,1764018257491
NMEA,$GPGSV,3,3,10,30,30,309,20,14,06,271,*77,1764018257491
NMEA,$GLGSV,3,1,09,73,43,071,30,75,17,299,16,65,18,314,24,84,00,000,38*64,1764018257491
NMEA,$GLGSV,3,2,09,83,40,053,35,85,10,175,20,71,04,212,11,72,25,258,28*6B,1764018257491
NMEA,$GLGSV,3,3,09,82,02,018,*5D,1764018257492
NMEA,$GAGSV,2,1,08,02,26,067,26,07,45,233,38,08,16,181,26,14,00,000,30*6A,1764018257492
NMEA,$GAGSV,2,2,08,27,38,275,23,29,30,302,21,30,71,007,31,34,26,111,24*61,1764018257492
NMEA,$PQGSV,1,1,0,*73,1764018257493
NMEA,$PQGSV,1,1,0,*73,1764018257493
NMEA,$GNGSA,A,3,02,04,07,08,09,16,27,30,,,,,1.0,0.6,0.8,1*3F,1764018257496
NMEA,$GNGSA,A,3,72,73,75,83,85,,,,,,,,1.0,0.6,0.8,2*38,1764018257497
NMEA,$GNGSA,A,3,02,07,08,27,29,30,,,,,,,1.0,0.6,0.8,3*3C,1764018257497
NMEA,$GNVTG,24.3,T,24.3,M,0.4,N,0.7,K,A*3E,1764018257498
NMEA,$GNRMC,210415.00,A,3956.986037,N,07510.290935,W,0.4,24.3,241125,9.6,W,A*1A,1764018257498
NMEA,$GNGGA,210415.00,3956.986037,N,07510.290935,W,1,12,0.6,16.7,M,-39.7,M,,*7B,1764018257498
NMEA,$GPGSV,3,1,10,01,04,165,19,02,28,143,31,04,14,188,28,07,59,307,31*7E,1764018258479
NMEA,$GPGSV,3,2,10,08,78,071,32,09,31,223,31,14,06,271,15,16,21,071,19*7A,1764018258480
NMEA,$GPGSV,3,3,10,27,44,049,23,30,30,309,18*72,1764018258480
NMEA,$GLGSV,3,1,09,73,43,071,25,75,17,299,16,65,18,314,21,84,00,000,37*6A,1764018258480
NMEA,$GLGSV,3,2,09,83,40,053,34,85,10,175,10,71,04,212,11,72,25,258,27*66,1764018258481
NMEA,$GLGSV,3,3,09,82,02,018,*5D,1764018258481
NMEA,$GAGSV,2,1,08,02,26,067,22,07,45,233,39,08,16,181,24,14,00,000,29*65,1764018258481
NMEA,$GAGSV,2,2,08,27,38,275,23,29,30,302,22,30,71,007,30,34,26,111,26*61,1764018258482
NMEA,$PQGSV,1,1,0,*73,1764018258482
NMEA,$PQGSV,1,1,0,*73,1764018258482
NMEA,$GNGSA,A,3,02,04,07,08,09,27,30,,,,,,1.0,0.6,0.8,1*38,1764018258485
NMEA,$GNGSA,A,3,72,73,75,83,,,,,,,,,1.0,0.6,0.8,2*35,1764018258486
NMEA,$GNGSA,A,3,02,07,08,27,29,30,,,,,,,1.0,0.6,0.8,3*3C,1764018258486
NMEA,$GNVTG,,T,,M,0.0,N,0.0,K,A*3D,1764018258486
NMEA,$GNRMC,210416.00,A,3956.986342,N,07510.290431,W,0.0,,241125,9.6,W,A*0E,1764018258486
NMEA,$GNGGA,210416.00,3956.986342,N,07510.290431,W,1,12,0.6,15.2,M,-39.7,M,,*76,1764018258487
NMEA,$GPGSV,3,1,10,01,04,165,19,02,28,143,31,04,14,188,28,07,59,307,31*7E,1764018259468
NMEA,$GPGSV,3,2,10,08,78,071,33,09,31,223,31,14,06,271,15,16,21,071,19*7B,1764018259468
NMEA,$GPGSV,3,3,10,27,44,049,27,30,30,309,18*76,1764018259469
NMEA,$GLGSV,3,1,09,73,43,071,30,75,17,299,20,65,18,314,16,84,00,000,36*6E,1764018259469
NMEA,$GLGSV,3,2,09,83,40,053,34,85,10,175,10,71,04,212,11,72,25,258,27*66,1764018259469
NMEA,$GLGSV,3,3,09,82,02,018,*5D,1764018259469
NMEA,$GAGSV,2,1,08,02,26,067,23,07,45,233,38,08,16,181,24,14,00,000,31*6C,1764018259469
NMEA,$GAGSV,2,2,08,27,38,275,23,29,30,302,22,30,71,007,31,34,26,111,24*62,1764018259469
NMEA,$PQGSV,1,1,0,*73,1764018259469
NMEA,$PQGSV,1,1,0,*73,1764018259470
NMEA,$GNGSA,A,3,02,04,07,08,09,27,30,,,,,,1.0,0.6,0.8,1*38,1764018259470
NMEA,$GNGSA,A,3,72,73,75,83,,,,,,,,,1.0,0.6,0.8,2*35,1764018259471
NMEA,$GNGSA,A,3,02,07,08,27,29,30,,,,,,,1.0,0.6,0.8,3*3C,1764018259472
NMEA,$GNVTG,324.5,T,324.5,M,0.5,N,0.9,K,A*31,1764018259473
NMEA,$GNRMC,210417.00,A,3956.986682,N,07510.290342,W,0.5,324.5,241125,9.6,W,A*2E,1764018259476
NMEA,$GNGGA,210417.00,3956.986682,N,07510.290342,W,1,12,0.6,13.8,M,-39.7,M,,*71,1764018259477
NMEA,$GPGSV,3,1,10,01,04,165,19,02,28,143,32,04,14,188,28,07,59,307,30*7C,1764018260479
NMEA,$GPGSV,3,2,10,08,78,071,33,09,31,223,34,14,06,271,15,16,21,071,18*7F,1764018260480
NMEA,$GPGSV,3,3,10,27,44,049,27,30,30,309,18*76,1764018260480
NMEA,$GLGSV,2,1,08,73,43,071,31,75,17,299,18,65,18,314,16,84,00,000,35*67,1764018260481
NMEA,$GLGSV,2,2,08,83,40,053,33,85,10,175,10,72,25,258,22,82,02,018,*66,1764018260481
NMEA,$GAGSV,2,1,08,02,26,067,19,07,45,233,38,08,16,181,23,14,00,000,31*62,1764018260481
NMEA,$GAGSV,2,2,08,27,38,275,24,29,30,302,23,30,71,007,30,34,26,111,24*65,1764018260482
NMEA,$PQGSV,1,1,0,*73,1764018260482
NMEA,$PQGSV,1,1,0,*73,1764018260483
NMEA,$GNGSA,A,3,02,04,07,08,09,27,30,,,,,,1.0,0.6,0.8,1*38,1764018260485
NMEA,$GNGSA,A,3,72,73,75,83,,,,,,,,,1.0,0.6,0.8,2*35,1764018260486
NMEA,$GNGSA,A,3,02,07,08,27,29,30,,,,,,,1.0,0.6,0.8,3*3C,1764018260486
NMEA,$GNVTG,124.5,T,124.5,M,0.8,N,1.5,K,A*31,1764018260486
NMEA,$GNRMC,210418.00,A,3956.986864,N,07510.290049,W,0.8,124.5,241125,9.6,W,A*20,1764018260486
NMEA,$GNGGA,210418.00,3956.986864,N,07510.290049,W,1,12,0.6,12.9,M,-39.7,M,,*70,1764018260487
NMEA,$GPGSV,3,1,10,01,04,165,19,02,28,143,32,04,14,188,28,07,59,307,30*7C,1764018261479
NMEA,$GPGSV,3,2,10,08,78,071,33,09,31,223,35,14,06,271,15,16,21,071,18*7E,1764018261479
NMEA,$GPGSV,3,3,10,27,44,049,28,30,30,309,15*74,1764018261480
NMEA,$GLGSV,3,1,09,73,43,071,33,75,17,299,21,65,18,314,16,84,00,000,35*6F,1764018261480
NMEA,$GLGSV,3,2,09,83,40,053,33,85,10,175,16,72,25,258,25,82,02,018,*67,1764018261480
NMEA,$GLGSV,3,3,09,71,04,212,*5F,1764018261481
NMEA,$GAGSV,2,1,08,02,26,067,19,07,45,233,37,08,16,181,23,14,00,000,33*6F,1764018261481
NMEA,$GAGSV,2,2,08,27,38,275,24,29,30,302,22,30,71,007,31,34,26,111,22*63,1764018261482
NMEA,$PQGSV,1,1,0,*73,1764018261482
NMEA,$PQGSV,1,1,0,*73,1764018261483
NMEA,$GNGSA,A,3,02,04,07,08,09,27,30,,,,,,1.0,0.6,0.8,1*38,1764018261486
NMEA,$GNGSA,A,3,72,73,75,83,,,,,,,,,1.0,0.6,0.8,2*35,1764018261487
NMEA,$GNGSA,A,3,02,07,08,27,29,30,,,,,,,1.0,0.6,0.8,3*3C,1764018261487
NMEA,$GNVTG,,T,,M,0.0,N,0.0,K,A*3D,1764018261488
NMEA,$GNRMC,210419.00,A,3956.986989,N,07510.289828,W,0.0,,241125,9.6,W,A*00,1764018261488
NMEA,$GNGGA,210419.00,3956.986989,N,07510.289828,W,1,12,0.6,13.0,M,-39.7,M,,*7C,1764018261488
NMEA,$GPGSV,3,1,10,01,04,165,19,02,28,143,31,04,14,188,28,07,59,307,31*7E,1764018262465
NMEA,$GPGSV,3,2,10,08,78,071,34,09,31,223,35,14,06,271,14,16,21,071,17*77,1764018262465
NMEA,$GPGSV,3,3,10,27,44,049,27,30,30,309,17*79,1764018262465
NMEA,$GLGSV,3,1,09,73,43,071,31,75,17,299,21,65,18,314,16,84,00,000,34*6C,1764018262465
NMEA,$GLGSV,3,2,09,83,40,053,34,85,10,175,18,72,25,258,27,82,02,018,*6C,1764018262465
NMEA,$GLGSV,3,3,09,71,04,212,*5F,1764018262465
NMEA,$GAGSV,2,1,08,02,26,067,18,07,45,233,37,08,16,181,24,14,00,000,34*6E,1764018262466
NMEA,$GAGSV,2,2,08,27,38,275,24,29,30,302,23,30,71,007,31,34,26,111,24*64,1764018262466
NMEA,$PQGSV,1,1,0,*73,1764018262466
NMEA,$PQGSV,1,1,0,*73,1764018262466
NMEA,$GNGSA,A,3,02,04,07,08,09,27,30,,,,,,1.0,0.6,0.8,1*38,1764018262467
NMEA,$GNGSA,A,3,72,73,75,83,,,,,,,,,1.0,0.6,0.8,2*35,1764018262467
NMEA,$GNGSA,A,3,02,07,08,27,29,30,,,,,,,1.0,0.6,0.8,3*3C,1764018262467
NMEA,$GNVTG,334.8,T,334.8,M,0.3,N,0.5,K,A*3B,1764018262468
NMEA,$GNRMC,210420.00,A,3956.987419,N,07510.289675,W,0.3,334.8,241125,9.6,W,A*28,1764018262468
NMEA,$GNGGA,210420.00,3956.987419,N,07510.289675,W,1,12,0.6,12.5,M,-39.7,M,,*71,1764018262468
NMEA,$GPGSV,3,1,10,01,04,165,19,02,28,143,32,04,14,188,28,07,59,307,29*74,1764018263480
NMEA,$GPGSV,3,2,10,08,78,071,33,09,31,223,36,14,06,271,14,16,21,071,17*73,1764018263481
NMEA,$GPGSV,3,3,10,27,44,049,27,30,30,309,17*79,1764018263482
NMEA,$GLGSV,3,1,09,73,43,071,29,75,17,299,21,65,18,314,16,84,00,000,34*65,1764018263482
NMEA,$GLGSV,3,2,09,83,40,053,35,85,10,175,20,72,25,258,30,82,02,018,*60,1764018263483
NMEA,$GLGSV,3,3,09,71,04,212,*5F,1764018263483
NMEA,$GAGSV,2,1,08,02,26,067,19,07,45,233,37,08,16,181,23,14,00,000,34*68,1764018263484
NMEA,$GAGSV,2,2,08,27,38,275,25,29,30,302,22,30,71,007,31,34,26,111,24*64,1764018263485
NMEA,$PQGSV,1,1,0,*73,1764018263485
NMEA,$PQGSV,1,1,0,*73,1764018263485
NMEA,$GNGSA,A,3,02,04,07,08,09,27,,,,,,,1.0,0.6,0.8,1*3B,1764018263487
NMEA,$GNGSA,A,3,72,73,75,83,85,,,,,,,,1.0,0.6,0.8,2*38,1764018263488
NMEA,$GNGSA,A,3,02,07,08,27,29,30,,,,,,,1.0,0.6,0.8,3*3C,1764018263489
NMEA,$GNVTG,139.8,T,139.8,M,0.9,N,1.7,K,A*32,1764018263489
NMEA,$GNRMC,210421.00,A,3956.987613,N,07510.289345,W,0.9,139.8,241125,9.6,W,A*22,1764018263489
NMEA,$GNGGA,210421.00,3956.987613,N,07510.289345,W,1,12,0.6,13.0,M,-39.7,M,,*7A,1764018263490
NMEA,$GPGSV,3,1,10,01,04,165,19,02,28,143,32,04,14,188,28,07,59,307,31*7D,1764018264478
NMEA,$GPGSV,3,2,10,08,78,071,34,09,31,223,35,14,06,271,14,16,21,071,17*77,1764018264479
NMEA,$GPGSV,3,3,10,27,44,049,27,30,30,309,14*7A,1764018264479
NMEA,$GLGSV,3,1,09,73,43,071,27,75,17,299,21,65,18,314,16,84,00,000,34*6B,1764018264480
NMEA,$GLGSV,3,2,09,83,40,053,35,85,10,175,19,72,25,258,32,82,02,018,*68,1764018264480
NMEA,$GLGSV,3,3,09,71,04,212,*5F,1764018264481
NMEA,$GAGSV,2,1,08,02,26,067,21,07,45,233,37,08,16,181,23,14,00,000,35*62,1764018264482
NMEA,$GAGSV,2,2,08,27,38,275,24,29,30,302,23,30,71,007,30,34,26,111,23*62,1764018264482
NMEA,$PQGSV,1,1,0,*73,1764018264482
NMEA,$PQGSV,1,1,0,*73,1764018264483
NMEA,$GNGSA,A,3,02,04,07,08,09,27,,,,,,,1.0,0.6,0.8,1*3B,1764018264486
NMEA,$GNGSA,A,3,72,73,75,83,85,,,,,,,,1.0,0.6,0.8,2*38,1764018264486
NMEA,$GNGSA,A,3,02,07,08,27,29,30,,,,,,,1.0,0.6,0.8,3*3C,1764018264486
NMEA,$GNVTG,,T,,M,0.0,N,0.0,K,A*3D,1764018264487
NMEA,$GNRMC,210422.00,A,3956.987800,N,07510.289226,W,0.0,,241125,9.6,W,A*0D,1764018264487
NMEA,$GNGGA,210422.00,3956.987800,N,07510.289226,W,1,12,0.6,13.5,M,-39.7,M,,*74,1764018264487
NMEA,$GPGSV,3,1,10,01,04,165,19,02,28,143,31,04,14,188,28,07,59,307,32*7D,1764018265475
NMEA,$GPGSV,3,2,10,08,78,071,33,09,31,223,35,14,06,271,14,16,21,071,20*74,1764018265476
NMEA,$GPGSV,3,3,10,27,44,049,26,30,30,309,16*79,1764018265476
NMEA,$GLGSV,3,1,09,73,43,071,30,75,17,299,20,65,18,314,16,84,00,000,34*6C,1764018265476
NMEA,$GLGSV,3,2,09,83,40,053,36,85,10,175,20,72,25,258,34,82,02,018,*67,1764018265477
NMEA,$GLGSV,3,3,09,71,04,212,*5F,1764018265478
NMEA,$GAGSV,2,1,08,02,26,067,22,07,45,233,37,08,16,181,22,14,00,000,35*60,1764018265478
NMEA,$GAGSV,2,2,08,27,38,275,25,29,30,302,23,30,71,007,30,34,26,111,23*63,1764018265478
NMEA,$PQGSV,1,1,0,*73,1764018265479
NMEA,$PQGSV,1,1,0,*73,1764018265479
NMEA,$GNGSA,A,3,02,04,07,08,09,16,27,,,,,,1.0,0.6,0.8,1*3C,1764018265482
NMEA,$GNGSA,A,3,72,73,75,83,85,,,,,,,,1.0,0.6,0.8,2*38,1764018265482
NMEA,$GNGSA,A,3,02,07,08,27,29,30,,,,,,,1.0,0.6,0.8,3*3C,1764018265483
NMEA,$GNVTG,,T,,M,0.0,N,0.0,K,A*3D,1764018265483
NMEA,$GNRMC,210423.00,A,3956.987818,N,07510.289330,W,0.0,,241125,9.6,W,A*03,1764018265484
NMEA,$GNGGA,210423.00,3956.987818,N,07510.289330,W,1,12,0.6,13.8,M,-39.7,M,,*77,1764018265484
NMEA,$GPGSV,3,1,10,01,04,165,19,02,28,143,31,04,14,188,29,07,59,307,32*7C,1764018266464
NMEA,$GPGSV,3,2,10,08,78,071,33,09,31,223,34,14,06,271,13,16,21,071,19*78,1764018266465
NMEA,$GPGSV,3,3,10,27,44,049,27,30,30,309,16*78,1764018266465
NMEA,$GLGSV,3,1,09,73,43,071,31,75,17,299,22,65,18,314,16,84,00,000,35*6E,1764018266465
NMEA,$GLGSV,3,2,09,83,40,053,36,85,10,175,19,72,25,258,35,82,02,018,*6C,1764018266466
NMEA,$GLGSV,3,3,09,71,04,212,*5F,1764018266466
NMEA,$GAGSV,2,1,08,02,26,067,22,07,45,233,37,08,16,181,23,14,00,000,36*62,1764018266466
NMEA,$GAGSV,2,2,08,27,38,275,25,29,30,302,22,30,71,007,31,34,26,111,24*64,1764018266466
NMEA,$PQGSV,1,1,0,*73,1764018266467
NMEA,$PQGSV,1,1,0,*73,1764018266467
NMEA,$GNGSA,A,3,02,04,07,08,09,16,27,,,,,,1.0,0.6,0.8,1*3C,1764018266469
NMEA,$GNGSA,A,3,72,73,75,83,85,,,,,,,,1.0,0.6,0.8,2*38,1764018266471
NMEA,$GNGSA,A,3,02,07,08,27,29,30,,,,,,,1.0,0.6,0.8,3*3C,1764018266471
NMEA,$GNVTG,,T,,M,0.0,N,0.0,K,A*3D,1764018266471
NMEA,$GNRMC,210424.00,A,3956.987357,N,07510.289992,W,0.0,,241125,9.6,W,A*06,1764018266472
NMEA,$GNGGA,210424.00,3956.987357,N,07510.289992,W,1,12,0.6,14.3,M,-39.7,M,,*7E,1764018266472
NMEA,$GPGSV,3,1,10,01,04,165,19,02,28,143,34,04,14,188,28,07,59,307,33*79,1764018267473
NMEA,$GPGSV,3,2,10,08,78,071,34,09,31,223,34,14,06,271,13,16,21,071,17*71,1764018267474
NMEA,$GPGSV,3,3,10,27,44,049,26,30,30,309,14*7B,1764018267474
NMEA,$GLGSV,3,1,09,73,43,071,33,75,17,299,20,65,18,314,14,84,00,000,35*6C,1764018267474
NMEA,$GLGSV,3,2,09,83,40,053,35,85,10,175,20,72,25,258,35,82,02,018,*65,1764018267475
NMEA,$GLGSV,3,3,09,71,04,212,*5F,1764018267475
NMEA,$GAGSV,2,1,08,02,26,067,21,07,45,233,36,08,16,181,22,14,00,000,37*60,1764018267475
NMEA,$GAGSV,2,2,08,27,38,275,25,29,30,302,23,30,71,007,31,34,26,111,23*62,1764018267475
NMEA,$PQGSV,1,1,0,*73,1764018267476
NMEA,$PQGSV,1,1,0,*73,1764018267476
NMEA,$GNGSA,A,3,02,04,07,08,09,16,27,,,,,,1.0,0.6,0.8,1*3C,1764018267478
NMEA,$GNGSA,A,3,72,73,75,83,85,,,,,,,,1.0,0.6,0.8,2*38,1764018267478
NMEA,$GNGSA,A,3,02,07,08,27,29,30,,,,,,,1.0,0.6,0.8,3*3C,1764018267479
NMEA,$GNVTG,,T,,M,0.0,N,0.0,K,A*3D,1764018267479
NMEA,$GNRMC,210425.00,A,3956.986841,N,07510.290549,W,0.0,,241125,9.6,W,A*08,1764018267479
NMEA,$GNGGA,210425.00,3956.986841,N,07510.290549,W,1,12,0.6,14.8,M,-39.7,M,,*7B,1764018267480
NMEA,$GPGSV,3,1,10,01,04,165,19,02,28,143,32,04,14,188,28,07,59,307,34*78,1764018268482
NMEA,$GPGSV,3,2,10,08,78,071,34,09,31,223,33,14,06,271,13,16,21,071,17*76,1764018268483
NMEA,$GPGSV,3,3,10,27,44,049,26,30,30,309,14*7B,1764018268484
NMEA,$GLGSV,3,1,09,73,43,071,31,75,17,299,22,65,18,314,20,84,00,000,34*6A,1764018268484
NMEA,$GLGSV,3,2,09,83,40,053,35,85,10,175,16,72,25,258,35,82,02,018,*60,1764018268484
NMEA,$GLGSV,3,3,09,71,04,212,*5F,1764018268485
NMEA,$GAGSV,3,1,09,02,26,067,18,07,45,233,34,08,16,181,24,14,00,000,37*6E,1764018268485
NMEA,$GAGSV,3,2,09,27,38,275,27,29,30,302,23,30,71,007,32,34,26,111,26*66,1764018268485
NMEA,$GAGSV,3,3,09,36,20,056,13*57,1764018268485
NMEA,$PQGSV,1,1,0,*73,1764018268487
NMEA,$PQGSV,1,1,0,*73,1764018268489
NMEA,$GNGSA,A,3,02,04,07,08,09,16,27,,,,,,1.0,0.6,0.8,1*3C,1764018268491
NMEA,$GNGSA,A,3,72,73,75,83,85,,,,,,,,1.0,0.6,0.8,2*38,1764018268492
NMEA,$GNGSA,A,3,02,04,07,08,27,29,30,,,,,,1.0,0.6,0.8,3*38,1764018268492
NMEA,$GNVTG,,T,,M,0.0,N,0.0,K,A*3D,1764018268492
NMEA,$GNRMC,210426.00,A,3956.986273,N,07510.290987,W,0.0,,241125,9.6,W,A*0E,1764018268493
NMEA,$GNGGA,210426.00,3956.986273,N,07510.290987,W,1,12,0.6,15.3,M,-39.7,M,,*77,1764018268493
NMEA,$GPGSV,3,1,10,01,04,165,19,02,28,143,32,04,14,188,28,07,59,307,36*7A,1764018269467
NMEA,$GPGSV,3,2,10,08,78,071,27,09,31,223,33,16,21,071,17,27,44,049,33*79,1764018269467
NMEA,$GPGSV,3,3,10,30,30,309,14,14,06,271,*70,1764018269468
NMEA,$GLGSV,3,1,09,73,43,071,27,75,17,299,21,65,18,314,20,84,00,000,33*69,1764018269468
NMEA,$GLGSV,3,2,09,83,40,053,33,85,10,175,16,72,25,258,35,82,02,018,*66,1764018269468
NMEA,$GLGSV,3,3,09,71,04,212,*5F,1764018269468
NMEA,$GAGSV,3,1,09,02,26,067,22,07,45,233,31,08,16,181,22,14,00,000,36*65,1764018269468
NMEA,$GAGSV,3,2,09,27,38,275,29,29,30,302,22,30,71,007,31,34,26,111,27*6B,1764018269468
NMEA,$GAGSV,3,3,09,36,20,056,13*57,1764018269469
NMEA,$PQGSV,1,1,0,*73,1764018269469
NMEA,$PQGSV,1,1,0,*73,1764018269469
NMEA,$GNGSA,A,3,02,04,07,08,09,16,27,,,,,,1.0,0.6,0.8,1*3C,1764018269471
NMEA,$GNGSA,A,3,72,73,75,83,85,,,,,,,,1.0,0.6,0.8,2*38,1764018269471
NMEA,$GNGSA,A,3,02,04,07,08,27,29,30,,,,,,1.0,0.6,0.8,3*38,1764018269472
NMEA,$GNVTG,,T,,M,0.0,N,0.0,K,A*3D,1764018269472
NMEA,$GNRMC,210427.00,A,3956.986343,N,07510.290799,W,0.0,,241125,9.6,W,A*0C,1764018269472
NMEA,$GNGGA,210427.00,3956.986343,N,07510.290799,W,1,12,0.6,14.3,M,-39.7,M,,*74,1764018269472
NMEA,$GPGSV,3,1,10,02,28,143,33,04,14,188,30,07,59,307,33,08,78,071,30*7A,1764018270468
NMEA,$GPGSV,3,2,10,09,31,223,33,16,21,071,21,27,44,049,32,30,30,309,14*76,1764018270468
NMEA,$GPGSV,3,3,10,01,04,165,,14,06,271,*78,1764018270468
NMEA,$GLGSV,3,1,10,74,00,000,24,73,43,071,25,75,17,299,22,65,18,314,20*69,1764018270468
NMEA,$GLGSV,3,2,10,84,00,000,34,83,40,053,32,85,10,175,16,72,25,258,34*64,1764018270468
NMEA,$GLGSV,3,3,10,82,02,018,,71,04,212,*66,1764018270469
NMEA,$GAGSV,3,1,09,02,26,067,22,07,45,233,33,08,16,181,21,14,00,000,36*64,1764018270469
NMEA,$GAGSV,3,2,09,27,38,275,28,29,30,302,22,30,71,007,31,34,26,111,25*68,1764018270469
NMEA,$GAGSV,3,3,09,36,20,056,13*57,1764018270469
NMEA,$PQGSV,1,1,0,*73,1764018270469
NMEA,$PQGSV,1,1,0,*73,1764018270470
NMEA,$GNGSA,A,3,02,04,07,08,09,16,27,30,,,,,0.9,0.6,0.8,1*37,1764018270472
NMEA,$GNGSA,A,3,72,73,75,83,85,,,,,,,,0.9,0.6,0.8,2*30,1764018270472
NMEA,$GNGSA,A,3,02,04,07,08,27,29,30,,,,,,0.9,0.6,0.8,3*30,1764018270472
NMEA,$GNVTG,,T,,M,0.0,N,0.0,K,A*3D,1764018270473
NMEA,$GNRMC,210428.00,A,3956.986402,N,07510.290472,W,0.0,,241125,9.6,W,A*07,1764018270473
NMEA,$GNGGA,210428.00,3956.986402,N,07510.290472,W,1,12,0.6,13.9,M,-39.7,M,,*72,1764018270473
NMEA,$GPGSV,3,1,10,02,28,143,32,04,14,188,31,07,59,307,35,08,78,071,33*7F,1764018271467
NMEA,$GPGSV,3,2,10,09,31,223,35,16,21,071,24,27,44,049,27,30,30,309,14*71,1764018271467
NMEA,$GPGSV,3,3,10,01,04,165,,14,06,271,*78,1764018271467
NMEA,$GLGSV,3,1,10,74,00,000,24,73,43,071,26,75,17,299,24,65,18,314,15*6A,1764018271467
NMEA,$GLGSV,3,2,10,84,00,000,35,83,40,053,32,85,10,175,16,72,25,258,34*65,1764018271467
NMEA,$GLGSV,3,3,10,82,02,018,,71,04,212,*66,1764018271467
NMEA,$GAGSV,3,1,09,02,26,067,22,07,45,233,33,08,16,181,23,14,00,000,38*68,1764018271467
NMEA,$GAGSV,3,2,09,27,38,275,27,29,30,302,21,30,71,007,32,34,26,111,26*64,1764018271467
NMEA,$GAGSV,3,3,09,36,20,056,13*57,1764018271468
NMEA,$PQGSV,1,1,0,*73,1764018271468
NMEA,$PQGSV,1,1,0,*73,1764018271468
NMEA,$GNGSA,A,3,02,04,07,08,09,16,27,30,,,,,0.9,0.6,0.8,1*37,1764018271469
NMEA,$GNGSA,A,3,72,73,75,83,85,,,,,,,,0.9,0.6,0.8,2*30,1764018271470
NMEA,$GNGSA,A,3,02,04,07,08,27,29,30,,,,,,0.9,0.6,0.8,3*30,1764018271472
NMEA,$GNVTG,,T,,M,0.0,N,0.0,K,A*3D,1764018271472
NMEA,$GNRMC,210429.00,A,3956.986643,N,07510.290142,W,0.0,,241125,9.6,W,A*07,1764018271472
NMEA,$GNGGA,210429.00,3956.986643,N,07510.290142,W,1,12,0.6,13.1,M,-39.7,M,,*7A,1764018271472
NMEA,$GPGSV,3,1,10,02,28,143,33,04,14,188,32,07,59,307,35,08,78,071,32*7C,1764018272468
NMEA,$GPGSV,3,2,10,09,31,223,36,14,06,271,16,16,21,071,20,27,44,049,25*7B,1764018272469
NMEA,$GPGSV,3,3,10,30,30,309,14,01,04,165,*70,1764018272469
NMEA,$GLGSV,3,1,10,74,00,000,24,73,43,071,32,75,17,299,26,65,18,314,15*6D,1764018272469
NMEA,$GLGSV,3,2,10,84,00,000,34,83,40,053,34,85,10,175,20,72,25,258,34*67,1764018272469
NMEA,$GLGSV,3,3,10,82,02,018,,71,04,212,*66,1764018272469
NMEA,$GAGSV,3,1,09,02,26,067,17,07,45,233,35,08,16,181,23,14,00,000,38*68,1764018272469
NMEA,$GAGSV,3,2,09,27,38,275,27,29,30,302,20,30,71,007,31,34,26,111,24*64,1764018272470
NMEA,$GAGSV,3,3,09,36,20,056,13*57,1764018272470
NMEA,$PQGSV,1,1,0,*73,1764018272470
NMEA,$PQGSV,1,1,0,*73,1764018272470
NMEA,$GNGSA,A,3,02,04,07,08,09,16,27,30,,,,,0.9,0.6,0.8,1*37,1764018272472
NMEA,$GNGSA,A,3,72,73,75,83,85,,,,,,,,0.9,0.6,0.8,2*30,1764018272472
NMEA,$GNGSA,A,3,02,04,07,08,27,29,30,,,,,,0.9,0.6,0.8,3*30,1764018272472
NMEA,$GNVTG,,T,,M,0.0,N,0.0,K,A*3D,1764018272472
NMEA,$GNRMC,210430.00,A,3956.986858,N,07510.289897,W,0.0,,241125,9.6,W,A*02,1764018272472
NMEA,$GNGGA,210430.00,3956.986858,N,07510.289897,W,1,12,0.6,12.6,M,-39.7,M,,*79,1764018272472
NMEA,$GPGSV,3,1,10,02,28,143,32,04,14,188,30,07,59,307,33,08,78,071,31*7A,1764018273467
NMEA,$GPGSV,3,2,10,09,31,223,37,14,06,271,16,16,21,071,20,27,44,049,29*76,1764018273468
NMEA,$GPGSV,3,3,10,30,30,309,15,01,04,165,*71,1764018273468
NMEA,$GLGSV,3,1,10,74,00,000,24,73,43,071,31,75,17,299,23,65,18,314,15*6B,1764018273468
NMEA,$GLGSV,3,2,10,84,00,000,33,83,40,053,32,85,10,175,19,72,25,258,33*6B,1764018273468
NMEA,$GLGSV,3,3,10,82,02,018,,71,04,212,*66,1764018273468
NMEA,$GAGSV,3,1,09,02,26,067,18,07,45,233,36,08,16,181,22,14,00,000,36*6B,1764018273468
NMEA,$GAGSV,3,2,09,27,38,275,25,29,30,302,19,30,71,007,29,34,26,111,22*63,1764018273468
NMEA,$GAGSV,3,3,09,36,20,056,13*57,1764018273468
NMEA,$PQGSV,1,1,0,*73,1764018273469
NMEA,$PQGSV,1,1,0,*73,1764018273469
NMEA,$GNGSA,A,3,02,04,07,08,09,16,27,30,,,,,0.9,0.6,0.8,1*37,1764018273471
NMEA,$GNGSA,A,3,72,73,75,83,85,,,,,,,,0.9,0.6,0.8,2*30,1764018273471
NMEA,$GNGSA,A,3,02,04,07,08,27,29,30,,,,,,0.9,0.6,0.8,3*30,1764018273471
NMEA,$GNVTG,,T,,M,0.0,N,0.0,K,A*3D,1764018273471
NMEA,$GNRMC,210431.00,A,3956.987114,N,07510.289625,W,0.0,,241125,9.6,W,A*04,1764018273472
NMEA,$GNGGA,210431.00,3956.987114,N,07510.289625,W,1,12,0.6,12.2,M,-39.7,M,,*7B,1764018273472
NMEA,$GPGSV,3,1,10,02,28,143,38,04,14,188,32,07,59,307,27,08,78,071,34*72,1764018274472
NMEA,$GPGSV,3,2,10,09,31,223,37,14,06,271,16,16,21,071,20,27,44,049,28*77,1764018274472
NMEA,$GPGSV,3,3,10,30,30,309,20,01,04,165,*77,1764018274473
NMEA,$GLGSV,3,1,10,74,00,000,24,73,43,071,31,75,17,299,22,65,18,314,15*6A,1764018274473
NMEA,$GLGSV,3,2,10,84,00,000,40,83,40,053,32,85,10,175,18,72,25,258,29*65,1764018274473
NMEA,$GLGSV,3,3,10,82,02,018,,71,04,212,*66,1764018274473
NMEA,$GAGSV,3,1,09,02,26,067,24,07,45,233,36,08,16,181,22,14,00,000,35*67,1764018274474
NMEA,$GAGSV,3,2,09,27,38,275,26,29,30,302,19,30,71,007,29,34,26,111,21*63,1764018274474
NMEA,$GAGSV,3,3,09,36,20,056,13*57,1764018274474
NMEA,$PQGSV,1,1,0,*73,1764018274475
NMEA,$PQGSV,1,1,0,*73,1764018274475
NMEA,$GNGSA,A,3,02,04,07,08,09,16,27,30,,,,,1.0,0.6,0.8,1*3F,1764018274478
NMEA,$GNGSA,A,3,72,73,75,83,,,,,,,,,1.0,0.6,0.8,2*35,1764018274479
NMEA,$GNGSA,A,3,02,07,08,27,29,30,,,,,,,1.0,0.6,0.8,3*3C,1764018274480
NMEA,$GNVTG,,T,,M,0.0,N,0.0,K,A*3D,1764018274481
NMEA,$GNRMC,210432.00,A,3956.987207,N,07510.289633,W,0.0,,241125,9.6,W,A*01,1764018274481
NMEA,$GNGGA,210432.00,3956.987207,N,07510.289633,W,1,12,0.6,12.1,M,-39.7,M,,*7D,1764018274481
NMEA,$GPGSV,3,1,10,02,28,143,38,04,14,188,32,07,59,307,28,08,78,071,34*7D,1764018275476
NMEA,$GPGSV,3,2,10,09,31,223,38,16,21,071,20,27,44,049,26,30,30,309,19*74,1764018275476
NMEA,$GPGSV,3,3,10,01,04,165,,14,06,271,*78,1764018275477
NMEA,$GLGSV,3,1,10,74,00,000,24,73,43,071,26,75,17,299,24,65,18,314,15*6A,1764018275477
NMEA,$GLGSV,3,2,10,84,00,000,40,83,40,053,32,85,10,175,16,72,25,258,30*63,1764018275478
NMEA,$GLGSV,3,3,10,82,02,018,,71,04,212,*66,1764018275478
NMEA,$GAGSV,3,1,09,02,26,067,22,07,45,233,37,08,16,181,23,14,00,000,35*61,1764018275478
NMEA,$GAGSV,3,2,09,27,38,275,27,29,30,302,19,30,71,007,30,34,26,111,23*68,1764018275479
NMEA,$GAGSV,3,3,09,36,20,056,13*57,1764018275483
NMEA,$PQGSV,1,1,0,*73,1764018275485
NMEA,$PQGSV,1,1,0,*73,1764018275485
NMEA,$GNGSA,A,3,02,07,08,09,16,27,30,,,,,,1.0,0.7,0.8,1*3A,1764018275488
NMEA,$GNGSA,A,3,72,73,75,83,,,,,,,,,1.0,0.7,0.8,2*34,1764018275489
NMEA,$GNGSA,A,3,02,07,08,27,29,30,,,,,,,1.0,0.7,0.8,3*3D,1764018275489
NMEA,$GNVTG,,T,,M,0.0,N,0.0,K,A*3D,1764018275489
NMEA,$GNRMC,210433.00,A,3956.987581,N,07510.290032,W,0.0,,241125,9.6,W,A*06,1764018275490
NMEA,$GNGGA,210433.00,3956.987581,N,07510.290032,W,1,12,0.7,12.3,M,-39.7,M,,*79,1764018275490
NMEA,$GPGSV,3,1,10,02,28,143,38,04,14,188,32,07,59,307,27,08,78,071,33*75,1764018276466
NMEA,$GPGSV,3,2,10,09,31,223,38,16,21,071,20,27,44,049,28,30,30,309,19*7A,1764018276467
NMEA,$GPGSV,3,3,10,01,04,165,,14,06,271,*78,1764018276467
NMEA,$GLGSV,3,1,10,74,00,000,22,73,43,071,33,75,17,299,25,65,18,314,14*68,1764018276467
NMEA,$GLGSV,3,2,10,84,00,000,39,83,40,053,32,85,10,175,16,72,25,258,31*6C,1764018276467
NMEA,$GLGSV,3,3,10,82,02,018,,71,04,212,*66,1764018276468
NMEA,$GAGSV,3,1,09,02,26,067,23,07,45,233,37,08,16,181,23,14,00,000,34*61,1764018276468
NMEA,$GAGSV,3,2,09,27,38,275,26,29,30,302,19,30,71,007,30,34,26,111,22*68,1764018276468
NMEA,$GAGSV,3,3,09,36,20,056,13*57,1764018276469
NMEA,$PQGSV,1,1,0,*73,1764018276471
NMEA,$PQGSV,1,1,0,*73,1764018276471
NMEA,$GNGSA,A,3,02,07,08,09,16,27,,,,,,,1.1,0.7,0.8,1*38,1764018276477
NMEA,$GNGSA,A,3,72,73,75,83,,,,,,,,,1.1,0.7,0.8,2*35,1764018276477
NMEA,$GNGSA,A,3,02,07,08,27,29,30,,,,,,,1.1,0.7,0.8,3*3C,1764018276478
NMEA,$GNVTG,,T,,M,0.0,N,0.0,K,A*3D,1764018276478
NMEA,$GNRMC,210434.00,A,3956.987798,N,07510.290214,W,0.0,,241125,9.6,W,A*0D,1764018276478
NMEA,$GNGGA,210434.00,3956.987798,N,07510.290214,W,1,12,0.7,12.2,M,-39.7,M,,*73,1764018276479
NMEA,$GPGSV,3,1,10,02,28,143,38,04,14,188,27,07,59,307,20,08,78,071,24*70,1764018277466
NMEA,$GPGSV,3,2,10,09,31,223,38,16,21,071,23,27,44,049,32,30,30,309,19*72,1764018277467
NMEA,$GPGSV,3,3,10,01,04,165,,14,06,271,*78,1764018277467
NMEA,$GLGSV,3,1,10,74,00,000,23,73,43,071,33,75,17,299,24,65,18,314,14*68,1764018277467
NMEA,$GLGSV,3,2,10,84,00,000,35,83,40,053,34,85,10,175,16,72,25,258,34*63,1764018277467
NMEA,$GLGSV,3,3,10,82,02,018,,71,04,212,*66,1764018277467
NMEA,$GAGSV,3,1,09,02,26,067,24,07,45,233,39,08,16,181,22,14,00,000,36*6B,1764018277467
NMEA,$GAGSV,3,2,09,27,38,275,22,29,30,302,19,30,71,007,27,34,26,111,20*68,1764018277467
NMEA,$GAGSV,3,3,09,36,20,056,*55,1764018277468
NMEA,$PQGSV,1,1,0,*73,1764018277468
NMEA,$PQGSV,1,1,0,*73,1764018277468
NMEA,$GNGSA,A,3,02,04,07,08,09,16,27,,,,,,1.1,0.7,0.8,1*3C,1764018277469
NMEA,$GNGSA,A,3,72,73,75,83,,,,,,,,,1.1,0.7,0.8,2*35,1764018277470
NMEA,$GNGSA,A,3,02,07,08,27,30,,,,,,,,1.1,0.7,0.8,3*37,1764018277470
NMEA,$GNVTG,,T,,M,0.0,N,0.0,K,A*3D,1764018277470
NMEA,$GNRMC,210435.00,A,3956.987937,N,07510.290284,W,0.0,,241125,9.6,W,A*0E,1764018277470
NMEA,$GNGGA,210435.00,3956.987937,N,07510.290284,W,1,12,0.7,12.1,M,-39.7,M,,*73,1764018277470
NMEA,$GPGSV,3,1,10,02,28,143,39,04,14,188,28,07,59,307,20,08,78,071,20*7A,1764018278465
NMEA,$GPGSV,3,2,10,09,31,223,37,16,21,071,23,27,44,049,32,30,30,309,19*7D,1764018278466
NMEA,$GPGSV,3,3,10,01,04,165,,14,06,271,*78,1764018278466
NMEA,$GLGSV,3,1,10,74,00,000,26,73,43,071,34,75,17,299,25,65,18,314,15*6A,1764018278466
NMEA,$GLGSV,3,2,10,84,00,000,37,83,40,053,34,85,10,175,16,72,25,258,35*60,1764018278466
NMEA,$GLGSV,3,3,10,82,02,018,,71,04,212,*66,1764018278468
NMEA,$GAGSV,3,1,09,02,26,067,24,07,45,233,40,08,16,181,21,14,00,000,35*65,1764018278469
NMEA,$GAGSV,3,2,09,27,38,275,21,29,30,302,19,30,71,007,29,34,26,111,19*6F,1764018278469
NMEA,$GAGSV,3,3,09,36,20,056,*55,1764018278469
NMEA,$PQGSV,1,1,0,*73,1764018278469
NMEA,$PQGSV,1,1,0,*73,1764018278469
NMEA,$GNGSA,A,3,02,04,07,08,09,16,27,,,,,,1.1,0.7,0.8,1*3C,1764018278471
NMEA,$GNGSA,A,3,72,73,75,83,,,,,,,,,1.1,0.7,0.8,2*35,1764018278471
NMEA,$GNGSA,A,3,02,07,08,27,30,,,,,,,,1.1,0.7,0.8,3*37,1764018278471
NMEA,$GNVTG,,T,,M,0.0,N,0.0,K,A*3D,1764018278471
NMEA,$GNRMC,210436.00,A,3956.988031,N,07510.290345,W,0.0,,241125,9.6,W,A*01,1764018278471
NMEA,$GNGGA,210436.00,3956.988031,N,07510.290345,W,1,12,0.7,11.9,M,-39.7,M,,*77,1764018278471
