     3.05           OBSERVATION DATA    M                   RINEX VERSION / TYPE
GnssLogger          Google 10           20251124 210401 UTC PGM / RUN BY / DATE
Google GnssLogger                                           MARKER NAME
Unknown                                                     MARKER NUMBER
Unknown             Unknown                                 OBSERVER / AGENCY
Unknown             GnssLogger          v3.1.1.1            REC # / TYPE / VERS
Unknown             Unknown                                 ANT # / TYPE
        0.0000        0.0000        0.0000                  ANTENNA: DELTA H/E/N
G    3 C1C D1C S1C                                          SYS / # / OBS TYPES
R    3 C1C D1C S1C                                          SYS / # / OBS TYPES
E    3 C1C D1C S1C                                          SYS / # / OBS TYPES
  2025    11    24    21    04   01.0000000     GLONASS     TIME OF FIRST OBS
 8 R01  1 R07  5 R08  6 R09 -2 R11  0 R19  3 R20  2 R21  4  GLONASS SLOT / FRQ #
Google Pixel 2 XL (Android 10) HW Year: 2017 HW Model: null COMMENT
                                                            END OF HEADER
> 2025 11 24 21 04 01.4406457  0 16                      
R09  20557400.907 3     -1551.650 3        22.400 3
R11  22821008.744 3      2899.650 3        23.400 3
R01  22683062.842 3       678.500 3        17.900 3
R19  20891691.383 5     -1314.981 5        30.100 5
R21  23585636.004 3      4586.550 3        20.100 3
R07  24021396.633 2     -4071.550 2        13.600 2
R08  22064924.071 4     -2595.320 4        25.900 4
G01  25037823.775 3      3387.700 3        21.300 3
G02  22619133.599 5      2837.465 5        32.400 5
G04  24151054.173 3     -3652.400 3        21.600 3
G07  21305757.531 4      1952.083 4        28.600 4
G08  19877431.140 5      -637.816 5        31.200 5
G09  22344527.005 5     -2769.853 5        33.900 5
G16  23418695.374 4     -2917.050 4        25.800 4
G27  21416328.784 6     -2651.274 6        35.500 6
G30  22906016.095 2      3032.200 2        16.400 2
> 2025 11 24 21 04 02.4406457  0 16                      
R09  20557570.290 4     -1542.350 4        25.900 4
R11  22820447.832 3      2911.050 3        22.400 3
R01  22682935.730 3       678.500 3        17.900 3
R19  20891934.814 4     -1304.236 4        28.300 4
R21  23584685.362 3      4595.100 3        18.600 3
R07  24022147.313 2     -4072.600 2        13.700 2
R08  22065404.338 4     -2584.170 4        28.400 4
G01  25037192.112 3      3399.100 3        20.900 3
G02  22618583.780 5      2848.662 5        30.400 5
G04  24151751.790 3     -3646.700 3        20.900 3
G07  21305397.480 4      1963.233 4        28.100 4
G08  19877533.969 5      -627.020 5        30.100 5
G09  22345042.349 5     -2758.676 5        33.500 5
G16  23419586.657 3     -2926.450 3        19.000 3
G27  21416830.936 5     -2640.105 5        35.100 5
G30  22905438.994 2      3032.200 2        16.400 2
> 2025 11 24 21 04 03.4406457  0 16                      
R09  20557917.449 4     -1535.734 4        28.100 4
R11  22819916.000 3      2913.050 3        19.100 3
R01  22682938.128 2       680.000 2        14.600 2
R19  20892186.040 4     -1298.573 4        28.700 4
R21  23583844.744 3      4604.900 3        21.200 3
R07  24022906.987 2     -4073.050 2        13.700 2
R08  22065871.115 4     -2578.279 4        27.900 4
G01  25036573.041 3      3402.650 3        22.300 3
G02  22618021.669 5      2854.520 5        30.600 5
G04  24152452.105 3     -3636.500 3        21.700 3
G07  21305024.238 4      1969.323 4        27.500 4
G08  19877651.188 5      -621.176 5        31.100 5
G09  22345564.587 5     -2752.668 5        32.600 5
G16  23420143.372 3     -2926.450 3        19.000 3
G27  21417329.791 5     -2634.317 5        34.100 5
G30  22904861.894 2      3032.200 2        16.400 2
> 2025 11 24 21 04 04.4406457  0 16                      
R09  20558217.842 5     -1524.941 5        31.200 5
R11  22819412.349 3      2931.500 3        19.100 3
R01  22682811.016 2       680.000 2        14.600 2
R19  20892417.180 4     -1288.394 4        28.000 4
R21  23582994.532 3      4615.250 3        21.000 3
R07  24023668.160 2     -4072.850 2        13.700 2
R08  22066346.586 4     -2567.616 4        27.000 4
G01  25035956.967 3      3414.900 3        20.000 3
G02  22617466.154 5      2865.139 5        30.900 5
G04  24153108.351 3     -3624.200 3        20.400 3
G07  21304645.600 5      1979.797 5        29.500 5
G08  19877755.516 5      -610.969 5        30.400 5
G09  22346076.633 5     -2742.244 5        31.700 5
G16  23420630.235 3     -2907.750 3        18.600 3
G27  21417831.943 5     -2623.780 5        33.800 5
G30  22904414.903 2      3049.500 2        15.700 2
> 2025 11 24 21 04 05.4406457  0 16                      
R09  20558488.854 4     -1516.228 4        29.100 4
R11  22818826.854 2      2935.800 2        16.100 2
R01  22682683.604 2       680.000 2        14.600 2
R19  20892656.415 4     -1280.132 4        28.300 4
R21  23582132.329 3      4624.250 3        21.400 3
R07  24024429.033 2     -4072.850 2        13.700 2
R08  22066801.671 4     -2558.400 4        24.100 4
G01  25035253.654 3      3427.950 3        19.800 3
G02  22616916.034 5      2873.674 5        29.800 5
G04  24153796.674 3     -3617.350 3        22.100 3
G07  21304266.063 5      1988.396 5        29.700 5
G08  19877869.437 5      -602.547 5        31.400 5
G09  22346585.081 5     -2733.654 5        30.300 5
G16  23421183.352 3     -2907.750 3        18.600 3
G27  21418325.401 5     -2615.292 5        33.500 5
G30  22903823.712 3      3060.800 3        20.900 3
> 2025 11 24 21 04 06.4406457  0 17                      
R09  20558720.593 4     -1508.400 4        24.500 4
R11  22818277.335 2      2935.800 2        16.100 2
R01  22682556.492 2       680.000 2        14.600 2
R19  20892873.464 4     -1271.768 4        28.500 4
R21  23581211.067 3      4635.650 3        22.400 3
R07  24025189.907 2     -4072.850 2        13.700 2
R08  22067288.534 4     -2550.600 4        25.900 4
G01  25034586.616 3      3432.600 3        19.100 3
G02  22616368.014 5      2882.324 5        29.700 5
G04  24154488.595 3     -3605.800 3        22.000 3
G07  21303891.622 5      1997.057 5        29.800 5
G08  19877986.056 5      -594.131 5        31.000 5
G09  22347095.028 5     -2724.945 5        30.600 5
G14  25002484.840 2      2811.600 2        16.100 2
G16  23421736.769 3     -2907.750 3        18.600 3
G27  21418816.162 5     -2606.729 5        33.700 5
G30  22903237.019 3      3066.100 3        19.600 3
> 2025 11 24 21 04 07.4406457  0 19                      
R09  20558898.370 3     -1510.350 3        21.800 3
R11  22817728.115 2      2935.800 2        16.100 2
R01  22682294.474 1       711.300 1        12.300 1
R19  20893138.781 4     -1275.404 4        28.900 4
R21  23580341.369 3      4633.150 3        20.300 3
R07  24025950.780 2     -4072.850 2        13.700 2
R08  22067781.093 4     -2553.425 4        26.500 4
G01  25033944.161 3      3431.850 3        21.400 3
G02  22615825.090 5      2880.026 5        30.900 5
G04  24155174.520 3     -3612.900 3        21.700 3
G07  21303506.089 5      1994.651 5        30.400 5
G08  19878099.078 5      -596.823 5        31.100 5
G09  22347601.677 5     -2727.434 5        29.900 5
G14  25001974.893 2      2811.800 2        16.500 2
G16  23422290.186 3     -2907.750 3        18.600 3
G27  21419303.924 5     -2609.201 5        32.700 5
G30  22902658.119 3      3066.450 3        21.700 3
E07  24687657.190 4     -1688.304 4        27.800 4
E27  25410967.953 3      1591.350 3        21.200 3
> 2025 11 24 21 04 08.4406456  0 20                      
R09  20559244.931 4     -1503.384 4        27.300 4
R11  22817527.554 2      2944.800 2        17.000 2
R01  22682161.366 1       711.300 1        12.300 1
R19  20893372.619 4     -1269.148 4        28.600 4
R21  23579524.435 3      4644.600 3        18.300 3
R07  24026711.653 2     -4072.850 2        13.700 2
R08  22068296.736 4     -2547.297 4        27.700 4
G01  25033296.009 2      3442.750 2        16.000 2
G02  22615289.061 5      2886.270 5        29.600 5
G04  24155875.735 3     -3602.650 3        20.500 3
G07  21303123.554 4      2000.697 4        29.100 4
G08  19878217.196 5      -591.021 5        29.800 5
G09  22348123.016 5     -2721.251 5        29.600 5
G14  25001440.662 2      2811.750 2        16.500 2
G16  23422843.602 3     -2907.750 3        18.600 3
G27  21419784.791 5     -2603.067 5        31.000 5
G30  22902105.602 3      3075.250 3        20.000 3
E07  24687969.574 4     -1679.100 4        27.900 4
E27  25410657.667 3      1601.450 3        21.300 3
E30  23631908.969 3      -318.300 3        22.600 3
> 2025 11 24 21 04 09.4406456  0 20                      
R09  20559607.679 5     -1497.163 5        30.100 5
R11  22816976.535 2      2944.800 2        17.000 2
R01  22682028.258 1       711.300 1        12.300 1
R19  20893637.935 5     -1263.280 5        30.700 5
R21  23578627.755 3      4642.100 3        20.700 3
R07  24027472.526 2     -4072.850 2        13.700 2
R08  22068766.510 5     -2541.359 5        29.800 5
G01  25032622.076 3      3446.100 3        20.100 3
G02  22614748.835 5      2892.165 5        31.300 5
G04  24156553.566 3     -3598.100 3        20.900 3
G07  21302743.117 5      2006.990 5        30.900 5
G08  19878329.019 5      -584.999 5        31.500 5
G09  22348664.441 5     -2715.191 5        33.500 5
G14  25000900.137 2      2813.700 2        15.700 2
G16  23423514.538 2     -2884.000 2        13.200 2
G27  21420274.952 5     -2596.991 5        31.300 5
G30  22901486.530 3      3078.450 3        20.000 3
E07  24688288.553 5     -1674.800 5        30.900 5
E27  25410349.181 3      1611.800 3        18.600 3
E30  23631940.148 5      -265.200 5        29.700 5
> 2025 11 24 21 04 10.4406456  0 20                      
R09  20559903.275 5     -1507.153 5        31.600 5
R11  22816061.269 3      2951.300 3        21.800 3
R01  22681895.150 1       711.300 1        12.300 1
R19  20893847.490 4     -1273.801 4        29.300 4
R21  23577862.385 3      4633.150 3        20.600 3
R07  24028233.400 2     -4072.850 2        13.700 2
R08  22069245.579 5     -2551.775 5        32.600 5
G01  25031981.719 3      3436.200 3        18.300 3
G02  22614156.745 5      2882.358 5        32.300 5
G04  24157205.614 3     -3608.000 3        21.400 3
G07  21302364.779 5      1997.029 5        31.400 5
G08  19878437.544 5      -595.153 5        31.000 5
G09  22349173.789 5     -2725.032 5        32.600 5
G14  25000350.917 2      2814.800 2        15.500 2
G16  23424018.489 3     -2885.450 3        20.000 3
G27  21420777.104 5     -2607.046 5        32.300 5
G30  22900906.732 3      3070.450 3        19.800 3
E07  24688610.530 5     -1683.300 5        33.200 5
E27  25409990.030 2      1595.850 2        16.900 2
E30  23631994.710 5      -273.050 5        29.600 5
> 2025 11 24 21 04 11.4406456  0 20                      
R09  20560216.258 5     -1525.616 5        31.700 5
R11  22815515.347 3      2932.300 3        23.300 3
R01  22681828.896 2       718.900 2        13.500 2
R19  20894091.221 4     -1292.350 4        27.200 4
R21  23577004.379 3      4615.150 3        22.700 3
R07  24028994.273 2     -4072.850 2        13.700 2
R08  22069724.048 5     -2570.617 5        33.400 5
G01  25031339.864 3      3415.400 3        17.800 3
G02  22613608.724 5      2864.007 5        33.600 5
G04  24157905.030 3     -3628.450 3        22.300 3
G07  21301976.548 5      1978.759 5        30.800 5
G08  19878552.964 5      -613.699 5        31.500 5
G09  22349708.918 5     -2743.474 5        32.800 5
G14  24999809.192 2      2813.450 2        15.600 2
G16  23424570.407 3     -2903.750 3        21.000 3
G27  21421269.963 5     -2625.342 5        31.400 5
G30  22900356.013 3      3053.400 3        19.300 3
E07  24688927.711 5     -1700.300 5        34.000 5
E27  25409680.044 3      1575.050 3        19.100 3
E30  23632043.876 4      -291.600 4        29.000 4
> 2025 11 24 21 04 12.4406456  0 20                      
R09  20560531.640 4     -1509.450 4        24.600 4
R11  22814921.758 3      2950.700 3        22.700 3
R01  22681694.289 2       718.900 2        13.500 2
R19  20894284.288 4     -1273.400 4        26.000 4
R21  23576152.969 3      4635.600 3        21.800 3
R07  24029754.846 2     -4072.850 2        13.700 2
R08  22070203.716 5     -2553.545 5        33.200 5
G01  25030657.536 3      3435.850 3        20.100 3
G02  22613048.112 5      2881.073 5        30.600 5
G04  24158544.787 3     -3609.450 3        20.700 3
G07  21301585.319 5      1995.536 5        29.800 5
G08  19878664.786 5      -597.427 5        30.700 5
G09  22350236.553 5     -2726.458 5        33.000 5
G14  24999260.871 2      2812.700 2        15.400 2
G16  23425133.417 3     -2881.950 3        21.100 3
G27  21421762.822 5     -2608.661 5        30.700 5
G30  22899769.919 3      3075.400 3        19.500 3
E07  24689253.885 5     -1684.700 5        30.700 5
E27  25409380.252 3      1575.050 3        19.100 3
E30  23632101.136 4      -273.050 4        28.200 4
> 2025 11 24 21 04 13.4406457  0 21                      
R09  20560595.196 4     -1501.150 4        23.700 4
R11  22814308.682 4      2951.850 4        24.500 4
R01  22681559.982 2       718.900 2        13.500 2
R19  20894587.078 4     -1271.113 4        25.000 4
R21  23575246.996 3      4640.800 3        21.700 3
R07  24030515.720 2     -4072.850 2        13.700 2
R08  22070680.685 5     -2548.007 5        34.800 5
G01  25029986.600 2      3438.800 2        17.000 2
G02  22612527.972 5      2886.796 5        32.800 5
G04  24159265.488 4     -3603.250 4        23.500 4
G07  21301209.379 5      2001.366 5        30.500 5
G08  19878766.716 5      -591.673 5        30.300 5
G09  22350757.892 5     -2720.741 5        33.800 5
G14  24998746.428 2      2813.900 2        15.400 2
G16  23425673.343 3     -2878.800 3        21.700 3
G27  21422255.081 5     -2602.810 5        31.100 5
G30  22899173.931 3      3075.700 3        21.700 3
E02  26154440.357 2     -1919.350 2        14.600 2
E07  24689570.166 5     -1677.300 5        32.300 5
E27  25409046.583 3      1599.750 3        19.600 3
E30  23632154.499 5      -267.550 5        31.000 5
> 2025 11 24 21 04 14.4406457  0 21                      
R09  20561002.913 4     -1523.650 4        28.500 4
R11  22813776.551 4      2940.700 4        24.000 4
R01  22681425.376 2       718.900 2        13.500 2
R19  20894813.121 4     -1286.645 4        25.500 4
R21  23574350.017 3      4626.000 3        19.800 3
R07  24031276.593 2     -4072.850 2        13.700 2
R08  22071164.850 5     -2563.350 5        34.900 5
G01  25029316.864 3      3432.250 3        17.500 3
G02  22611993.742 5      2871.836 5        31.500 5
G04  24159957.109 3     -3614.200 3        23.100 3
G07  21300808.557 5      1986.457 5        30.100 5
G08  19878876.740 4      -606.622 4        28.900 4
G09  22351272.336 5     -2735.665 5        33.600 5
G14  24998202.004 2      2813.350 2        15.400 2
G16  23426216.867 3     -2894.700 3        22.000 3
G27  21422755.734 5     -2617.773 5        31.600 5
G30  22898596.231 3      3059.950 3        22.600 3
E02  26154802.207 2     -1920.350 2        15.600 2
E07  24689889.745 5     -1694.150 5        29.600 5
E27  25408739.295 3      1592.200 3        20.300 3
E30  23632201.267 5      -282.550 5        30.200 5
> 2025 11 24 21 04 15.4406457  0 21                      
R09  20561324.291 5     -1526.386 5        32.400 5
R11  22813299.281 4      2930.571 4        25.200 4
R01  22681458.952 2       721.950 2        13.700 2
R19  20895073.641 4     -1294.465 4        27.400 4
R21  23573581.649 3      4620.500 3        19.200 3
R07  24031870.482 1     -4046.700 1        10.800 1
R08  22071642.120 5     -2572.254 5        34.500 5
G01  25028657.620 3      3420.900 3        18.100 3
G02  22611451.717 5      2863.512 5        32.800 5
G04  24160669.416 4     -3622.850 4        24.200 4
G07  21300428.120 4      1977.887 4        29.000 4
G08  19878977.470 4      -615.676 4        28.000 4
G09  22351795.773 5     -2744.166 5        33.700 5
G14  24997654.883 2      2812.300 2        15.000 2
G16  23426736.108 3     -2902.200 3        23.400 3
G27  21423262.384 5     -2626.364 5        31.900 5
G30  22898007.139 4      3054.750 4        24.300 4
E02  26155167.654 2     -1919.350 2        16.200 2
E07  24690205.426 5     -1702.550 5        30.500 5
E27  25408444.000 3      1579.050 3        19.500 3
E30  23632255.530 5      -291.350 5        29.700 5
> 2025 11 24 21 04 16.4406457  0 21                      
R09  20561628.580 5     -1545.055 5        33.800 5
R11  22812718.283 4      2912.600 4        23.600 4
R01  22681268.584 3       670.400 3        18.300 3
R19  20895296.687 4     -1314.406 4        25.100 4
R21  23572718.246 3      4620.500 3        19.200 3
R07  24032626.558 1     -4046.700 1        10.800 1
R08  22072132.280 5     -2591.433 5        34.400 5
G01  25027986.685 3      3407.650 3        18.900 3
G02  22610919.286 5      2844.910 5        34.000 5
G04  24161325.662 4     -3643.250 4        24.800 4
G07  21300038.090 4      1959.466 4        28.500 4
G08  19879085.395 4      -634.117 4        27.600 4
G09  22352311.416 5     -2762.680 5        34.200 5
G16  23427272.436 3     -2920.850 3        23.200 3
G27  21423761.838 5     -2645.031 5        31.400 5
G30  22897412.051 4      3040.150 4        24.000 4
E02  26155531.302 2     -1919.850 2        16.600 2
E07  24690521.707 5     -1720.550 5        30.800 5
E27  25408131.316 3      1560.500 3        20.900 3
E30  23632310.392 5      -310.400 5        29.600 5
E34  26303126.924 2      2275.100 2        14.500 2
> 2025 11 24 21 04 17.4406457  0 21                      
R09  20561897.194 5     -1544.110 5        33.800 5
R11  22812155.573 3      2915.800 3        21.100 3
R01  22681143.271 3       670.400 3        18.300 3
R19  20895485.856 3     -1313.850 3        21.200 3
R21  23571854.844 3      4620.500 3        19.200 3
R07  24033382.335 1     -4046.700 1        10.800 1
R08  22072612.848 5     -2590.658 5        34.600 5
G01  25027359.519 3      3404.050 3        18.400 3
G02  22610388.054 5      2845.965 5        34.100 5
G04  24162026.876 4     -3642.450 4        24.500 4
G07  21299684.335 4      1960.361 4        28.900 4
G08  19879211.608 4      -633.751 4        28.500 4
G09  22352827.959 5     -2761.727 5        33.500 5
G16  23427799.771 3     -2921.250 3        22.200 3
G27  21424267.588 5     -2644.013 5        31.400 5
G30  22896794.778 4      3036.062 4        25.800 4
E02  26155907.841 2     -1929.050 2        16.500 2
E07  24690840.386 4     -1719.600 4        29.000 4
E27  25407846.813 3      1559.100 3        21.700 3
E30  23632367.652 5      -315.293 5        30.500 5
E34  26302673.038 2      2295.600 2        15.300 2
> 2025 11 24 21 04 18.4406457  0 22                      
R09  20562171.504 4     -1549.789 4        28.500 4
R11  22811618.944 3      2906.450 3        20.300 3
R01  22681017.958 3       670.400 3        18.300 3
R19  20895727.488 4     -1319.450 4        23.800 4
R21  23570705.740 2      4595.250 2        16.200 2
R07  24034138.412 1     -4046.700 1        10.800 1
R08  22073097.013 5     -2596.694 5        33.500 5
G01  25026716.464 2      3398.600 2        17.300 2
G02  22609848.127 5      2840.267 5        35.300 5
G04  24162707.705 4     -3646.717 4        26.000 4
G07  21299314.691 4      1954.713 4        29.200 4
G08  19879327.028 4      -639.465 4        26.000 4
G09  22353360.390 5     -2767.388 5        33.600 5
G16  23428369.977 3     -2922.150 3        22.600 3
G27  21424780.832 5     -2649.831 5        31.600 5
G30  22896216.479 4      3030.483 4        26.100 4
E02  26156283.781 2     -1928.100 2        16.400 2
E07  24691162.663 4     -1724.600 4        28.700 4
E27  25407565.008 3      1557.750 3        21.100 3
E29  25835720.203 2      1026.150 2        13.900 2
E30  23632422.514 5      -312.900 5        30.400 5
E34  26302239.238 2      2297.650 2        14.700 2
> 2025 11 24 21 04 19.4406457  0 23                      
R09  20562342.986 3     -1536.600 3        21.600 3
R11  22811059.232 3      2928.950 3        18.900 3
R01  22680718.465 2       672.300 2        13.500 2
R20  20423242.283 5      2765.474 5        32.500 5
R19  20896028.780 4     -1306.160 4        25.200 4
R21  23569943.068 3      4618.250 3        19.900 3
R07  24034894.189 1     -4046.700 1        10.800 1
R08  22073588.972 5     -2578.947 5        32.000 5
G01  25026098.592 3      3425.900 3        18.700 3
G02  22609296.809 5      2858.076 5        33.000 5
G04  24163386.735 4     -3628.657 4        25.000 4
G07  21298978.923 4      1972.210 4        28.300 4
G08  19879485.618 3      -625.500 3        23.100 3
G09  22353877.532 5     -2749.780 5        32.200 5
G16  23428893.414 3     -2900.600 3        21.800 3
G27  21425300.673 5     -2632.286 5        31.700 5
G30  22895627.087 4      3053.200 4        26.900 4
E02  26156653.725 2     -1924.050 2        16.500 2
E07  24691491.236 4     -1713.150 4        24.400 4
E27  25407266.715 3      1562.200 3        18.800 3
E29  25835526.537 2      1023.650 2        13.800 2
E30  23632482.173 4      -296.150 4        27.800 4
E34  26301585.691 3      2301.250 3        21.100 3
> 2025 11 24 21 04 20.4406464  0 23                      
R09  20562996.598 4     -1522.363 4        28.900 4
R11  22810808.071 3      2936.050 3        22.800 3
R01  22680802.172 2       672.300 2        13.500 2
R20  20422925.767 5      2774.794 5        32.300 5
R19  20896491.724 5     -1294.552 5        30.400 5
R21  23569324.660 3      4621.650 3        20.900 3
R07  24035859.885 1     -4046.700 1        10.800 1
R08  22074275.861 5     -2569.579 5        32.700 5
G01  25025702.331 3      3424.750 3        23.300 3
G02  22608948.515 5      2867.325 5        31.200 5
G04  24164290.974 4     -3618.700 4        23.700 4
G07  21298839.884 5      1981.688 5        30.900 5
G08  19879754.297 3      -612.000 3        21.000 3
G09  22354607.292 5     -2740.450 5        32.500 5
G16  23429565.614 3     -2897.000 3        22.400 3
G27  21426016.942 5     -2622.980 5        32.200 5
G30  22895221.233 4      3057.734 4        28.900 4
E02  26157062.707 3     -1910.150 3        23.400 3
E07  24691991.954 3     -1698.700 3        22.400 3
E27  25407098.596 3      1581.600 3        21.200 3
E29  25835490.926 3      1034.350 3        21.900 3
E30  23632744.556 4      -285.650 4        26.100 4
E34  26301542.585 4      2294.850 4        23.800 4
> 2025 11 24 21 04 21.4406464  0 23                      
R09  20563289.795 4     -1520.070 4        28.000 4
R11  22810230.670 3      2941.600 3        22.400 3
R01  22680670.263 2       691.950 2        16.600 2
R20  20422406.227 5      2776.990 5        31.800 5
R19  20896718.667 5     -1292.578 5        32.000 5
R21  23568404.597 3      4624.100 3        21.700 3
R07  24036615.961 1     -4046.700 1        10.800 1
R08  22074765.123 5     -2567.430 5        32.700 5
G01  25025040.989 3      3428.250 3        22.800 3
G02  22608396.597 4      2869.789 4        28.200 4
G04  24164960.710 3     -3614.150 3        22.400 3
G07  21298455.550 4      1983.961 4        28.900 4
G08  19879925.179 3      -609.700 3        23.300 3
G09  22355131.929 5     -2738.056 5        31.200 5
G16  23430075.860 3     -2894.500 3        21.600 3
G27  21426526.888 5     -2620.572 5        31.900 5
G30  22894651.327 4      3060.300 4        28.100 4
E02  26157447.041 3     -1909.950 3        21.600 3
E07  24692357.701 4     -1700.757 4        25.500 4
E27  25406808.697 3      1585.150 3        23.300 3
E29  25835294.862 3      1033.400 3        22.700 3
E30  23632801.816 4      -284.600 4        24.800 4
E34  26301103.689 4      2296.750 4        23.800 4
> 2025 11 24 21 04 22.4406464  0 23                      
R09  20563554.512 4     -1529.337 4        29.100 4
R11  22809691.943 3      2926.600 3        21.200 3
R01  22680541.053 2       691.950 2        16.600 2
R20  20421888.185 5      2766.517 5        33.000 5
R19  20896959.101 5     -1303.250 5        32.900 5
R21  23567603.252 3      4616.600 3        23.000 3
R07  24037371.738 1     -4046.700 1        10.800 1
R08  22075248.088 5     -2577.016 5        31.600 5
G01  25024379.047 3      3425.200 3        22.500 3
G02  22607891.447 5      2860.109 5        30.000 5
G04  24165677.214 3     -3626.950 3        21.900 3
G07  21298044.535 5      1974.727 5        30.100 5
G08  19880043.896 4      -620.566 4        28.900 4
G09  22355676.951 5     -2747.441 5        34.700 5
G16  23430789.666 3     -2908.050 3        20.400 3
G27  21427026.643 5     -2630.214 5        32.000 5
G30  22894040.050 4      3051.750 4        24.500 4
E02  26157788.804 3     -1917.250 3        20.900 3
E07  24692683.275 4     -1708.450 4        26.900 4
E27  25406511.303 4      1577.400 4        24.100 4
E29  25835088.305 3      1030.950 3        22.000 3
E30  23632855.779 4      -296.981 4        28.000 4
E34  26300672.887 3      2286.000 3        23.400 3
> 2025 11 24 21 04 23.4406464  0 23                      
R09  20563806.637 5     -1534.673 5        34.800 5
R11  22809143.323 4      2924.563 4        25.200 4
R01  22680411.542 2       691.950 2        16.600 2
R20  20421353.655 5      2761.359 5        33.200 5
R19  20897207.928 5     -1308.495 5        33.400 5
R21  23566748.244 4      4614.350 4        23.600 4
R07  24038127.815 1     -4046.700 1        10.800 1
R08  22075670.496 4     -2583.000 4        24.600 4
G01  25023727.298 3      3425.200 3        22.500 3
G02  22607359.915 5      2855.152 5        34.900 5
G04  24166379.628 4     -3630.425 4        25.400 4
G07  21297664.098 5      1969.430 5        34.500 5
G08  19880166.212 5      -626.125 5        32.500 5
G09  22356221.674 6     -2752.731 6        36.800 6
G16  23431302.611 3     -2909.300 3        22.500 3
G27  21427537.489 5     -2635.379 5        33.100 5
G30  22893497.426 3      3046.200 3        20.000 3
E02  26158345.519 4     -1923.600 4        24.800 4
E07  24692978.571 4     -1711.450 4        26.300 4
E27  25406226.500 4      1582.436 4        25.900 4
E29  25834903.933 3      1025.300 3        21.600 3
E30  23632905.844 5      -292.400 5        30.000 5
E34  26300261.872 4      2280.650 4        25.400 4
> 2025 11 24 21 04 24.4406464  0 24                      
R09  20564095.937 6     -1547.389 6        36.900 6
R11  22808608.194 4      2912.258 4        26.000 4
R01  22680511.073 2       674.800 2        16.800 2
R20  20420851.503 6      2748.269 6        35.900 6
R19  20897448.662 5     -1321.774 5        34.800 5
R21  23565898.033 3      4598.950 3        22.300 3
R07  24038883.592 1     -4046.700 1        10.800 1
R08  22076139.671 4     -2595.827 4        27.400 4
G01  25023075.550 3      3425.200 3        22.500 3
G02  22606799.003 5      2842.615 5        34.700 5
G04  24167075.446 4     -3642.570 4        27.200 4
G07  21297292.655 5      1956.895 5        33.300 5
G08  19880288.827 5      -638.999 5        34.000 5
G09  22356749.908 6     -2765.290 6        35.700 6
G16  23431842.837 3     -2919.700 3        21.200 3
G27  21428048.035 5     -2648.032 5        32.000 5
G30  22892895.443 3      3036.450 3        20.300 3
E02  26158722.058 4     -1932.800 4        23.600 4
E07  24693316.137 5     -1723.600 5        31.400 5
E08  27169299.650 2     -3113.650 2        16.000 2
E27  25405932.104 4      1558.350 4        25.300 4
E29  25834700.673 3      1013.000 3        20.300 3
E30  23632967.302 5      -310.100 5        31.000 5
E34  26299823.276 3      2266.500 3        23.400 3
> 2025 11 24 21 04 25.4406464  0 24                      
R09  20564382.539 6     -1555.869 6        35.900 6
R11  22808056.276 4      2904.023 4        25.800 4
R01  22680384.861 2       674.800 2        16.800 2
R20  20420331.663 5      2739.243 5        35.200 5
R19  20897701.387 6     -1330.873 6        35.900 6
R21  23565040.027 3      4590.100 3        23.100 3
R07  24039639.668 1     -4046.700 1        10.800 1
R08  22076641.224 4     -2604.688 4        29.100 4
G01  25022423.801 3      3425.200 3        22.500 3
G02  22606266.572 5      2834.158 5        33.300 5
G04  24167774.262 4     -3650.857 4        27.100 4
G07  21296923.011 5      1948.431 5        33.200 5
G08  19880403.647 5      -647.605 5        33.200 5
G09  22357270.048 5     -2773.734 5        33.700 5
G16  23432354.583 3     -2929.450 3        22.900 3
G27  21428536.098 5     -2656.508 5        30.500 5
G30  22892341.426 3      3024.100 3        21.300 3
E02  26159082.408 3     -1940.300 3        22.400 3
E07  24693650.406 5     -1731.850 5        33.700 5
E08  27169893.239 2     -3107.750 2        16.200 2
E27  25405631.412 4      1551.500 4        24.600 4
E29  25834505.808 3      1002.950 3        21.600 3
E30  23633027.260 5      -319.250 5        30.900 5
E34  26299376.585 3      2266.350 3        20.100 3
> 2025 11 24 21 04 26.4406464  0 24                      
R09  20564653.551 5     -1565.808 5        30.800 5
R11  22807524.744 4      2894.267 4        25.200 4
R01  22680258.648 2       674.800 2        16.800 2
R20  20419819.617 5      2728.923 5        35.200 5
R19  20897948.716 5     -1341.417 5        35.400 5
R21  23564238.382 3      4580.650 3        20.100 3
R07  24040395.745 1     -4046.700 1        10.800 1
R08  22077133.183 5     -2615.104 5        30.400 5
G01  25021772.052 3      3425.200 3        22.500 3
G02  22605720.650 5      2824.332 5        33.500 5
G04  24168468.882 4     -3660.261 4        28.800 4
G07  21296555.766 5      1938.562 5        32.100 5
G08  19880514.271 5      -657.799 5        32.500 5
G09  22357793.786 5     -2783.640 5        33.200 5
G16  23432896.008 3     -2938.400 3        22.100 3
G27  21429039.149 5     -2666.452 5        30.000 5
G30  22891748.437 3      3013.750 3        22.300 3
E02  26159451.453 3     -1956.950 3        21.400 3
E07  24693987.373 6     -1742.100 6        35.900 6
E08  27170486.228 3     -3114.550 3        17.600 3
E27  25405343.011 4      1542.100 4        24.900 4
E29  25834308.245 3       994.800 3        22.300 3
E30  23633092.015 5      -328.200 5        31.200 5
E34  26298945.184 3      2266.350 3        20.100 3
> 2025 11 24 21 04 27.4406464  0 26                      
R09  20564729.099 4     -1561.399 4        25.700 4
R11  22806989.014 3      2899.650 3        23.400 3
R01  22680022.112 2       648.350 2        14.900 2
R20  20419329.157 6      2732.067 6        35.600 6
R19  20898190.648 5     -1338.352 5        35.400 5
R21  23563449.328 3      4587.050 3        20.300 3
R07  24041151.522 1     -4046.700 1        10.800 1
R08  22077608.354 5     -2611.553 5        31.300 5
G01  25021120.303 3      3425.200 3        22.500 3
G02  22605162.436 5      2827.892 5        32.100 5
G04  24169153.008 4     -3656.317 4        28.700 4
G07  21296187.021 5      1942.099 5        32.600 5
G08  19880638.085 5      -654.600 5        32.300 5
G09  22358295.039 5     -2780.071 5        31.100 5
G14  24991260.375 2      2777.800 2        14.100 2
G16  23433418.546 3     -2932.850 3        22.400 3
G27  21429550.595 4     -2662.944 4        29.300 4
G30  22891162.642 3      3020.400 3        22.400 3
E02  26159823.795 3     -1956.950 3        21.400 3
E07  24694322.541 6     -1730.245 6        36.200 6
E08  27171087.612 3     -3121.850 3        17.500 3
E14  26169412.057 5      2539.400 5        31.900 5
E27  25405043.819 4      1546.500 4        25.600 4
E29  25834118.476 3       995.850 3        21.300 3
E30  23633154.672 5      -319.111 5        31.300 5
E34  26298514.082 3      2266.350 3        20.100 3
> 2025 11 24 21 04 28.4406464  0 23                      
R09  20565228.253 4     -1570.993 4        29.100 4
R11  22806416.111 3      2887.400 3        22.900 3
R01  22679925.878 3       639.550 3        21.500 3
R20  20418834.799 6      2722.945 6        35.900 6
R19  20898439.776 5     -1347.610 5        35.200 5
R21  23562592.221 3      4587.050 3        20.300 3
R07  24041907.598 1     -4046.700 1        10.800 1
R08  22078113.504 5     -2620.691 5        32.000 5
G02  22604620.112 5      2819.243 5        31.500 5
G04  24169859.319 4     -3664.815 4        29.400 4
G07  21295826.970 5      1933.417 5        32.800 5
G08  19880767.296 5      -663.331 5        32.600 5
G09  22358793.594 4     -2788.687 4        28.800 4
G16  23433974.661 3     -2944.000 3        18.800 3
G27  21430041.655 4     -2671.786 4        27.400 4
G30  22890600.232 3      3013.500 3        23.400 3
E02  26160183.846 3     -1953.750 3        20.400 3
E07  24694658.308 6     -1747.450 6        36.900 6
E08  27171683.299 3     -3124.150 3        17.700 3
E27  25404755.118 4      1537.000 4        24.400 4
E29  25833929.007 3       985.850 3        21.200 3
E30  23633219.727 5      -333.000 5        31.100 5
E34  26297850.941 3      2252.200 3        20.600 3
> 2025 11 24 21 04 29.4406464  0 23                      
R09  20565545.134 5     -1573.953 5        33.300 5
R11  22805950.234 3      2886.200 3        21.100 3
R01  22679705.231 3       636.200 3        22.700 3
R20  20418318.557 6      2719.637 6        36.400 6
R19  20898676.312 5     -1351.105 5        34.800 5
R21  23561735.115 3      4587.050 3        20.300 3
R07  24042663.375 1     -4046.700 1        10.800 1
R08  22078602.166 5     -2623.758 5        32.100 5
G02  22604073.590 5      2816.426 5        30.100 5
G04  24170556.936 5     -3667.116 5        30.000 5
G07  21295460.024 5      1930.573 5        32.700 5
G08  19880899.804 5      -666.615 5        33.300 5
G09  22359295.146 4     -2791.545 4        27.300 4
G16  23434534.973 3     -2944.000 3        18.800 3
G27  21430516.227 4     -2674.943 4        25.100 4
G30  22889982.359 3      3011.150 3        21.900 3
E02  26160552.291 3     -1962.050 3        22.500 3
E07  24694995.275 6     -1746.864 6        37.500 6
E08  27172286.182 3     -3129.750 3        17.800 3
E27  25404454.726 3      1535.900 3        23.400 3
E29  25833735.042 3       987.850 3        22.900 3
E30  23633280.285 5      -332.574 5        31.200 5
E34  26297639.887 4      2242.350 4        23.500 4
> 2025 11 24 21 04 30.4406464  0 23                      
R09  20565847.624 5     -1578.766 5        34.900 5
R11  22805410.307 3      2886.200 3        21.100 3
R01  22679569.425 4       630.250 4        24.000 4
R20  20417809.209 6      2714.472 6        37.400 6
R19  20898935.932 5     -1356.409 5        35.100 5
R21  23560877.708 3      4587.050 3        20.300 3
R07  24043419.451 1     -4046.700 1        10.800 1
R08  22079107.616 5     -2628.871 5        32.000 5
G02  22603524.670 5      2811.668 5        30.000 5
G04  24171260.249 5     -3671.643 5        30.700 5
G07  21295087.982 5      1925.788 5        32.400 5
G08  19881014.325 5      -671.548 5        32.500 5
G09  22359822.781 4     -2796.223 4        28.100 4
G16  23435189.420 2     -2954.150 2        16.100 2
G27  21430996.494 3     -2675.900 3        19.800 3
G30  22889427.743 3      3006.700 3        19.700 3
E02  26160949.816 4     -1960.930 4        25.600 4
E07  24695334.640 6     -1745.521 6        37.300 6
E08  27172887.566 4     -3151.050 4        24.300 4
E27  25404165.127 4      1527.800 4        24.000 4
E29  25833544.674 3       980.150 3        21.900 3
E30  23633349.537 5      -330.890 5        30.600 5
E34  26297213.282 4      2242.350 4        23.500 4
> 2025 11 24 21 04 31.4406464  0 24                      
R09  20566140.821 5     -1584.590 5        34.100 5
R11  22804870.081 3      2886.200 3        21.100 3
R01  22679541.844 4       622.962 4        25.400 4
R20  20417322.946 6      2708.194 6        37.100 6
R19  20899184.760 5     -1362.832 5        34.400 5
R21  23560020.602 3      4587.050 3        20.300 3
R07  24044175.528 1     -4046.700 1        10.800 1
R08  22079586.685 5     -2635.154 5        30.700 5
G01  25018680.292 3      3372.450 3        18.100 3
G02  22603007.828 5      2805.952 5        31.100 5
G04  24171951.271 4     -3677.129 4        28.600 4
G07  21294722.535 5      1919.985 5        32.100 5
G08  19881139.638 5      -677.650 5        31.400 5
G09  22360377.397 4     -2802.007 4        28.000 4
G16  23435752.730 2     -2955.150 2        16.600 2
G27  21431506.141 3     -2685.850 3        21.100 3
G30  22888843.448 3      3004.150 3        19.100 3
E02  26161323.957 4     -1970.250 4        24.500 4
E07  24695673.106 6     -1760.800 6        37.700 6
E08  27173504.239 4     -3158.500 4        24.700 4
E27  25403866.234 3      1525.300 3        23.300 3
E29  25833368.695 3       971.800 3        22.100 3
E30  23633413.992 5      -345.600 5        30.000 5
E34  26296594.811 3      2235.450 3        22.400 3
> 2025 11 24 21 04 32.4406464  0 24                      
R09  20566392.947 5     -1583.453 5        30.000 5
R11  22804108.009 2      2879.300 2        15.500 2
R01  22679404.539 4       623.500 4        24.000 4
R20  20416814.198 6      2709.140 6        37.500 6
R19  20899436.286 5     -1362.154 5        34.700 5
R21  23559163.495 3      4587.050 3        20.300 3
R07  24044931.305 1     -4046.700 1        10.800 1
R08  22080092.135 4     -2634.128 4        28.200 4
G01  25018035.139 3      3371.250 3        18.500 3
G02  22602475.396 5      2807.078 5        30.400 5
G04  24172664.177 4     -3675.617 4        27.900 4
G07  21294352.591 5      1921.209 5        31.500 5
G08  19881281.140 5      -676.654 5        31.700 5
G09  22360929.615 4     -2801.042 4        27.400 4
G16  23436338.825 3     -2959.400 3        17.900 3
G27  21432017.288 3     -2685.850 3        21.100 3
G30  22888238.167 3      2999.500 3        20.100 3
E02  26161697.498 4     -1971.662 4        25.500 4
E07  24696013.070 6     -1761.676 6        38.000 6
E08  27174084.637 4     -3160.919 4        25.700 4
E27  25403589.226 3      1525.350 3        22.800 3
E29  25833178.927 3       975.400 3        21.400 3
E30  23633482.345 5      -347.595 5        31.000 5
E34  26296182.596 4      2235.750 4        24.400 4
> 2025 11 24 21 04 33.4406464  0 25                      
R09  20566535.648 4     -1589.250 4        25.300 4
R11  22803775.539 2      2876.100 2        16.200 2
R01  22679201.580 3       615.150 3        21.400 3
R20  20416288.062 6      2701.740 6        36.700 6
R19  20899687.812 5     -1369.664 5        34.300 5
R21  23558601.984 1      4562.200 1        10.200 1
R07  24045687.381 1     -4046.700 1        10.800 1
R08  22080640.755 4     -2641.534 4        27.000 4
G01  25017392.084 3      3369.600 3        19.000 3
G02  22601958.854 5      2800.330 5        31.300 5
G04  24173347.104 4     -3682.191 4        28.000 4
G07  21293973.054 5      1914.329 5        30.700 5
G08  19881419.044 5      -683.875 5        31.600 5
G09  22361492.625 5     -2807.938 5        31.000 5
G14  24988297.826 2      2746.300 2        14.700 2
G16  23436902.434 3     -2958.500 3        19.400 3
G27  21432603.082 3     -2689.350 3        22.600 3
G30  22887725.522 3      2991.300 3        17.900 3
E02  26162064.444 3     -1973.950 3        22.400 3
E07  24696349.437 6     -1766.200 6        38.500 6
E08  27174694.415 4     -3161.550 4        24.200 4
E27  25403300.525 3      1521.750 3        22.800 3
E29  25832991.556 3       970.050 3        21.700 3
E30  23633553.096 5      -351.350 5        30.400 5
E34  26295953.255 4      2227.150 4        25.800 4
> 2025 11 24 21 04 34.4406464  0 25                      
R09  20567076.174 5     -1592.978 5        29.500 5
R11  22803083.019 3      2868.950 3        20.300 3
R01  22679177.596 2       618.650 2        16.200 2
R20  20415792.505 6      2698.931 6        36.000 6
R19  20899939.337 5     -1372.602 5        34.000 5
R21  23557749.374 1      4562.200 1        10.200 1
R07  24046443.158 1     -4046.700 1        10.800 1
R08  22081082.649 4     -2643.878 4        26.700 4
G01  25016752.327 3      3368.600 3        18.700 3
G02  22601419.827 5      2797.853 5        30.500 5
G04  24174060.910 4     -3684.237 4        28.400 4
G07  21293602.210 5      1911.896 5        30.500 5
G08  19881551.553 5      -686.528 5        33.000 5
G09  22362039.746 5     -2810.057 5        31.400 5
G14  24987758.499 2      2744.500 2        15.200 2
G16  23437485.831 3     -2963.600 3        19.300 3
G27  21433181.082 4     -2691.463 4        27.100 4
G30  22887156.216 3      2991.300 3        17.900 3
E02  26162448.778 3     -1977.600 3        22.700 3
E07  24696690.901 6     -1763.115 6        37.500 6
E08  27175282.008 4     -3165.050 4        23.500 4
E27  25403022.318 3      1516.300 3        23.200 3
E29  25832801.788 3       965.800 3        21.800 3
E30  23633621.449 5      -349.534 5        30.600 5
E34  26295524.552 4      2225.150 4        24.200 4
> 2025 11 24 21 04 35.4406464  0 24                      
R09  20567344.788 5     -1590.724 5        30.700 5
R11  22802583.864 3      2874.050 3        18.300 3
R01  22679061.877 2       618.650 2        16.200 2
R20  20415271.166 5      2700.452 5        35.000 5
R19  20900200.457 5     -1371.197 5        33.000 5
R21  23556896.764 1      4562.200 1        10.200 1
R08  22081523.344 3     -2643.100 3        22.400 3
G01  25016110.471 3      3367.250 3        18.600 3
G02  22600907.182 5      2799.827 5        31.600 5
G04  24174760.626 4     -3681.990 4        27.900 4
G07  21293232.266 5      1913.755 5        29.900 5
G08  19881672.669 5      -684.962 5        32.600 5
G09  22362576.975 5     -2808.363 5        34.300 5
G14  24987206.881 2      2744.850 2        15.000 2
G16  23438062.631 3     -2959.300 3        18.400 3
G27  21433734.799 4     -2693.826 4        26.700 4
G30  22886586.910 3      2991.300 3        17.900 3
E02  26162820.221 3     -1976.750 3        18.500 3
E07  24697021.872 6     -1772.230 6        37.800 6
E08  27175759.278 3     -3162.700 3        22.500 3
E27  25402739.014 4      1519.550 4        24.100 4
E29  25832624.611 3       967.150 3        22.600 3
E30  23633691.900 5      -354.594 5        30.300 5
E34  26295100.945 4      2225.150 4        24.200 4
> 2025 11 24 21 04 36.4406464  0 24                      
R09  20567629.591 5     -1585.055 5        32.500 5
R11  22802039.141 3      2878.550 3        21.200 3
R01  22678946.157 2       618.650 2        16.200 2
R20  20414734.238 5      2705.766 5        35.100 5
R19  20900460.677 5     -1365.963 5        33.100 5
R21  23555723.376 2      4563.100 2        15.600 2
R08  22082003.312 4     -2637.950 4        24.500 4
G01  25015465.918 3      3367.150 3        18.600 3
G02  22600374.451 5      2805.398 5        32.400 5
G04  24175460.042 4     -3675.789 4        28.100 4
G07  21292881.209 5      1919.335 5        30.300 5
G08  19881800.380 5      -679.559 5        32.800 5
G09  22363111.205 5     -2802.759 5        34.900 5
G14  24986683.743 2      2744.800 2        14.800 2
G16  23438625.642 3     -2959.300 3        18.400 3
G27  21434244.746 4     -2686.074 4        27.700 4
G30  22886025.099 2      3002.350 2        15.000 2
E02  26163196.161 3     -1976.750 3        18.500 3
E07  24697357.040 6     -1771.026 6        37.400 6
E08  27176487.474 3     -3154.700 3        23.100 3
E27  25402447.916 4      1523.900 4        24.300 4
E29  25832445.634 3       970.350 3        22.200 3
E30  23633766.548 5      -351.727 5        30.600 5
E34  26294487.869 3      2230.400 3        22.400 3
> 2025 11 24 21 04 37.4406464  0 24                      
R09  20567892.509 5     -1585.733 5        31.300 5
R11  22801516.603 3      2876.450 3        21.200 3
R01  22678962.345 2       616.750 2        15.500 2
R20  20414218.295 5      2704.732 5        34.100 5
R19  20900717.898 5     -1367.204 5        34.400 5
R21  23554982.289 3      4560.600 3        18.100 3
R08  22082528.848 4     -2637.807 4        26.600 4
G01  25014813.270 3      3371.700 3        19.100 3
G02  22599846.816 5      2804.597 5        31.100 5
G04  24176153.162 4     -3676.474 4        27.500 4
G07  21292519.660 5      1918.608 5        30.800 5
G08  19881939.484 5      -680.509 5        34.000 5
G09  22363639.739 5     -2803.534 5        35.300 5
G14  24986152.211 2      2744.250 2        14.300 2
G16  23439116.702 2     -2953.750 2        16.600 2
G27  21434769.083 4     -2687.019 4        27.100 4
G30  22885457.292 2      3000.000 2        17.300 2
E02  26163470.171 3     -1968.050 3        18.100 3
E07  24697689.510 6     -1759.931 6        37.400 6
E08  27177014.809 4     -3155.500 4        23.800 4
E27  25402155.018 4      1525.350 4        24.400 4
E29  25832260.962 3       970.050 3        23.000 3
E30  23633834.901 5      -342.059 5        31.400 5
E34  26294075.055 4      2233.700 4        23.700 4
> 2025 11 24 21 04 38.4406464  0 24                      
R09  20568135.341 4     -1584.138 4        28.600 4
R11  22800982.673 3      2877.900 3        21.200 3
R01  22678847.225 2       616.750 2        15.500 2
R20  20413718.541 5      2705.912 5        33.500 5
R19  20900990.410 5     -1366.229 5        34.500 5
R21  23554122.785 3      4568.650 3        20.400 3
R08  22083050.187 5     -2636.558 5        30.200 5
G01  25014112.954 3      3370.900 3        18.700 3
G02  22599297.896 5      2806.202 5        31.700 5
G04  24176841.186 4     -3675.042 4        28.300 4
G07  21292163.506 4      1920.173 4        28.700 4
G08  19882068.994 5      -679.314 5        33.200 5
G09  22364172.770 6     -2801.942 6        35.800 6
G14  24985639.266 2      2744.900 2        13.700 2
G16  23439678.812 2     -2953.750 2        16.600 2
G27  21435275.432 4     -2685.511 4        26.800 4
G30  22884886.487 2      3000.000 2        17.300 2
E02  26163810.136 3     -1965.050 3        18.600 3
E07  24698016.284 6     -1766.695 6        37.200 6
E08  27177688.742 3     -3154.600 3        23.000 3
E27  25401885.205 4      1529.050 4        24.500 4
E29  25832209.398 3       973.150 3        21.500 3
E30  23633901.755 5      -350.227 5        30.900 5
E34  26293638.557 4      2237.200 4        23.500 4
> 2025 11 24 21 04 39.4406464  0 24                      
R09  20568376.674 4     -1588.159 4        27.000 4
R11  22800423.859 3      2873.850 3        21.400 3
R01  22678731.805 2       616.750 2        15.500 2
R20  20413229.879 5      2701.497 5        34.000 5
R19  20901257.525 5     -1370.778 5        35.000 5
R21  23553227.304 3      4561.050 3        19.300 3
R08  22083551.440 5     -2640.926 5        32.300 5
G01  25013471.398 3      3370.900 3        18.700 3
G02  22598764.265 5      2802.116 5        31.900 5
G04  24177530.708 4     -3678.343 4        28.400 4
G07  21291813.049 5      1916.069 5        31.100 5
G08  19882208.098 5      -683.581 5        33.500 5
G09  22364698.006 5     -2806.026 5        34.900 5
G14  24985117.328 2      2745.400 2        13.800 2
G16  23440142.891 2     -2955.150 2        16.900 2
G27  21435780.582 4     -2689.705 4        26.600 4
G30  22884345.961 2      2991.750 2        14.300 2
E02  26164186.075 3     -1972.150 3        21.400 3
E07  24698344.856 6     -1755.228 6        36.900 6
E08  27178294.623 3     -3158.050 3        22.700 3
E27  25401583.014 4      1521.450 4        24.100 4
E29  25832032.520 3       968.050 3        22.500 3
E30  23633967.409 5      -338.963 5        30.400 5
E34  26293411.015 3      2229.250 3        23.300 3
> 2025 11 24 21 04 40.4406464  0 24                      
R09  20568763.706 5     -1588.636 5        30.100 5
R11  22799869.243 3      2874.650 3        19.900 3
R01  22678616.385 2       616.750 2        15.500 2
R20  20412725.029 5      2700.673 5        34.100 5
R19  20901510.850 6     -1371.742 6        35.600 6
R21  23552371.997 3      4558.800 3        20.100 3
R08  22084060.188 5     -2641.620 5        33.900 5
G01  25012829.843 3      3370.900 3        18.700 3
G02  22598236.631 5      2801.788 5        31.100 5
G04  24178235.820 4     -3678.377 4        28.000 4
G07  21291443.405 5      1915.667 5        31.800 5
G08  19882339.407 5      -684.222 5        33.200 5
G09  22365228.639 5     -2806.489 5        35.300 5
G14  24984606.181 2      2744.650 2        13.500 2
G16  23440734.681 3     -2961.350 3        20.400 3
G27  21436284.234 4     -2690.221 4        26.300 4
G30  22883782.052 2      2992.850 2        16.200 2
E02  26164566.812 3     -1972.400 3        22.000 3
E07  24698672.229 6     -1763.514 6        37.200 6
E08  27178746.410 3     -3159.150 3        21.900 3
E27  25401311.402 4      1519.950 4        25.200 4
E29  25831849.947 3       968.950 3        22.700 3
E30  23634036.661 5      -346.930 5        30.200 5
E34  26293000.599 3      2229.550 3        23.000 3
> 2025 11 24 21 04 41.4406464  0 24                      
R09  20569067.395 5     -1595.602 5        31.200 5
R11  22799353.600 3      2870.950 3        21.900 3
R01  22678500.965 2       616.750 2        15.500 2
R20  20412240.564 5      2693.311 5        34.800 5
R19  20901766.872 6     -1379.234 6        36.000 6
R21  23551526.882 3      4554.550 3        19.400 3
R08  22084543.153 5     -2648.831 5        35.000 5
G01  25012188.587 3      3370.900 3        18.700 3
G02  22597715.591 5      2794.786 5        31.100 5
G04  24178934.037 4     -3685.004 4        28.500 4
G07  21291093.847 5      1908.825 5        32.200 5
G08  19882473.414 5      -691.455 5        33.400 5
G09  22365755.674 5     -2813.425 5        34.100 5
G14  24984076.748 2      2744.700 2        13.300 2
G16  23441332.767 3     -2964.650 3        19.100 3
G27  21436810.969 4     -2697.068 4        26.900 4
G30  22883212.446 2      2992.850 2        16.200 2
E02  26164932.259 3     -1974.400 3        21.600 3
E07  24699002.900 6     -1772.350 6        36.700 6
E08  27179498.589 3     -3166.300 3        22.700 3
E27  25401040.390 4      1514.050 4        24.700 4
E29  25831650.285 3       963.700 3        22.400 3
E30  23634098.419 5      -354.700 5        30.600 5
E34  26292564.401 4      2222.350 4        24.000 4
> 2025 11 24 21 04 42.4406464  0 24                      
R09  20569390.572 5     -1595.337 5        32.600 5
R11  22798780.697 3      2869.700 3        19.700 3
R01  22678136.117 2       612.050 2        13.800 2
R20  20411743.808 5      2693.132 5        35.000 5
R19  20902020.197 5     -1379.606 5        35.200 5
R21  23550623.907 3      4555.650 3        19.700 3
R08  22085051.901 5     -2648.817 5        35.200 5
G01  25011547.031 3      3370.900 3        18.700 3
G02  22597194.252 5      2795.221 5        33.500 5
G04  24179639.149 4     -3684.351 4        28.200 4
G07  21290733.496 5      1909.019 5        32.800 5
G08  19882614.617 5      -691.481 5        34.100 5
G09  22366284.208 5     -2813.059 5        33.800 5
G14  24983554.510 2      2744.700 2        13.300 2
G16  23441899.075 2     -2963.750 2        16.600 2
G27  21437313.721 4     -2696.991 4        25.900 4
G30  22882743.271 2      2996.050 2        14.000 2
E02  26165331.282 3     -1974.300 3        21.200 3
E07  24699338.968 6     -1774.516 6        36.300 6
E08  27180117.660 3     -3164.100 3        21.600 3
E27  25400704.922 4      1517.050 4        25.300 4
E29  25831487.198 3       963.600 3        23.200 3
E30  23634168.570 5      -354.879 5        30.900 5
E34  26292117.110 3      2221.450 3        22.600 3
> 2025 11 24 21 04 43.4406464  0 25                      
R09  20569697.859 5     -1600.721 5        30.900 5
R11  22798320.216 3      2866.100 3        22.200 3
R01  22677923.864 3       598.500 3        20.100 3
R20  20411241.956 5      2687.444 5        33.900 5
R19  20902267.825 5     -1385.446 5        34.700 5
R21  23549738.919 2      4559.750 2        15.800 2
R08  22085545.060 5     -2654.341 5        34.900 5
G01  25010905.475 3      3370.900 3        18.700 3
G02  22596654.326 5      2789.725 5        31.600 5
G04  24180330.770 4     -3689.354 4        27.500 4
G07  21290368.649 5      1903.677 5        33.800 5
G08  19882743.827 5      -697.059 5        34.100 5
G09  22366811.543 5     -2818.423 5        32.700 5
G14  24983032.271 2      2744.700 2        13.300 2
G16  23442462.985 2     -2963.750 2        16.600 2
G27  21437767.907 4     -2701.729 4        26.000 4
G30  22882173.066 2      2996.050 2        14.000 2
E02  26165684.138 3     -1991.850 3        18.200 3
E07  24699672.037 5     -1776.000 5        34.200 5
E08  27180718.744 4     -3168.650 4        23.700 4
E27  25400456.694 4      1508.950 4        26.500 4
E29  25831303.725 3       963.600 3        23.200 3
E30  23634231.227 5      -359.600 5        32.000 5
E34  26291727.680 4      2225.112 4        25.500 4
E36  26907974.461 2       -93.350 2        12.900 2
> 2025 11 24 21 04 44.4406464  0 24                      
R09  20570182.923 4     -1589.014 4        27.400 4
R11  22797744.914 3      2868.450 3        20.500 3
R01  22677812.042 3       598.500 3        20.100 3
R20  20410734.407 5      2687.320 5        32.800 5
R19  20902506.160 5     -1385.616 5        32.800 5
R21  23548886.609 2      4559.750 2        15.800 2
R08  22086039.717 5     -2654.479 5        34.800 5
G01  25010264.219 3      3370.900 3        18.700 3
G02  22596111.102 5      2790.144 5        32.300 5
G04  24181040.678 4     -3689.244 4        27.800 4
G07  21289989.411 6      1904.033 6        35.600 6
G08  19882857.149 4      -697.037 4        26.900 4
G09  22367350.270 5     -2818.175 5        32.900 5
G16  23443027.194 2     -2963.750 2        16.600 2
G27  21438208.302 5     -2702.091 5        32.500 5
G30  22881602.860 2      2996.050 2        14.000 2
E02  26166071.170 3     -1979.750 3        21.700 3
E07  24700008.704 5     -1773.271 5        31.200 5
E08  27181317.430 3     -3170.950 3        22.200 3
E27  25400128.721 4      1513.450 4        28.700 4
E29  25830970.356 3       955.500 3        22.200 3
E30  23634298.680 5      -359.024 5        30.500 5
E34  26291316.365 4      2224.001 4        26.800 4
E36  26907992.149 2       -93.350 2        12.900 2
> 2025 11 24 21 04 45.4406464  0 23                      
R09  20570582.846 4     -1585.150 4        25.100 4
R11  22797276.338 3      2883.750 3        21.800 3
R01  22677699.919 3       598.500 3        20.100 3
R20  20410243.347 5      2703.073 5        33.800 5
R19  20902762.783 5     -1370.103 5        32.000 5
R21  23548034.599 2      4559.750 2        15.800 2
R08  22086522.083 5     -2638.356 5        33.600 5
G02  22595583.767 5      2806.167 5        32.800 5
G04  24181736.197 5     -3672.347 5        30.200 5
G07  21289628.162 5      1919.851 5        33.400 5
G08  19883016.938 5      -681.420 5        30.100 5
G09  22367889.597 5     -2802.075 5        33.000 5
G16  23443392.941 3     -2958.550 3        20.800 3
G27  21438722.745 5     -2686.264 5        31.600 5
G30  22880875.864 2      2992.550 2        13.500 2
E02  26166448.009 3     -1979.750 3        21.700 3
E07  24700350.468 5     -1761.350 5        32.500 5
E08  27181921.212 3     -3156.800 3        21.200 3
E27  25399858.308 4      1526.600 4        27.500 4
E29  25830787.482 3       971.950 3        22.200 3
E30  23634359.838 5      -340.850 5        31.000 5
E34  26290909.546 4      2235.950 4        24.800 4
E36  26908009.837 2       -93.350 2        12.900 2
> 2025 11 24 21 04 46.4406464  0 23                      
R09  20570686.574 4     -1579.388 4        25.800 4
R11  22796712.429 4      2887.200 4        24.300 4
R01  22678093.547 2       603.800 2        14.800 2
R20  20409734.899 5      2708.250 5        34.900 5
R19  20903017.606 5     -1365.062 5        32.400 5
R21  23547447.606 2      4562.100 2        15.700 2
R08  22087017.041 5     -2633.313 5        33.800 5
G02  22595072.022 5      2811.401 5        32.400 5
G04  24182424.820 5     -3667.021 5        31.000 5
G07  21289281.601 5      1925.188 5        34.500 5
G08  19883157.241 5      -676.360 5        33.200 5
G09  22368435.219 5     -2797.057 5        35.200 5
G16  23443936.165 4     -2947.150 4        23.900 4
G27  21439225.797 4     -2681.058 4        26.800 4
G30  22880306.558 2      2992.550 2        13.500 2
E02  26166824.549 3     -1979.750 3        21.700 3
E07  24700696.128 5     -1756.550 5        33.000 5
E08  27182529.791 3     -3148.050 3        23.100 3
E27  25399563.313 4      1533.300 4        27.400 4
E29  25830595.315 3       974.350 3        21.000 3
E30  23634431.488 5      -337.650 5        32.200 5
E34  26290487.439 4      2232.862 4        25.500 4
E36  26908027.525 2       -93.350 2        12.900 2
> 2025 11 24 21 04 47.4406464  0 24                      
R09  20570899.727 5     -1574.151 5        32.300 5
R11  22796167.106 4      2891.610 4        25.900 4
R01  22677980.525 2       603.800 2        14.800 2
R20  20409217.757 5      2712.507 5        34.300 5
R19  20903278.726 5     -1360.873 5        33.500 5
R21  23546538.335 3      4575.050 3        19.600 3
R08  22087515.895 5     -2628.767 5        33.900 5
G02  22594526.999 5      2816.010 5        32.500 5
G04  24183120.638 5     -3661.970 5        31.500 5
G07  21288908.060 5      1929.758 5        34.800 5
G08  19883304.139 5      -671.961 5        31.700 5
G09  22368971.248 6     -2792.405 6        36.000 6
G14  24980877.663 2      2762.300 2        15.800 2
G16  23444488.683 3     -2944.000 3        19.900 3
G27  21439739.941 4     -2676.040 4        25.100 4
G30  22879736.952 2      2992.550 2        13.500 2
E02  26167273.038 2     -1959.050 2        17.400 2
E07  24701034.894 5     -1751.800 5        35.300 5
E08  27183136.870 3     -3143.450 3        22.800 3
E27  25399271.015 4      1540.300 4        26.900 4
E29  25830395.654 3       979.750 3        19.700 3
E30  23634493.845 5      -332.650 5        31.200 5
E34  26290067.429 4      2246.050 4        23.700 4
E36  26908045.512 2       -93.350 2        12.900 2
> 2025 11 24 21 04 48.4406464  0 24                      
R09  20571197.721 5     -1573.069 5        31.100 5
R11  22795620.884 3      2894.200 3        23.300 3
R01  22677867.503 2       603.800 2        14.800 2
R20  20408725.498 5      2713.272 5        32.900 5
R19  20903528.153 5     -1360.299 5        31.500 5
R21  23545729.495 3      4584.300 3        18.500 3
R08  22087997.962 5     -2627.714 5        32.900 5
G02  22593986.473 5      2817.303 5        31.600 5
G04  24183812.260 5     -3660.252 5        30.400 5
G07  21288544.112 5      1930.877 5        33.100 5
G08  19883426.754 5      -671.214 5        30.600 5
G09  22369499.782 6     -2791.161 6        36.600 6
G14  24980350.328 2      2761.100 2        16.300 2
G16  23445048.995 3     -2944.000 3        19.900 3
G27  21440277.169 4     -2675.604 4        29.200 4
G30  22879174.541 2      3012.050 2        15.200 2
E02  26167538.355 3     -1957.000 3        18.400 3
E07  24701373.659 6     -1751.811 6        35.700 6
E08  27183726.262 3     -3138.400 3        22.000 3
E27  25398933.449 4      1537.900 4        25.400 4
E29  25830227.470 3       981.750 3        19.100 3
E30  23634552.904 4      -331.400 4        29.100 4
E34  26289579.967 3      2246.300 3        22.000 3
E36  26908063.200 2       -93.350 2        12.900 2
> 2025 11 24 21 04 49.4406464  0 24                      
R09  20571493.016 5     -1577.300 5        31.100 5
R11  22795086.354 3      2917.300 3        22.200 3
R01  22677754.482 2       603.800 2        14.800 2
R20  20408226.943 6      2734.029 6        39.500 6
R19  20903809.358 5     -1339.760 5        32.400 5
R21  23544927.850 3      4602.800 3        17.700 3
R08  22088463.539 4     -2606.934 4        29.200 4
G02  22593442.350 6      2837.899 6        38.300 6
G04  24184512.275 5     -3639.329 5        31.500 5
G07  21288203.248 4      1952.140 4        26.800 4
G08  19883534.380 5      -650.566 5        33.500 5
G09  22370028.916 6     -2770.430 6        37.000 6
G14  24979827.789 2      2764.100 2        16.100 2
G16  23445609.307 3     -2944.000 3        19.900 3
G27  21440811.699 4     -2654.837 4        27.600 4
G30  22878624.722 3      3032.950 3        19.600 3
E02  26167898.705 4     -1932.150 4        24.200 4
E07  24701699.234 6     -1729.450 6        35.700 6
